$GPGGA,105416.000,5034.2854,N,00227.4004,W,1,10,0.9,7.81,M,48.8,M,,0000*75
$GPGSA,M,3,06,25,23,13,05,29,31,16,21,30,,,1.8,0.9,1.5*33
$GPGSV,3,1,11,30,70,128,42,29,50,064,47,31,49,210,34,21,48,155,38*73
$GPGSV,3,2,11,16,27,295,37,06,22,250,31,25,19,116,43,05,12,049,48*7A
$GPGSV,3,3,11,23,11,305,38,13,10,330,39,03,07,254,32*4A
$GPRMC,105416.000,A,5034.2854,N,00227.4004,W,0.04,120.75,161011,,,A*76
$GPGGA,105417.000,5034.2854,N,00227.4004,W,1,10,0.9,7.81,M,48.8,M,,0000*74
$GPGSA,M,3,06,25,23,13,05,29,31,16,21,30,,,1.8,0.9,1.5*33
$GPRMC,105417.000,A,5034.2854,N,00227.4004,W,0.05,7.17,161011,,,A*76
$GPGGA,105418.000,5034.2854,N,00227.4004,W,1,10,0.9,7.81,M,48.8,M,,0000*7B
$GPGSA,M,3,06,25,23,13,05,29,31,16,21,30,,,1.8,0.9,1.5*33
$GPRMC,105418.000,A,5034.2854,N,00227.4004,W,0.05,25.99,161011,,,A*4F
$GPGGA,105419.000,5034.2854,N,00227.4004,W,1,10,0.9,7.81,M,48.8,M,,0000*7A
$GPGSA,M,3,06,25,23,13,05,29,31,16,21,30,,,1.8,0.9,1.5*33
$GPRMC,105419.000,A,5034.2854,N,00227.4004,W,0.04,112.48,161011,,,A*76
$GPGGA,105420.000,5034.2854,N,00227.4004,W,1,10,0.9,7.81,M,48.8,M,,0000*70
$GPGSA,M,3,06,25,23,13,05,29,31,16,21,30,,,1.8,0.9,1.5*33
$GPRMC,105420.000,A,5034.2854,N,00227.4004,W,0.03,15.15,161011,,,A*45
$GPGGA,105421.000,5034.2854,N,00227.4004,W,1,10,0.9,7.80,M,48.8,M,,0000*70
$GPGSA,M,3,06,25,23,13,05,29,31,16,21,30,,,1.8,0.9,1.5*33
$GPGSV,3,1,11,30,70,128,41,29,50,064,47,31,49,210,32,21,48,155,37*79
$GPGSV,3,2,11,16,27,295,40,06,22,250,36,25,19,116,43,05,12,049,48*7D
$GPGSV,3,3,11,23,11,305,42,13,10,330,39,03,07,254,34*41
$GPRMC,105421.000,A,5034.2854,N,00227.4004,W,0.05,69.74,161011,,,A*4E
$GPGGA,105422.000,5034.2855,N,00227.4004,W,1,10,0.9,7.88,M,48.8,M,,0000*7A
$GPGSA,M,3,06,25,23,13,05,29,31,16,21,30,,,1.8,0.9,1.5*33
$GPRMC,105422.000,A,5034.2855,N,00227.4004,W,0.23,279.33,161011,,,A*78
$GPGGA,105423.000,5034.2854,N,00227.4006,W,1,10,0.9,7.90,M,48.8,M,,0000*71
$GPGSA,M,3,06,25,23,13,05,29,31,16,21,30,,,1.8,0.9,1.5*33
$GPRMC,105423.000,A,5034.2854,N,00227.4006,W,0.39,247.86,161011,,,A*72
$GPGGA,105424.000,5034.2853,N,00227.4007,W,1,10,0.9,7.84,M,48.8,M,,0000*75
$GPGSA,M,3,06,25,23,13,05,29,31,16,21,30,,,1.8,0.9,1.5*33
$GPRMC,105424.000,A,5034.2853,N,00227.4007,W,0.18,108.19,161011,,,A*7E
$GPGGA,105425.000,5034.2852,N,00227.4007,W,1,10,0.9,7.81,M,48.8,M,,0000*70
$GPGSA,M,3,06,25,23,13,05,29,31,16,21,30,,,1.8,0.9,1.5*33
$GPRMC,105425.000,A,5034.2852,N,00227.4007,W,0.01,310.35,161011,,,A*73
$GPGGA,105426.000,5034.2851,N,00227.4009,W,1,10,0.9,7.75,M,48.8,M,,0000*75
$GPGSA,M,3,06,25,23,13,05,29,31,16,21,30,,,1.8,0.9,1.5*33
$GPGSV,3,1,11,30,70,128,41,29,50,064,46,31,49,210,36,21,48,155,37*7C
$GPGSV,3,2,11,16,27,295,40,06,22,250,37,25,19,116,43,05,12,049,47*73
$GPGSV,3,3,11,23,11,305,45,13,10,330,46,03,07,254,33*49
$GPRMC,105426.000,A,5034.2851,N,00227.4009,W,0.46,243.47,161011,,,A*7C
$GPGGA,105427.000,5034.2849,N,00227.4012,W,1,10,0.9,7.75,M,48.8,M,,0000*77
$GPGSA,M,3,06,25,23,13,05,29,31,16,21,30,,,1.8,0.9,1.5*33
$GPRMC,105427.000,A,5034.2849,N,00227.4012,W,1.22,223.99,161011,,,A*78
$GPGGA,105428.000,5034.2846,N,00227.4018,W,1,10,0.9,7.69,M,48.8,M,,0000*70
$GPGSA,M,3,06,25,23,13,05,29,31,16,21,30,,,1.8,0.9,1.5*33
$GPRMC,105428.000,A,5034.2846,N,00227.4018,W,1.89,227.08,161011,,,A*7F
$GPGGA,105429.000,5034.2841,N,00227.4024,W,1,10,0.9,7.71,M,48.8,M,,0000*70
$GPGSA,M,3,06,25,23,13,05,29,31,16,21,30,,,1.8,0.9,1.5*33
$GPRMC,105429.000,A,5034.2841,N,00227.4024,W,1.95,213.99,161011,,,A*74
$GPGGA,105430.000,5034.2837,N,00227.4029,W,1,10,0.9,7.67,M,48.8,M,,0000*73
$GPGSA,M,3,06,25,23,13,05,29,31,16,21,30,,,1.8,0.9,1.5*33
$GPRMC,105430.000,A,5034.2837,N,00227.4029,W,1.72,218.80,161011,,,A*7A
$GPGGA,105431.000,5034.2834,N,00227.4035,W,1,10,0.9,7.66,M,48.8,M,,0000*7D
$GPGSA,M,3,06,25,23,13,05,29,31,16,21,30,,,1.8,0.9,1.5*33
$GPGSV,3,1,11,30,70,128,42,29,50,064,46,31,49,210,37,21,48,155,42*7C
$GPGSV,3,2,11,16,27,295,38,06,22,250,34,25,19,116,45,05,12,049,45*7B
$GPGSV,3,3,11,23,11,305,39,13,10,330,36,03,07,254,31*47
$GPRMC,105431.000,A,5034.2834,N,00227.4035,W,1.50,255.03,161011,,,A*77
$GPGGA,105432.000,5034.2834,N,00227.4041,W,1,10,0.9,7.61,M,48.8,M,,0000*7A
$GPGSA,M,3,06,25,23,13,05,29,31,16,21,30,,,1.8,0.9,1.5*33
$GPRMC,105432.000,A,5034.2834,N,00227.4041,W,1.40,288.86,161011,,,A*7B
$GPGGA,105433.000,5034.2835,N,00227.4046,W,1,10,0.9,7.59,M,48.8,M,,0000*76
$GPGSA,M,3,06,25,23,13,05,29,31,16,21,30,,,1.8,0.9,1.5*33
$GPRMC,105433.000,A,5034.2835,N,00227.4046,W,1.11,305.39,161011,,,A*78
$GPGGA,105434.000,5034.2837,N,00227.4049,W,1,10,0.9,7.53,M,48.8,M,,0000*76
$GPGSA,M,3,06,25,23,13,05,29,31,16,21,30,,,1.8,0.9,1.5*33
$GPRMC,105434.000,A,5034.2837,N,00227.4049,W,0.82,342.37,161011,,,A*74
$GPGGA,105435.000,5034.2838,N,00227.4050,W,1,10,0.9,7.49,M,48.8,M,,0000*7B
$GPGSA,M,3,06,25,23,13,05,29,31,16,21,30,,,1.8,0.9,1.5*33
$GPRMC,105435.000,A,5034.2838,N,00227.4050,W,0.12,12.41,161011,,,A*4C
$GPGGA,105436.000,5034.2838,N,00227.4048,W,1,10,0.9,7.45,M,48.8,M,,0000*7D
$GPGSA,M,3,06,25,23,13,05,29,31,16,21,30,,,1.8,0.9,1.5*33
$GPGSV,3,1,11,30,70,128,43,29,50,064,41,31,49,210,46,21,48,155,46*78
$GPGSV,3,2,11,16,27,295,39,06,22,250,49,25,19,116,36,05,12,049,38*7E
$GPGSV,3,3,11,23,11,305,43,13,10,330,37,03,07,254,44*49
$GPRMC,105436.000,A,5034.2838,N,00227.4048,W,0.90,65.68,161011,,,A*47
$GPGGA,105437.000,5034.2839,N,00227.4046,W,1,10,0.9,7.41,M,48.8,M,,0000*77
$GPGSA,M,3,06,25,23,13,05,29,31,16,21,30,,,1.8,0.9,1.5*33
$GPRMC,105437.000,A,5034.2839,N,00227.4046,W,0.71,66.25,161011,,,A*4C
$GPGGA,105438.000,5034.2840,N,00227.4043,W,1,10,0.9,7.22,M,48.8,M,,0000*76
$GPGSA,M,3,06,25,23,13,05,29,31,16,21,30,,,1.8,0.9,1.5*33
$GPRMC,105438.000,A,5034.2840,N,00227.4043,W,0.84,79.14,161011,,,A*4E
$GPGGA,105439.000,5034.2839,N,00227.4040,W,1,10,0.9,7.10,M,48.8,M,,0000*7B
$GPGSA,M,3,06,25,23,13,05,29,31,16,21,30,,,1.8,0.9,1.5*33
$GPRMC,105439.000,A,5034.2839,N,00227.4040,W,0.30,106.62,161011,,,A*75
$GPGGA,105440.000,5034.2839,N,00227.4040,W,1,10,0.9,7.30,M,48.8,M,,0000*77
$GPGSA,M,3,06,25,23,13,05,29,31,16,21,30,,,1.8,0.9,1.5*33
$GPRMC,105440.000,A,5034.2839,N,00227.4040,W,0.28,172.27,161011,,,A*70
$GPGGA,105441.000,5034.2838,N,00227.4040,W,1,10,0.9,7.44,M,48.8,M,,0000*74
$GPGSA,M,3,06,25,23,13,05,29,31,16,21,30,,,1.8,0.9,1.5*33
$GPGSV,3,1,11,30,70,128,44,29,50,064,38,31,48,210,47,21,48,155,46*71
$GPGSV,3,2,11,16,27,295,38,06,23,250,46,25,19,116,44,05,12,049,39*75
$GPGSV,3,3,11,23,11,304,34,13,10,330,25,03,08,254,45*45
$GPRMC,105441.000,A,5034.2838,N,00227.4040,W,0.27,165.28,161011,,,A*76
$GPGGA,105442.000,5034.2838,N,00227.4040,W,1,10,0.9,7.67,M,48.8,M,,0000*76
$GPGSA,M,3,06,25,23,13,05,29,31,16,21,30,,,1.8,0.9,1.5*33
$GPRMC,105442.000,A,5034.2838,N,00227.4040,W,0.12,283.26,161011,,,A*76
$GPGGA,105443.000,5034.2838,N,00227.4041,W,1,10,0.9,7.71,M,48.8,M,,0000*71
$GPGSA,M,3,06,25,23,13,05,29,31,16,21,30,,,1.8,0.9,1.5*33
$GPRMC,105443.000,A,5034.2838,N,00227.4041,W,0.40,323.78,161011,,,A*71
$GPGGA,105444.000,5034.2839,N,00227.4043,W,1,10,0.9,7.65,M,48.8,M,,0000*70
$GPGSA,M,3,06,25,23,13,05,29,31,16,21,30,,,1.8,0.9,1.5*33
$GPRMC,105444.000,A,5034.2839,N,00227.4043,W,0.78,313.35,161011,,,A*74
$GPGGA,105445.000,5034.2840,N,00227.4046,W,1,10,0.9,7.58,M,48.8,M,,0000*74
$GPGSA,M,3,06,25,23,13,05,29,31,16,21,30,,,1.8,0.9,1.5*33
$GPRMC,105445.000,A,5034.2840,N,00227.4046,W,0.79,320.77,161011,,,A*79
$GPGGA,105446.000,5034.2842,N,00227.4047,W,1,10,0.9,7.50,M,48.8,M,,0000*7C
$GPGSA,M,3,06,25,23,13,05,29,31,16,21,30,,,1.8,0.9,1.5*33
$GPGSV,3,1,11,30,70,128,45,29,50,064,39,31,48,210,46,21,48,155,45*73
$GPGSV,3,2,11,16,27,295,46,06,23,251,45,25,19,116,42,05,12,049,33*72
$GPGSV,3,3,11,23,11,304,45,13,10,330,46,03,08,254,44*47
$GPRMC,105446.000,A,5034.2842,N,00227.4047,W,0.57,349.00,161011,,,A*7A
$GPGGA,105447.000,5034.2843,N,00227.4048,W,1,10,0.9,7.43,M,48.8,M,,0000*71
$GPGSA,M,3,06,25,23,13,05,29,31,16,21,30,,,1.8,0.9,1.5*33
$GPRMC,105447.000,A,5034.2843,N,00227.4048,W,0.77,328.90,161011,,,A*79
$GPGGA,105448.000,5034.2844,N,00227.4051,W,1,10,0.9,7.33,M,48.8,M,,0000*76
$GPGSA,M,3,06,25,23,13,05,29,31,16,21,30,,,1.8,0.9,1.5*33
$GPRMC,105448.000,A,5034.2844,N,00227.4051,W,0.78,284.28,161011,,,A*72
$GPGGA,105449.000,5034.2845,N,00227.4054,W,1,10,0.9,7.25,M,48.8,M,,0000*74
$GPGSA,M,3,06,25,23,13,05,29,31,16,21,30,,,1.8,0.9,1.5*33
$GPRMC,105449.000,A,5034.2845,N,00227.4054,W,0.68,267.27,161011,,,A*74
$GPGGA,105450.000,5034.2845,N,00227.4057,W,1,10,0.9,7.16,M,48.8,M,,0000*7F
$GPGSA,M,3,06,25,23,13,05,29,31,16,21,30,,,1.8,0.9,1.5*33
$GPRMC,105450.000,A,5034.2845,N,00227.4057,W,0.79,326.09,161011,,,A*77
$GPGGA,105451.000,5034.2847,N,00227.4059,W,1,10,0.9,7.06,M,48.8,M,,0000*73
$GPGSA,M,3,06,25,23,13,05,29,31,16,21,30,,,1.8,0.9,1.5*33
$GPGSV,3,1,11,30,70,128,44,29,50,064,40,31,48,210,45,21,48,155,42*78
$GPGSV,3,2,11,16,27,295,46,06,23,251,36,25,19,116,38,05,12,049,40*7F
$GPGSV,3,3,11,23,11,304,46,13,10,330,49,03,08,254,39*41
$GPRMC,105451.000,A,5034.2847,N,00227.4059,W,0.96,330.95,161011,,,A*79
$GPGGA,105452.000,5034.2849,N,00227.4062,W,1,10,0.9,6.92,M,48.8,M,,0000*7A
$GPGSA,M,3,06,25,23,13,05,29,31,16,21,30,,,1.8,0.9,1.5*33
$GPRMC,105452.000,A,5034.2849,N,00227.4062,W,0.72,299.35,161011,,,A*7E
$GPGGA,105453.000,5034.2850,N,00227.4065,W,1,10,0.9,6.77,M,48.8,M,,0000*7F
$GPGSA,M,3,06,25,23,13,05,29,31,16,21,30,,,1.8,0.9,1.5*33
$GPRMC,105453.000,A,5034.2850,N,00227.4065,W,0.73,301.16,161011,,,A*70
$GPGGA,105454.000,5034.2851,N,00227.4068,W,1,10,0.9,6.67,M,48.8,M,,0000*75
$GPGSA,M,3,06,25,23,13,05,29,31,16,21,30,,,1.8,0.9,1.5*33
$GPRMC,105454.000,A,5034.2851,N,00227.4068,W,0.72,295.11,161011,,,A*71
$GPGGA,105455.000,5034.2852,N,00227.4070,W,1,10,0.9,6.58,M,48.8,M,,0000*72
$GPGSA,M,3,06,25,23,13,05,29,31,16,21,30,,,1.8,0.9,1.5*33
$GPRMC,105455.000,A,5034.2852,N,00227.4070,W,0.55,313.81,161011,,,A*79
$GPGGA,105456.000,5034.2853,N,00227.4072,W,1,10,0.9,6.49,M,48.8,M,,0000*72
$GPGSA,M,3,06,25,23,13,05,29,31,16,21,30,,,1.8,0.9,1.5*33
$GPGSV,3,1,11,30,70,128,43,29,50,064,40,31,48,210,44,21,48,155,41*7D
$GPGSV,3,2,11,16,27,295,46,06,23,251,43,25,19,116,32,05,12,049,40*77
$GPGSV,3,3,11,23,11,304,51,13,10,330,50,03,08,254,39*4F
$GPRMC,105456.000,A,5034.2853,N,00227.4072,W,0.76,324.87,161011,,,A*7A
$GPGGA,105457.000,5034.2855,N,00227.4075,W,1,09,1.2,6.41,M,48.8,M,,0000*78
$GPGSA,M,3,06,23,13,05,29,31,16,21,30,,,,2.5,1.2,2.1*37
$GPRMC,105457.000,A,5034.2855,N,00227.4075,W,0.99,326.18,161011,,,A*7F
$GPGGA,105458.000,5034.2857,N,00227.4078,W,1,10,0.9,6.36,M,48.8,M,,0000*7A
$GPGSA,M,3,06,25,23,13,05,29,31,16,21,30,,,1.8,0.9,1.5*33
$GPRMC,105458.000,A,5034.2857,N,00227.4078,W,0.98,308.63,161011,,,A*7E
$GPGGA,105459.000,5034.2859,N,00227.4081,W,1,10,0.9,6.29,M,48.8,M,,0000*7D
$GPGSA,M,3,06,25,23,13,05,29,31,16,21,30,,,1.8,0.9,1.5*33
$GPRMC,105459.000,A,5034.2859,N,00227.4081,W,0.91,317.51,161011,,,A*71
$GPGGA,105500.000,5034.2861,N,00227.4084,W,1,10,0.9,6.24,M,48.8,M,,0000*73
$GPGSA,M,3,06,25,23,13,05,29,31,16,21,30,,,1.8,0.9,1.5*33
$GPRMC,105500.000,A,5034.2861,N,00227.4084,W,0.88,318.31,161011,,,A*73
$GPGGA,105501.000,5034.2863,N,00227.4087,W,1,10,0.9,6.22,M,48.8,M,,0000*75
$GPGSA,M,3,06,25,23,13,05,29,31,16,21,30,,,1.8,0.9,1.5*33
$GPGSV,3,1,11,30,70,128,43,29,50,064,40,31,48,210,44,21,48,155,41*7D
$GPGSV,3,2,11,16,27,295,45,06,23,251,44,25,19,116,39,05,12,049,41*79
$GPGSV,3,3,11,23,11,304,51,13,10,330,42,03,08,254,40*42
$GPRMC,105501.000,A,5034.2863,N,00227.4087,W,0.85,322.53,161011,,,A*73
$GPGGA,105502.000,5034.2865,N,00227.4089,W,1,10,0.9,6.17,M,48.8,M,,0000*78
$GPGSA,M,3,06,25,23,13,05,29,31,16,21,30,,,1.8,0.9,1.5*33
$GPRMC,105502.000,A,5034.2865,N,00227.4089,W,1.06,336.99,161011,,,A*71
$GPGGA,105503.000,5034.2867,N,00227.4091,W,1,10,0.9,6.01,M,48.8,M,,0000*75
$GPGSA,M,3,06,25,23,13,05,29,31,16,21,30,,,1.8,0.9,1.5*33
$GPRMC,105503.000,A,5034.2867,N,00227.4091,W,1.11,335.47,161011,,,A*7D
$GPGGA,105504.000,5034.2870,N,00227.4093,W,1,10,0.9,5.96,M,48.8,M,,0000*7B
$GPGSA,M,3,06,25,23,13,05,29,31,16,21,30,,,1.8,0.9,1.5*33
$GPRMC,105504.000,A,5034.2870,N,00227.4093,W,1.08,327.44,161011,,,A*76
$GPGGA,105505.000,5034.2873,N,00227.4096,W,1,10,0.9,5.89,M,48.8,M,,0000*72
$GPGSA,M,3,06,25,23,13,05,29,31,16,21,30,,,1.8,0.9,1.5*33
$GPRMC,105505.000,A,5034.2873,N,00227.4096,W,1.02,323.70,161011,,,A*78
$GPGGA,105506.000,5034.2874,N,00227.4099,W,1,10,0.9,5.82,M,48.8,M,,0000*72
$GPGSA,M,3,06,25,23,13,05,29,31,16,21,30,,,1.8,0.9,1.5*33
$GPGSV,3,1,11,30,70,128,43,29,50,064,40,21,48,155,41,31,48,210,44*7D
$GPGSV,3,2,11,16,28,296,46,06,23,251,44,25,19,116,33,05,12,049,34*7E
$GPGSV,3,3,11,23,11,304,46,13,10,330,49,03,08,254,40*4F
$GPRMC,105506.000,A,5034.2874,N,00227.4099,W,0.85,306.36,161011,,,A*78
$GPGGA,105507.000,5034.2876,N,00227.4101,W,1,10,0.9,5.78,M,48.8,M,,0000*74
$GPGSA,M,3,06,25,23,13,05,29,31,16,21,30,,,1.8,0.9,1.5*33
$GPRMC,105507.000,A,5034.2876,N,00227.4101,W,0.74,332.06,161011,,,A*71
$GPGGA,105508.000,5034.2879,N,00227.4103,W,1,10,0.9,5.71,M,48.8,M,,0000*7F
$GPGSA,M,3,06,25,23,13,05,29,31,16,21,30,,,1.8,0.9,1.5*33
$GPRMC,105508.000,A,5034.2879,N,00227.4103,W,1.29,338.58,161011,,,A*7B
$GPGGA,105509.000,5034.2882,N,00227.4105,W,1,10,0.9,5.64,M,48.8,M,,0000*78
$GPGSA,M,3,06,25,23,13,05,29,31,16,21,30,,,1.8,0.9,1.5*33
$GPRMC,105509.000,A,5034.2882,N,00227.4105,W,1.15,350.31,161011,,,A*76
$GPGGA,105510.000,5034.2884,N,00227.4106,W,1,10,0.9,5.49,M,48.8,M,,0000*7A
$GPGSA,M,3,06,25,23,13,05,29,31,16,21,30,,,1.8,0.9,1.5*33
$GPRMC,105510.000,A,5034.2884,N,00227.4106,W,0.79,321.99,161011,,,A*74
$GPGGA,105511.000,5034.2886,N,00227.4108,W,1,10,0.9,5.47,M,48.8,M,,0000*79
$GPGSA,M,3,06,25,23,13,05,29,31,16,21,30,,,1.8,0.9,1.5*33
$GPGSV,3,1,11,30,70,128,43,29,50,064,41,21,48,155,41,31,48,210,44*7C
$GPGSV,3,2,11,16,28,296,45,06,23,251,44,25,19,116,26,05,12,049,45*7F
$GPGSV,3,3,11,23,11,304,48,13,10,330,40,03,08,254,41*49
$GPRMC,105511.000,A,5034.2886,N,00227.4108,W,0.57,329.49,161011,,,A*70
$GPGGA,105512.000,5034.2887,N,00227.4109,W,1,10,0.9,5.45,M,48.8,M,,0000*78
$GPGSA,M,3,06,25,23,13,05,29,31,16,21,30,,,1.8,0.9,1.5*33
$GPRMC,105512.000,A,5034.2887,N,00227.4109,W,0.65,336.56,161011,,,A*72
$GPGGA,105513.000,5034.2889,N,00227.4110,W,1,10,0.9,5.28,M,48.8,M,,0000*74
$GPGSA,M,3,06,25,23,13,05,29,31,16,21,30,,,1.8,0.9,1.5*33
$GPRMC,105513.000,A,5034.2889,N,00227.4110,W,0.83,341.75,161011,,,A*7C
$GPGGA,105514.000,5034.2891,N,00227.4112,W,1,10,0.9,5.20,M,48.8,M,,0000*70
$GPGSA,M,3,06,25,23,13,05,29,31,16,21,30,,,1.8,0.9,1.5*33
$GPRMC,105514.000,A,5034.2891,N,00227.4112,W,0.92,332.70,161011,,,A*71
$GPGGA,105515.000,5034.2893,N,00227.4113,W,1,10,0.9,5.14,M,48.8,M,,0000*75
$GPGSA,M,3,06,25,23,13,05,29,31,16,21,30,,,1.8,0.9,1.5*33
$GPRMC,105515.000,A,5034.2893,N,00227.4113,W,0.79,341.64,161011,,,A*77
$GPGGA,105516.000,5034.2896,N,00227.4114,W,1,10,0.9,5.08,M,48.8,M,,0000*79
$GPGSA,M,3,06,25,23,13,05,29,31,16,21,30,,,1.8,0.9,1.5*33
$GPGSV,3,1,11,30,69,128,43,29,49,064,42,21,48,155,42,31,48,210,43*7B
$GPGSV,3,2,11,16,28,296,45,06,23,251,41,25,19,116,34,05,12,049,45*79
$GPGSV,3,3,11,23,11,304,41,13,10,330,44,03,08,254,41*44
$GPRMC,105516.000,A,5034.2896,N,00227.4114,W,0.85,0.79,161011,,,A*7F
$GPGGA,105517.000,5034.2898,N,00227.4114,W,1,10,0.9,5.10,M,48.8,M,,0000*7F
$GPGSA,M,3,06,25,23,13,05,29,31,16,21,30,,,1.8,0.9,1.5*33
$GPRMC,105517.000,A,5034.2898,N,00227.4114,W,0.68,345.68,161011,,,A*71
$GPGGA,105518.000,5034.2899,N,00227.4114,W,1,10,0.9,4.91,M,48.8,M,,0000*79
$GPGSA,M,3,06,25,23,13,05,29,31,16,21,30,,,1.8,0.9,1.5*33
$GPRMC,105518.000,A,5034.2899,N,00227.4114,W,0.41,42.56,161011,,,A*4D
$GPGGA,105519.000,5034.2900,N,00227.4115,W,1,10,0.9,4.85,M,48.8,M,,0000*7D
$GPGSA,M,3,06,25,23,13,05,29,31,16,21,30,,,1.8,0.9,1.5*33
$GPRMC,105519.000,A,5034.2900,N,00227.4115,W,0.79,312.65,161011,,,A*71
$GPGGA,105520.000,5034.2902,N,00227.4118,W,1,10,0.9,4.79,M,48.8,M,,0000*7B
$GPGSA,M,3,06,25,23,13,05,29,31,16,21,30,,,1.8,0.9,1.5*33
$GPRMC,105520.000,A,5034.2902,N,00227.4118,W,1.23,319.71,161011,,,A*74
$GPGGA,105521.000,5034.2904,N,00227.4120,W,1,10,0.9,4.51,M,48.8,M,,0000*7D
$GPGSA,M,3,06,25,23,13,05,29,31,16,21,30,,,1.8,0.9,1.5*33
$GPGSV,3,1,11,30,69,128,44,29,49,064,44,21,48,155,42,31,48,210,35*7B
$GPGSV,3,2,11,16,28,296,36,06,23,251,32,25,19,116,46,05,12,049,44*7D
$GPGSV,3,3,11,23,11,304,35,13,10,330,37,03,08,254,29*4D
$GPRMC,105521.000,A,5034.2904,N,00227.4120,W,0.56,355.18,161011,,,A*7C
$GPGGA,105522.000,5034.2906,N,00227.4120,W,1,10,0.9,4.36,M,48.8,M,,0000*7D
$GPGSA,M,3,06,25,23,13,05,29,31,16,21,30,,,1.8,0.9,1.5*33
$GPRMC,105522.000,A,5034.2906,N,00227.4120,W,1.03,356.20,161011,,,A*74
$GPGGA,105523.000,5034.2909,N,00227.4120,W,1,09,1.1,4.28,M,48.8,M,,0000*7D
$GPGSA,M,3,25,23,13,05,29,31,16,21,30,,,,2.0,1.1,1.6*34
$GPRMC,105523.000,A,5034.2909,N,00227.4120,W,0.94,354.91,161011,,,A*7D
$GPGGA,105524.000,5034.2912,N,00227.4121,W,1,10,0.9,4.17,M,48.8,M,,0000*7C
$GPGSA,M,3,06,25,23,13,05,29,31,16,21,30,,,1.8,0.9,1.5*33
$GPRMC,105524.000,A,5034.2912,N,00227.4121,W,1.11,346.85,161011,,,A*7B
$GPGGA,105525.000,5034.2915,N,00227.4122,W,1,10,0.9,4.02,M,48.8,M,,0000*7D
$GPGSA,M,3,06,25,23,13,05,29,31,16,21,30,,,1.8,0.9,1.5*33
$GPRMC,105525.000,A,5034.2915,N,00227.4122,W,1.16,348.92,161011,,,A*71
$GPGGA,105526.000,5034.2918,N,00227.4122,W,1,10,0.9,3.90,M,48.8,M,,0000*7F
$GPGSA,M,3,06,25,23,13,05,29,31,16,21,30,,,1.8,0.9,1.5*33
$GPGSV,3,1,11,30,69,128,39,29,49,064,44,21,48,155,37,31,48,210,33*75
$GPGSV,3,2,11,16,28,296,36,06,23,251,36,25,19,116,47,05,12,049,45*79
$GPGSV,3,3,11,23,11,304,32,13,10,330,33,03,08,254,39*4F
$GPRMC,105526.000,A,5034.2918,N,00227.4122,W,1.14,359.21,161011,,,A*75
$GPGGA,105527.000,5034.2921,N,00227.4123,W,1,10,0.9,3.73,M,48.8,M,,0000*78
$GPGSA,M,3,06,25,23,13,05,29,31,16,21,30,,,1.8,0.9,1.5*33
$GPRMC,105527.000,A,5034.2921,N,00227.4123,W,0.91,0.43,161011,,,A*78
$GPGGA,105528.000,5034.2922,N,00227.4124,W,1,10,0.9,3.45,M,48.8,M,,0000*76
$GPGSA,M,3,06,25,23,13,05,29,31,16,21,30,,,1.8,0.9,1.5*33
$GPRMC,105528.000,A,5034.2922,N,00227.4124,W,0.83,329.30,161011,,,A*7C
$GPGGA,105529.000,5034.2924,N,00227.4125,W,1,10,0.9,3.38,M,48.8,M,,0000*7A
$GPGSA,M,3,06,25,23,13,05,29,31,16,21,30,,,1.8,0.9,1.5*33
$GPRMC,105529.000,A,5034.2924,N,00227.4125,W,0.16,316.93,161011,,,A*73
$GPGGA,105530.000,5034.2925,N,00227.4125,W,1,10,0.9,3.32,M,48.8,M,,0000*79
$GPGSA,M,3,06,25,23,13,05,29,31,16,21,30,,,1.8,0.9,1.5*33
$GPRMC,105530.000,A,5034.2925,N,00227.4125,W,0.69,351.81,161011,,,A*72
$GPGGA,105531.000,5034.2926,N,00227.4126,W,1,10,0.9,3.38,M,48.8,M,,0000*72
$GPGSA,M,3,06,25,23,13,05,29,31,16,21,30,,,1.8,0.9,1.5*33
$GPGSV,3,1,11,30,69,128,41,29,49,064,45,21,48,155,38,31,48,210,33*74
$GPGSV,3,2,11,16,28,296,37,06,23,251,33,25,19,116,47,05,12,049,47*7F
$GPGSV,3,3,11,23,11,304,40,13,10,330,40,03,08,254,34*43
$GPRMC,105531.000,A,5034.2926,N,00227.4126,W,0.53,294.41,161011,,,A*7E
$GPGGA,105532.000,5034.2927,N,00227.4129,W,1,10,0.9,3.48,M,48.8,M,,0000*78
$GPGSA,M,3,06,25,23,13,05,29,31,16,21,30,,,1.8,0.9,1.5*33
$GPRMC,105532.000,A,5034.2927,N,00227.4129,W,0.81,295.75,161011,,,A*7A
$GPGGA,105533.000,5034.2927,N,00227.4131,W,1,10,0.9,3.50,M,48.8,M,,0000*79
$GPGSA,M,3,06,25,23,13,05,29,31,16,21,30,,,1.8,0.9,1.5*33
$GPRMC,105533.000,A,5034.2927,N,00227.4131,W,0.11,319.50,161011,,,A*79
$GPGGA,105534.000,5034.2928,N,00227.4131,W,1,10,0.9,3.71,M,48.8,M,,0000*72
$GPGSA,M,3,06,25,23,13,05,29,31,16,21,30,,,1.8,0.9,1.5*33
$GPRMC,105534.000,A,5034.2928,N,00227.4131,W,0.38,105.91,161011,,,A*78
$GPGGA,105535.000,5034.2927,N,00227.4131,W,1,10,0.9,4.03,M,48.8,M,,0000*7E
$GPGSA,M,3,06,25,23,13,05,29,31,16,21,30,,,1.8,0.9,1.5*33
$GPRMC,105535.000,A,5034.2927,N,00227.4131,W,0.28,170.67,161011,,,A*7C
$GPGGA,105536.000,5034.2926,N,00227.4131,W,1,10,0.9,3.98,M,48.8,M,,0000*79
$GPGSA,M,3,06,25,23,13,05,29,31,16,21,30,,,1.8,0.9,1.5*33
$GPGSV,3,1,11,30,69,128,48,29,49,064,44,21,48,155,46,31,48,210,45*74
$GPGSV,3,2,11,16,28,296,44,06,23,251,42,25,19,116,43,05,12,049,41*7F
$GPGSV,3,3,11,23,11,304,44,13,10,330,43,03,08,254,44*43
$GPRMC,105536.000,A,5034.2926,N,00227.4131,W,0.06,114.58,161011,,,A*7C
$GPGGA,105537.000,5034.2926,N,00227.4130,W,1,10,0.9,3.94,M,48.8,M,,0000*75
$GPGSA,M,3,06,25,23,13,05,29,31,16,21,30,,,1.8,0.9,1.5*33
$GPRMC,105537.000,A,5034.2926,N,00227.4130,W,0.45,97.55,161011,,,A*4C
$GPGGA,105538.000,5034.2926,N,00227.4130,W,1,10,0.9,3.95,M,48.8,M,,0000*7B
$GPGSA,M,3,06,25,23,13,05,29,31,16,21,30,,,1.8,0.9,1.5*33
$GPRMC,105538.000,A,5034.2926,N,00227.4130,W,0.08,332.03,161011,,,A*75
$GPGGA,105539.000,5034.2927,N,00227.4131,W,1,10,0.9,3.94,M,48.8,M,,0000*7B
$GPGSA,M,3,06,25,23,13,05,29,31,16,21,30,,,1.8,0.9,1.5*33
$GPRMC,105539.000,A,5034.2927,N,00227.4131,W,0.32,349.65,161011,,,A*71
$GPGGA,105540.000,5034.2927,N,00227.4131,W,1,10,0.9,3.96,M,48.8,M,,0000*77
$GPGSA,M,3,06,25,23,13,05,29,31,16,21,30,,,1.8,0.9,1.5*33
$GPRMC,105540.000,A,5034.2927,N,00227.4131,W,0.36,91.93,161011,,,A*44
$GPGGA,105541.000,5034.2927,N,00227.4130,W,1,10,0.9,3.85,M,48.8,M,,0000*75
$GPGSA,M,3,06,25,23,13,05,29,31,16,21,30,,,1.8,0.9,1.5*33
$GPGSV,3,1,11,30,69,128,38,29,49,064,29,21,48,155,38,31,48,210,44*70
$GPGSV,3,2,11,16,28,296,43,06,23,251,44,25,19,116,40,05,12,049,30*7B
$GPGSV,3,3,11,23,11,304,42,13,10,330,38,03,08,254,47*4A
$GPRMC,105541.000,A,5034.2927,N,00227.4130,W,0.40,53.00,161011,,,A*41
$GPGGA,105542.000,5034.2925,N,00227.4127,W,1,10,0.9,3.44,M,48.8,M,,0000*7F
$GPGSA,M,3,06,25,23,13,05,29,31,16,21,30,,,1.8,0.9,1.5*33
$GPRMC,105542.000,A,5034.2925,N,00227.4127,W,1.40,142.93,161011,,,A*7C
$GPGGA,105543.000,5034.2921,N,00227.4125,W,1,10,0.9,3.45,M,48.8,M,,0000*79
$GPGSA,M,3,06,25,23,13,05,29,31,16,21,30,,,1.8,0.9,1.5*33
$GPRMC,105543.000,A,5034.2921,N,00227.4125,W,2.18,162.76,161011,,,A*7C
$GPGGA,105544.000,5034.2919,N,00227.4123,W,1,10,0.9,3.43,M,48.8,M,,0000*75
$GPGSA,M,3,06,25,23,13,05,29,31,16,21,30,,,1.8,0.9,1.5*33
$GPRMC,105544.000,A,5034.2919,N,00227.4123,W,0.56,21.17,161011,,,A*4F
$GPGGA,105545.000,5034.2920,N,00227.4123,W,1,10,0.9,3.43,M,48.8,M,,0000*7E
$GPGSA,M,3,06,25,23,13,05,29,31,16,21,30,,,1.8,0.9,1.5*33
$GPRMC,105545.000,A,5034.2920,N,00227.4123,W,0.37,38.93,161011,,,A*47
$GPGGA,105546.000,5034.2921,N,00227.4123,W,1,10,0.9,3.49,M,48.8,M,,0000*76
$GPGSA,M,3,06,25,23,13,05,29,31,16,21,30,,,1.8,0.9,1.5*33
$GPGSV,3,1,11,30,69,128,44,29,49,064,37,21,48,155,44,31,48,210,46*7D
$GPGSV,3,2,11,16,28,296,43,06,23,251,45,25,19,116,39,05,12,049,33*77
$GPGSV,3,3,11,23,11,304,42,13,10,330,33,03,08,254,46*40
$GPRMC,105546.000,A,5034.2921,N,00227.4123,W,0.66,2.09,161011,,,A*7B
$GPGGA,105547.000,5034.2923,N,00227.4122,W,1,10,0.9,3.52,M,48.8,M,,0000*7E
$GPGSA,M,3,06,25,23,13,05,29,31,16,21,30,,,1.8,0.9,1.5*33
$GPRMC,105547.000,A,5034.2923,N,00227.4122,W,0.65,39.93,161011,,,A*41
$GPGGA,105548.000,5034.2924,N,00227.4120,W,1,10,0.9,3.49,M,48.8,M,,0000*7E
$GPGSA,M,3,06,25,23,13,05,29,31,16,21,30,,,1.8,0.9,1.5*33
$GPRMC,105548.000,A,5034.2924,N,00227.4120,W,0.60,48.59,161011,,,A*4E
$GPGGA,105549.000,5034.2925,N,00227.4119,W,1,09,1.0,3.53,M,48.8,M,,0000*7F
$GPGSA,M,3,06,25,23,05,29,31,16,21,30,,,,1.8,1.0,1.6*3A
$GPRMC,105549.000,A,5034.2925,N,00227.4119,W,0.53,69.80,161011,,,A*43
$GPGGA,105550.000,5034.2926,N,00227.4117,W,1,10,0.9,3.55,M,48.8,M,,0000*7C
$GPGSA,M,3,06,25,23,13,05,29,31,16,21,30,,,1.8,0.9,1.5*33
$GPRMC,105550.000,A,5034.2926,N,00227.4117,W,0.53,68.27,161011,,,A*4A
$GPGGA,105551.000,5034.2926,N,00227.4115,W,1,10,0.9,3.55,M,48.8,M,,0000*7F
$GPGSA,M,3,06,25,23,13,05,29,31,16,21,30,,,1.8,0.9,1.5*33
$GPGSV,3,1,11,30,69,128,34,29,49,064,37,21,48,155,34,31,48,210,46*7D
$GPGSV,3,2,11,16,28,296,42,06,23,251,45,25,19,116,39,05,12,049,33*76
$GPGSV,3,3,11,23,11,304,42,13,10,330,36,03,08,254,46*45
$GPRMC,105551.000,A,5034.2926,N,00227.4115,W,0.53,76.40,161011,,,A*47
$GPGGA,105552.000,5034.2926,N,00227.4113,W,1,10,0.9,3.69,M,48.8,M,,0000*75
$GPGSA,M,3,06,25,23,13,05,29,31,16,21,30,,,1.8,0.9,1.5*33
$GPRMC,105552.000,A,5034.2926,N,00227.4113,W,0.48,81.29,161011,,,A*4F
$GPGGA,105553.000,5034.2927,N,00227.4112,W,1,10,0.9,3.95,M,48.8,M,,0000*77
$GPGSA,M,3,06,25,23,13,05,29,31,16,21,30,,,1.8,0.9,1.5*33
$GPRMC,105553.000,A,5034.2927,N,00227.4112,W,0.56,36.95,161011,,,A*4A
$GPGGA,105554.000,5034.2928,N,00227.4111,W,1,10,0.9,4.00,M,48.8,M,,0000*77
$GPGSA,M,3,06,25,23,13,05,29,31,16,21,30,,,1.8,0.9,1.5*33
$GPRMC,105554.000,A,5034.2928,N,00227.4111,W,0.65,58.64,161011,,,A*47
$GPGGA,105555.000,5034.2929,N,00227.4108,W,1,10,0.9,4.08,M,48.8,M,,0000*77
$GPGSA,M,3,06,25,23,13,05,29,31,16,21,30,,,1.8,0.9,1.5*33
$GPRMC,105555.000,A,5034.2929,N,00227.4108,W,0.90,98.56,161011,,,A*48
$GPGGA,105556.000,5034.2929,N,00227.4105,W,1,10,0.9,4.08,M,48.8,M,,0000*79
$GPGSA,M,3,06,25,23,13,05,29,31,16,21,30,,,1.8,0.9,1.5*33
$GPGSV,3,1,11,30,69,128,37,29,49,064,31,21,48,155,39,31,48,210,41*72
$GPGSV,3,2,11,16,28,296,43,06,23,251,44,25,19,116,39,05,12,049,29*7D
$GPGSV,3,3,11,23,11,304,43,13,10,330,38,03,08,254,46*4A
$GPRMC,105556.000,A,5034.2929,N,00227.4105,W,0.66,73.71,161011,,,A*4F
$GPGGA,105557.000,5034.2929,N,00227.4103,W,1,10,0.9,3.66,M,48.8,M,,0000*71
$GPGSA,M,3,06,25,23,13,05,29,31,16,21,30,,,1.8,0.9,1.5*33
$GPRMC,105557.000,A,5034.2929,N,00227.4103,W,0.56,75.20,161011,,,A*49
$GPGGA,105558.000,5034.2928,N,00227.4101,W,1,10,0.9,3.47,M,48.8,M,,0000*7E
$GPGSA,M,3,06,25,23,13,05,29,31,16,21,30,,,1.8,0.9,1.5*33
$GPRMC,105558.000,A,5034.2928,N,00227.4101,W,0.57,112.48,161011,,,A*7A
$GPGGA,105559.000,5034.2929,N,00227.4098,W,1,10,0.9,3.45,M,48.8,M,,0000*7D
$GPGSA,M,3,06,25,23,13,05,29,31,16,21,30,,,1.8,0.9,1.5*33
$GPRMC,105559.000,A,5034.2929,N,00227.4098,W,1.35,67.47,161011,,,A*42
$GPGGA,105600.000,5034.2931,N,00227.4095,W,1,10,0.9,3.46,M,48.8,M,,0000*75
$GPGSA,M,3,06,25,23,13,05,29,31,16,21,30,,,1.8,0.9,1.5*33
$GPRMC,105600.000,A,5034.2931,N,00227.4095,W,0.69,31.80,161011,,,A*49
$GPGGA,105601.000,5034.2931,N,00227.4092,W,1,10,0.9,3.38,M,48.8,M,,0000*7A
$GPGSA,M,3,06,25,23,13,05,29,31,16,21,30,,,1.8,0.9,1.5*33
$GPGSV,3,1,11,30,69,128,42,29,49,064,41,21,48,155,41,31,48,210,43*7A
$GPGSV,3,2,11,16,28,296,45,06,23,251,44,25,19,116,40,05,12,049,38*75
$GPGSV,3,3,11,23,11,304,48,13,10,330,46,03,08,254,46*48
$GPRMC,105601.000,A,5034.2931,N,00227.4092,W,0.83,114.86,161011,,,A*7B
$GPGGA,105602.000,5034.2930,N,00227.4090,W,1,10,0.9,3.40,M,48.8,M,,0000*75
$GPGSA,M,3,06,25,23,13,05,29,31,16,21,30,,,1.8,0.9,1.5*33
$GPRMC,105602.000,A,5034.2930,N,00227.4090,W,0.75,107.63,161011,,,A*7B
$GPGGA,105603.000,5034.2929,N,00227.4087,W,1,10,0.9,3.37,M,48.8,M,,0000*7A
$GPGSA,M,3,06,25,23,13,05,29,31,16,21,30,,,1.8,0.9,1.5*33
$GPRMC,105603.000,A,5034.2929,N,00227.4087,W,0.57,138.17,161011,,,A*7B
$GPGGA,105604.000,5034.2929,N,00227.4087,W,1,10,0.9,3.46,M,48.8,M,,0000*7B
$GPGSA,M,3,06,25,23,13,05,29,31,16,21,30,,,1.8,0.9,1.5*33
$GPRMC,105604.000,A,5034.2929,N,00227.4087,W,0.27,142.07,161011,,,A*77
$GPGGA,105605.000,5034.2928,N,00227.4087,W,1,10,0.9,3.52,M,48.8,M,,0000*7E
$GPGSA,M,3,06,25,23,13,05,29,31,16,21,30,,,1.8,0.9,1.5*33
$GPRMC,105605.000,A,5034.2928,N,00227.4087,W,0.41,230.06,161011,,,A*70
$GPGGA,105606.000,5034.2929,N,00227.4088,W,1,10,0.9,3.41,M,48.8,M,,0000*71
$GPGSA,M,3,06,25,23,13,05,29,31,16,21,30,,,1.8,0.9,1.5*33
$GPGSV,3,1,11,30,69,128,42,29,49,064,47,21,48,155,40,31,48,210,31*78
$GPGSV,3,2,11,16,28,296,38,06,23,251,37,25,19,116,42,05,12,049,49*7F
$GPGSV,3,3,11,23,11,304,39,13,10,330,46,03,08,254,37*48
$GPRMC,105606.000,A,5034.2929,N,00227.4088,W,0.61,335.25,161011,,,A*7A
$GPGGA,105607.000,5034.2930,N,00227.4089,W,1,10,0.9,3.29,M,48.8,M,,0000*77
$GPGSA,M,3,06,25,23,13,05,29,31,16,21,30,,,1.8,0.9,1.5*33
$GPRMC,105607.000,A,5034.2930,N,00227.4089,W,0.49,318.46,161011,,,A*72
$GPGGA,105608.000,5034.2931,N,00227.4088,W,1,10,0.9,3.27,M,48.8,M,,0000*76
$GPGSA,M,3,06,25,23,13,05,29,31,16,21,30,,,1.8,0.9,1.5*33
$GPRMC,105608.000,A,5034.2931,N,00227.4088,W,1.04,59.09,161011,,,A*48
$GPGGA,105609.000,5034.2933,N,00227.4086,W,1,10,0.9,3.18,M,48.8,M,,0000*77
$GPGSA,M,3,06,25,23,13,05,29,31,16,21,30,,,1.8,0.9,1.5*33
$GPRMC,105609.000,A,5034.2933,N,00227.4086,W,0.65,7.88,161011,,,A*71
$GPGGA,105610.000,5034.2935,N,00227.4088,W,1,10,0.9,3.15,M,48.8,M,,0000*7A
$GPGSA,M,3,06,25,23,13,05,29,31,16,21,30,,,1.8,0.9,1.5*33
$GPRMC,105610.000,A,5034.2935,N,00227.4088,W,1.40,310.92,161011,,,A*79
$GPGGA,105611.000,5034.2937,N,00227.4092,W,1,09,1.0,3.17,M,48.8,M,,0000*70
$GPGSA,M,3,06,25,23,13,05,29,31,21,30,,,,1.9,1.0,1.6*3E
$GPGSV,3,1,11,30,69,128,41,29,49,064,45,21,48,155,37,31,48,210,36*7E
$GPGSV,3,2,11,16,28,296,,06,23,251,30,25,19,116,46,05,12,049,49*77
$GPGSV,3,3,11,23,11,304,37,13,10,330,41,03,08,254,23*44
$GPRMC,105611.000,A,5034.2937,N,00227.4092,W,1.22,292.40,161011,,,A*71
$GPGGA,105612.000,5034.2937,N,00227.4095,W,1,10,0.9,3.18,M,48.8,M,,0000*7B
$GPGSA,M,3,06,25,23,13,05,29,31,16,21,30,,,1.8,0.9,1.5*33
$GPRMC,105612.000,A,5034.2937,N,00227.4095,W,0.13,208.99,161011,,,A*71
$GPGGA,105613.000,5034.2937,N,00227.4096,W,1,10,0.9,3.29,M,48.8,M,,0000*7B
$GPGSA,M,3,06,25,23,13,05,29,31,16,21,30,,,1.8,0.9,1.5*33
$GPRMC,105613.000,A,5034.2937,N,00227.4096,W,0.01,126.36,161011,,,A*7A
$GPGGA,105614.000,5034.2937,N,00227.4097,W,1,10,0.9,3.25,M,48.8,M,,0000*71
$GPGSA,M,3,06,25,23,13,05,29,31,16,21,30,,,1.8,0.9,1.5*33
$GPRMC,105614.000,A,5034.2937,N,00227.4097,W,0.29,271.09,161011,,,A*7B
$GPGGA,105615.000,5034.2937,N,00227.4098,W,1,10,0.9,3.30,M,48.8,M,,0000*7B
$GPGSA,M,3,06,25,23,13,05,29,31,16,21,30,,,1.8,0.9,1.5*33
$GPRMC,105615.000,A,5034.2937,N,00227.4098,W,0.22,8.25,161011,,,A*7C
$GPGGA,105616.000,5034.2938,N,00227.4098,W,1,10,0.9,3.55,M,48.8,M,,0000*74
$GPGSA,M,3,06,25,23,13,05,29,31,16,21,30,,,1.8,0.9,1.5*33
$GPGSV,3,1,11,30,69,128,36,29,49,064,30,21,48,155,39,31,48,210,42*71
$GPGSV,3,2,11,16,28,296,45,06,23,251,45,25,19,116,35,05,12,049,31*7F
$GPGSV,3,3,11,23,11,304,45,13,10,330,42,03,08,254,44*43
$GPRMC,105616.000,A,5034.2938,N,00227.4098,W,0.24,23.32,161011,,,A*49
$GPGGA,105617.000,5034.2939,N,00227.4098,W,1,10,0.9,3.59,M,48.8,M,,0000*78
$GPGSA,M,3,06,25,23,13,05,29,31,16,21,30,,,1.8,0.9,1.5*33
$GPRMC,105617.000,A,5034.2939,N,00227.4098,W,0.47,355.54,161011,,,A*7E
$GPGGA,105618.000,5034.2941,N,00227.4098,W,1,10,0.9,3.61,M,48.8,M,,0000*73
$GPGSA,M,3,06,25,23,13,05,29,31,16,21,30,,,1.8,0.9,1.6*30
$GPRMC,105618.000,A,5034.2941,N,00227.4098,W,0.56,6.88,161011,,,A*7A
$GPGGA,105619.000,5034.2942,N,00227.4098,W,1,10,0.9,3.62,M,48.8,M,,0000*72
$GPGSA,M,3,06,25,23,13,05,29,31,16,21,30,,,1.8,0.9,1.6*30
$GPRMC,105619.000,A,5034.2942,N,00227.4098,W,0.67,18.85,161011,,,A*48
$GPGGA,105620.000,5034.2944,N,00227.4098,W,1,10,0.9,3.74,M,48.8,M,,0000*79
$GPGSA,M,3,06,25,23,13,05,29,31,16,21,30,,,1.8,0.9,1.6*30
$GPRMC,105620.000,A,5034.2944,N,00227.4098,W,0.66,38.97,161011,,,A*44
$GPGGA,105621.000,5034.2945,N,00227.4097,W,1,10,0.9,3.95,M,48.8,M,,0000*79
$GPGSA,M,3,06,25,23,13,05,29,31,16,21,30,,,1.8,0.9,1.6*30
$GPGSV,3,1,11,30,69,128,38,29,49,064,31,21,48,155,33,31,48,210,38*79
$GPGSV,3,2,11,16,28,296,35,06,23,251,44,25,19,116,40,05,12,049,27*7C
$GPGSV,3,3,11,23,11,304,38,13,10,330,34,03,08,254,43*4F
$GPRMC,105621.000,A,5034.2945,N,00227.4097,W,0.54,54.61,161011,,,A*49
$GPGGA,105622.000,5034.2946,N,00227.4095,W,1,10,0.9,4.03,M,48.8,M,,0000*73
$GPGSA,M,3,06,25,23,13,05,29,31,16,21,30,,,1.8,0.9,1.6*30
$GPRMC,105622.000,A,5034.2946,N,00227.4095,W,0.49,69.76,161011,,,A*4F
$GPGGA,105623.000,5034.2946,N,00227.4093,W,1,09,1.0,4.12,M,48.8,M,,0000*74
$GPGSA,M,3,06,25,23,13,29,31,16,21,30,,,,1.9,1.0,1.6*3C
$GPRMC,105623.000,A,5034.2946,N,00227.4093,W,0.61,68.29,161011,,,A*49
$GPGGA,105624.000,5034.2946,N,00227.4091,W,1,10,0.9,4.04,M,48.8,M,,0000*76
$GPGSA,M,3,06,25,23,13,05,29,31,16,21,30,,,1.8,0.9,1.6*30
$GPRMC,105624.000,A,5034.2946,N,00227.4091,W,0.68,72.21,161011,,,A*46
$GPGGA,105625.000,5034.2946,N,00227.4088,W,1,10,0.9,4.02,M,48.8,M,,0000*79
$GPGSA,M,3,06,25,23,13,05,29,31,16,21,30,,,1.8,0.9,1.6*30
$GPRMC,105625.000,A,5034.2946,N,00227.4088,W,0.71,71.62,161011,,,A*43
$GPGGA,105626.000,5034.2946,N,00227.4086,W,1,10,0.9,4.05,M,48.8,M,,0000*73
$GPGSA,M,3,06,25,23,13,05,29,31,16,21,30,,,1.8,0.9,1.6*30
$GPGSV,3,1,11,30,69,128,38,29,49,064,35,21,48,155,34,31,48,210,41*74
$GPGSV,3,2,11,16,28,296,31,06,23,251,44,25,19,116,36,05,12,049,31*7E
$GPGSV,3,3,11,23,11,304,26,13,10,330,28,03,08,254,43*4D
$GPRMC,105626.000,A,5034.2946,N,00227.4086,W,0.51,84.86,161011,,,A*4C
$GPGGA,105627.000,5034.2946,N,00227.4084,W,1,10,0.9,4.24,M,48.8,M,,0000*73
$GPGSA,M,3,06,25,23,13,05,29,31,16,21,30,,,1.8,0.9,1.6*30
$GPRMC,105627.000,A,5034.2946,N,00227.4084,W,0.55,79.17,161011,,,A*41
$GPGGA,105628.000,5034.2946,N,00227.4082,W,1,10,0.9,4.32,M,48.8,M,,0000*7D
$GPGSA,M,3,06,25,23,13,05,29,31,16,21,30,,,1.8,0.9,1.6*30
$GPRMC,105628.000,A,5034.2946,N,00227.4082,W,0.46,75.74,161011,,,A*43
$GPGGA,105629.000,5034.2946,N,00227.4080,W,1,10,0.9,4.32,M,48.8,M,,0000*7E
$GPGSA,M,3,06,25,23,13,05,29,31,16,21,30,,,1.8,0.9,1.6*30
$GPRMC,105629.000,A,5034.2946,N,00227.4080,W,0.48,70.20,161011,,,A*4A
$GPGGA,105630.000,5034.2947,N,00227.4079,W,1,10,0.9,4.42,M,48.8,M,,0000*76
$GPGSA,M,3,06,25,23,13,05,29,31,16,21,30,,,1.8,0.9,1.6*30
$GPRMC,105630.000,A,5034.2947,N,00227.4079,W,0.55,48.27,161011,,,A*45
$GPGGA,105631.000,5034.2948,N,00227.4078,W,1,10,0.9,4.51,M,48.8,M,,0000*7B
$GPGSA,M,3,06,25,23,13,05,29,31,16,21,30,,,1.8,0.9,1.6*30
$GPGSV,3,1,11,30,69,128,38,29,49,064,30,21,48,155,40,31,48,210,42*71
$GPGSV,3,2,11,16,28,296,38,06,23,251,43,25,19,116,36,05,12,049,25*75
$GPGSV,3,3,11,23,11,304,39,13,10,330,34,03,08,254,38*42
$GPRMC,105631.000,A,5034.2948,N,00227.4078,W,0.47,50.82,161011,,,A*4F
$GPGGA,105632.000,5034.2948,N,00227.4075,W,1,10,0.9,4.61,M,48.8,M,,0000*76
$GPGSA,M,3,06,25,23,13,05,29,31,16,21,30,,,1.8,0.9,1.6*30
$GPRMC,105632.000,A,5034.2948,N,00227.4075,W,1.24,81.34,161011,,,A*44
$GPGGA,105633.000,5034.2949,N,00227.4072,W,1,10,0.9,4.57,M,48.8,M,,0000*74
$GPGSA,M,3,06,25,23,13,05,29,31,16,21,30,,,1.8,0.9,1.6*30
$GPRMC,105633.000,A,5034.2949,N,00227.4072,W,0.59,39.14,161011,,,A*49
$GPGGA,105634.000,5034.2951,N,00227.4070,W,1,10,0.9,4.51,M,48.8,M,,0000*7E
$GPGSA,M,3,06,25,23,13,05,29,31,16,21,30,,,1.8,0.9,1.6*30
$GPRMC,105634.000,A,5034.2951,N,00227.4070,W,0.62,57.46,161011,,,A*42
$GPGGA,105635.000,5034.2952,N,00227.4068,W,1,10,0.9,4.51,M,48.8,M,,0000*75
$GPGSA,M,3,06,25,23,13,05,29,31,16,21,30,,,1.8,0.9,1.6*30
$GPRMC,105635.000,A,5034.2952,N,00227.4068,W,0.54,64.90,161011,,,A*47
$GPGGA,105636.000,5034.2953,N,00227.4066,W,1,10,0.9,4.47,M,48.8,M,,0000*7E
$GPGSA,M,3,06,25,23,13,05,29,31,16,21,30,,,1.8,0.9,1.6*30
$GPGSV,3,1,11,30,69,128,39,29,49,064,31,21,48,155,46,31,48,210,42*77
$GPGSV,3,2,11,16,28,296,33,06,23,251,35,25,19,116,50,05,12,049,37*7C
$GPGSV,3,3,11,23,11,304,26,13,10,330,38,03,08,254,35*4D
$GPRMC,105636.000,A,5034.2953,N,00227.4066,W,0.53,50.00,161011,,,A*42
$GPGGA,105637.000,5034.2954,N,00227.4065,W,1,10,0.9,4.38,M,48.8,M,,0000*73
$GPGSA,M,3,06,25,23,13,05,29,31,16,21,30,,,1.8,0.9,1.6*30
$GPRMC,105637.000,A,5034.2954,N,00227.4065,W,0.56,36.34,161011,,,A*45
$GPGGA,105638.000,5034.2956,N,00227.4064,W,1,10,0.9,4.32,M,48.8,M,,0000*75
$GPGSA,M,3,06,25,23,13,05,29,31,16,21,30,,,1.8,0.9,1.6*30
$GPRMC,105638.000,A,5034.2956,N,00227.4064,W,0.70,29.85,161011,,,A*49
$GPGGA,105639.000,5034.2959,N,00227.4057,W,1,10,0.9,4.67,M,48.8,M,,0000*7B
$GPGSA,M,3,06,25,23,13,05,29,31,16,21,30,,,1.8,0.9,1.6*30
$GPRMC,105639.000,A,5034.2959,N,00227.4057,W,2.65,67.27,161011,,,A*43
$GPGGA,105640.000,5034.2961,N,00227.4050,W,1,09,1.0,4.39,M,48.8,M,,0000*72
$GPGSA,M,3,06,25,23,13,29,31,16,21,30,,,,1.9,1.0,1.6*3C
$GPRMC,105640.000,A,5034.2961,N,00227.4050,W,1.55,45.27,161011,,,A*41
$GPGGA,105641.000,5034.2962,N,00227.4045,W,1,10,0.9,4.07,M,48.8,M,,0000*79
$GPGSA,M,3,06,25,23,13,05,29,31,16,21,30,,,1.8,0.9,1.6*30
$GPGSV,3,1,11,30,69,128,40,29,49,064,37,21,48,155,44,31,48,210,42*7D
$GPGSV,3,2,11,16,28,296,37,06,23,251,39,25,19,116,46,05,12,049,29*7C
$GPGSV,3,3,11,23,11,304,32,13,10,330,32,03,08,254,44*44
$GPRMC,105641.000,A,5034.2962,N,00227.4045,W,1.68,84.66,161011,,,A*41
$GPGGA,105642.000,5034.2962,N,00227.4039,W,1,10,0.9,3.95,M,48.8,M,,0000*7D
$GPGSA,M,3,06,25,23,13,05,29,31,16,21,30,,,1.8,0.9,1.6*30
$GPRMC,105642.000,A,5034.2962,N,00227.4039,W,1.38,64.30,161011,,,A*41
$GPGGA,105643.000,5034.2963,N,00227.4034,W,1,10,0.9,3.99,M,48.8,M,,0000*7C
$GPGSA,M,3,06,25,23,13,05,29,31,16,21,30,,,1.8,0.9,1.6*30
$GPRMC,105643.000,A,5034.2963,N,00227.4034,W,1.39,74.73,161011,,,A*4B
$GPGGA,105644.000,5034.2964,N,00227.4029,W,1,10,0.9,3.75,M,48.8,M,,0000*72
$GPGSA,M,3,06,25,23,13,05,29,31,16,21,30,,,1.8,0.9,1.6*30
$GPRMC,105644.000,A,5034.2964,N,00227.4029,W,1.26,63.41,161011,,,A*4E
$GPGGA,105645.000,5034.2966,N,00227.4025,W,1,10,0.9,3.61,M,48.8,M,,0000*78
$GPGSA,M,3,06,25,23,13,05,29,31,16,21,30,,,1.8,0.9,1.6*30
$GPRMC,105645.000,A,5034.2966,N,00227.4025,W,1.45,44.63,161011,,,A*41
$GPGGA,105646.000,5034.2969,N,00227.4021,W,1,10,0.9,3.40,M,48.8,M,,0000*73
$GPGSA,M,3,06,25,23,13,05,29,31,16,21,30,,,1.8,0.9,1.6*30
$GPGSV,3,1,11,30,69,128,37,21,49,154,44,29,49,065,36,31,48,209,45*72
$GPGSV,3,2,11,16,28,296,28,06,23,251,38,25,18,117,48,05,13,048,33*76
$GPGSV,3,3,11,23,11,303,30,13,10,329,25,03,08,254,36*4A
$GPRMC,105646.000,A,5034.2969,N,00227.4021,W,1.58,23.70,161011,,,A*46
$GPGGA,105647.000,5034.2973,N,00227.4021,W,1,10,0.9,3.41,M,48.8,M,,0000*78
$GPGSA,M,3,06,25,23,13,05,29,31,16,21,30,,,1.8,0.9,1.6*30
$GPRMC,105647.000,A,5034.2973,N,00227.4021,W,1.67,353.86,161011,,,A*7D
$GPGGA,105648.000,5034.2978,N,00227.4022,W,1,09,1.0,3.20,M,48.8,M,,0000*78
$GPGSA,M,3,06,25,23,13,05,29,31,21,30,,,,1.9,1.0,1.6*3E
$GPRMC,105648.000,A,5034.2978,N,00227.4022,W,1.93,353.38,161011,,,A*74
$GPGGA,105649.000,5034.2985,N,00227.4022,W,1,10,0.9,3.30,M,48.8,M,,0000*7A
$GPGSA,M,3,06,25,23,13,05,29,31,16,21,30,,,1.8,0.9,1.6*30
$GPRMC,105649.000,A,5034.2985,N,00227.4022,W,2.66,1.36,161011,,,A*74
$GPGGA,105650.000,5034.2992,N,00227.4024,W,1,10,0.9,3.34,M,48.8,M,,0000*76
$GPGSA,M,3,06,25,23,13,05,29,31,16,21,30,,,1.8,0.9,1.6*30
$GPRMC,105650.000,A,5034.2992,N,00227.4024,W,2.41,349.02,161011,,,A*71
$GPGGA,105651.000,5034.2999,N,00227.4026,W,1,10,0.9,3.42,M,48.8,M,,0000*7F
$GPGSA,M,3,06,25,23,13,05,29,31,16,21,30,,,1.8,0.9,1.6*30
$GPGSV,3,1,11,30,69,128,41,21,49,154,45,29,49,065,33,31,48,209,42*70
$GPGSV,3,2,11,16,28,296,33,06,23,251,43,25,18,117,40,05,13,048,36*7D
$GPGSV,3,3,11,23,11,303,30,13,10,329,28,03,08,254,44*42
$GPRMC,105651.000,A,5034.2999,N,00227.4026,W,2.69,343.30,161011,,,A*78
$GPGGA,105652.000,5034.3005,N,00227.4029,W,1,10,0.9,3.42,M,48.8,M,,0000*7E
$GPGSA,M,3,06,25,23,13,05,29,31,16,21,30,,,1.8,0.9,1.6*30
$GPRMC,105652.000,A,5034.3005,N,00227.4029,W,1.95,358.20,161011,,,A*72
$GPGGA,105653.000,5034.3011,N,00227.4030,W,1,10,0.9,3.54,M,48.8,M,,0000*75
$GPGSA,M,3,06,25,23,13,05,29,31,16,21,30,,,1.8,0.9,1.6*30
$GPRMC,105653.000,A,5034.3011,N,00227.4030,W,1.88,343.34,161011,,,A*7D
$GPGGA,105654.000,5034.3017,N,00227.4034,W,1,10,0.9,3.70,M,48.8,M,,0000*76
$GPGSA,M,3,06,25,23,13,05,29,31,16,21,30,,,1.8,0.9,1.6*30
$GPRMC,105654.000,A,5034.3017,N,00227.4034,W,2.35,333.47,161011,,,A*7E
$GPGGA,105655.000,5034.3023,N,00227.4039,W,1,10,0.9,3.85,M,48.8,M,,0000*77
$GPGSA,M,3,06,25,23,13,05,29,31,16,21,30,,,1.8,0.9,1.6*30
$GPRMC,105655.000,A,5034.3023,N,00227.4039,W,2.98,340.09,161011,,,A*7C
$GPGGA,105656.000,5034.3032,N,00227.4045,W,1,10,0.9,3.89,M,48.8,M,,0000*73
$GPGSA,M,3,06,25,23,13,05,29,31,16,21,30,,,1.8,0.9,1.6*30
$GPGSV,3,1,11,30,69,128,40,21,49,154,45,29,49,065,37,31,48,209,43*74
$GPGSV,3,2,11,16,28,296,32,06,23,251,37,25,18,117,37,05,13,048,36*7F
$GPGSV,3,3,11,23,11,303,26,13,10,329,31,03,08,254,40*49
$GPRMC,105656.000,A,5034.3032,N,00227.4045,W,3.84,340.44,161011,,,A*71
$GPGGA,105657.000,5034.3042,N,00227.4051,W,1,10,0.9,3.89,M,48.8,M,,0000*70
$GPGSA,M,3,06,25,23,13,05,29,31,16,21,30,,,1.8,0.9,1.6*30
$GPRMC,105657.000,A,5034.3042,N,00227.4051,W,4.38,338.40,161011,,,A*79
$GPGGA,105658.000,5034.3054,N,00227.4059,W,1,10,0.9,3.85,M,48.8,M,,0000*7C
$GPGSA,M,3,06,25,23,13,05,29,31,16,21,30,,,1.8,0.9,1.6*30
$GPRMC,105658.000,A,5034.3054,N,00227.4059,W,4.81,341.72,161011,,,A*74
$GPGGA,105659.000,5034.3068,N,00227.4064,W,1,10,0.9,3.87,M,48.8,M,,0000*7E
$GPGSA,M,3,06,25,23,13,05,29,31,16,21,30,,,1.8,0.9,1.6*30
$GPRMC,105659.000,A,5034.3068,N,00227.4064,W,5.30,349.34,161011,,,A*75
$GPGGA,105700.000,5034.3083,N,00227.4068,W,1,09,1.0,3.76,M,48.8,M,,0000*74
$GPGSA,M,3,06,25,23,13,05,29,31,16,30,,,,1.8,1.0,1.6*3B
$GPRMC,105700.000,A,5034.3083,N,00227.4068,W,5.92,353.37,161011,,,A*71
$GPGGA,105701.000,5034.3097,N,00227.4075,W,1,10,0.9,3.57,M,48.8,M,,0000*7F
$GPGSA,M,3,06,25,23,13,05,29,31,16,21,30,,,1.8,0.9,1.6*30
$GPGSV,3,1,11,30,69,128,37,21,49,154,37,29,49,065,35,31,48,209,45*75
$GPGSV,3,2,11,16,28,296,33,06,23,251,38,25,18,117,39,05,13,048,36*7F
$GPGSV,3,3,11,23,11,303,36,13,10,329,26,03,08,254,40*4E
$GPRMC,105701.000,A,5034.3097,N,00227.4075,W,5.24,335.25,161011,,,A*77
$GPGGA,105702.000,5034.3109,N,00227.4082,W,1,10,0.9,3.68,M,48.8,M,,0000*7E
$GPGSA,M,3,06,25,23,13,05,29,31,16,21,30,,,1.8,0.9,1.6*30
$GPRMC,105702.000,A,5034.3109,N,00227.4082,W,4.29,345.70,161011,,,A*71
$GPGGA,105703.000,5034.3122,N,00227.4083,W,1,09,1.0,3.71,M,48.8,M,,0000*7F
$GPGSA,M,3,06,25,23,05,29,31,16,21,30,,,,1.8,1.0,1.6*3A
$GPRMC,105703.000,A,5034.3122,N,00227.4083,W,5.18,6.03,161011,,,A*7B
$GPGGA,105704.000,5034.3137,N,00227.4081,W,1,09,1.0,3.60,M,48.8,M,,0000*7E
$GPGSA,M,3,06,25,23,05,29,31,16,21,30,,,,1.8,1.0,1.6*3A
$GPRMC,105704.000,A,5034.3137,N,00227.4081,W,5.87,5.17,161011,,,A*7A
$GPGGA,105705.000,5034.3151,N,00227.4082,W,1,09,1.0,3.52,M,48.8,M,,0000*7D
$GPGSA,M,3,06,25,23,05,29,31,16,21,30,,,,1.8,1.0,1.6*3A
$GPRMC,105705.000,A,5034.3151,N,00227.4082,W,4.48,349.92,161011,,,A*7C
$GPGGA,105706.000,5034.3161,N,00227.4089,W,1,09,1.0,3.36,M,48.8,M,,0000*74
$GPGSA,M,3,06,25,23,05,29,31,16,21,30,,,,1.8,1.0,1.6*3A
$GPGSV,3,1,11,30,69,128,38,21,49,154,44,29,49,065,36,31,48,209,45*7D
$GPGSV,3,2,11,16,28,296,34,06,23,251,41,25,18,117,37,05,13,048,35*7B
$GPGSV,3,3,11,23,11,303,31,13,10,329,,03,08,254,41*4C
$GPRMC,105706.000,A,5034.3161,N,00227.4089,W,4.05,328.22,161011,,,A*72
$GPGGA,105707.000,5034.3172,N,00227.4097,W,1,10,0.9,3.29,M,48.8,M,,0000*76
$GPGSA,M,3,06,25,23,13,05,29,31,16,21,30,,,1.8,0.9,1.6*30
$GPRMC,105707.000,A,5034.3172,N,00227.4097,W,3.80,332.46,161011,,,A*7D
$GPGGA,105708.000,5034.3182,N,00227.4104,W,1,10,0.9,3.28,M,48.8,M,,0000*7C
$GPGSA,M,3,06,25,23,13,05,29,31,16,21,30,,,1.8,0.9,1.6*30
$GPRMC,105708.000,A,5034.3182,N,00227.4104,W,4.39,342.19,161011,,,A*7E
$GPGGA,105709.000,5034.3194,N,00227.4111,W,1,10,0.9,3.18,M,48.8,M,,0000*7D
$GPGSA,M,3,06,25,23,13,05,29,31,16,21,30,,,1.8,0.9,1.6*30
$GPRMC,105709.000,A,5034.3194,N,00227.4111,W,4.66,336.88,161011,,,A*7D
$GPGGA,105710.000,5034.3206,N,00227.4119,W,1,10,0.9,3.33,M,48.8,M,,0000*7C
$GPGSA,M,3,06,25,23,13,05,29,31,16,21,30,,,1.8,0.9,1.6*30
$GPRMC,105710.000,A,5034.3206,N,00227.4119,W,4.22,337.35,161011,,,A*72
$GPGGA,105711.000,5034.3218,N,00227.4125,W,1,10,0.9,3.41,M,48.8,M,,0000*78
$GPGSA,M,3,06,25,23,13,05,29,31,16,21,30,,,1.8,0.9,1.6*30
$GPGSV,3,1,11,30,69,128,38,21,49,154,44,29,49,065,37,31,48,209,45*7C
$GPGSV,3,2,11,16,28,296,32,06,23,251,41,25,18,117,38,05,13,048,38*7F
$GPGSV,3,3,11,23,11,303,30,13,10,329,33,03,08,254,38*43
$GPRMC,105711.000,A,5034.3218,N,00227.4125,W,4.52,346.22,161011,,,A*74
$GPGGA,105712.000,5034.3231,N,00227.4131,W,1,10,0.9,3.42,M,48.8,M,,0000*76
$GPGSA,M,3,06,25,23,13,05,29,31,16,21,30,,,1.8,0.9,1.6*30
$GPRMC,105712.000,A,5034.3231,N,00227.4131,W,5.18,342.81,161011,,,A*7B
$GPGGA,105713.000,5034.3245,N,00227.4137,W,1,09,1.0,3.39,M,48.8,M,,0000*7E
$GPGSA,M,3,06,25,13,05,29,31,16,21,30,,,,1.9,1.0,1.6*38
$GPRMC,105713.000,A,5034.3245,N,00227.4137,W,5.07,347.52,161011,,,A*7A
$GPGGA,105714.000,5034.3259,N,00227.4142,W,1,10,0.9,3.29,M,48.8,M,,0000*77
$GPGSA,M,3,06,25,23,13,05,29,31,16,21,30,,,1.8,0.9,1.6*30
$GPRMC,105714.000,A,5034.3259,N,00227.4142,W,5.08,350.11,161011,,,A*7C
$GPGGA,105715.000,5034.3273,N,00227.4147,W,1,09,1.1,3.34,M,48.8,M,,0000*76
$GPGSA,M,3,06,25,23,13,05,31,16,21,30,,,,2.1,1.1,1.8*36
$GPRMC,105715.000,A,5034.3273,N,00227.4147,W,5.47,345.17,161011,,,A*79
$GPGGA,105716.000,5034.3289,N,00227.4155,W,1,10,0.9,3.36,M,48.8,M,,0000*70
$GPGSA,M,3,06,25,23,13,05,29,31,16,21,30,,,1.8,0.9,1.6*30
$GPGSV,3,1,11,30,68,128,38,21,49,154,45,29,49,065,35,31,47,209,44*70
$GPGSV,3,2,11,16,28,296,32,06,24,251,40,25,18,117,39,05,13,048,30*70
$GPGSV,3,3,11,23,11,303,32,13,10,329,33,03,08,255,39*41
$GPRMC,105716.000,A,5034.3289,N,00227.4155,W,5.93,339.78,161011,,,A*77
$GPGGA,105717.000,5034.3304,N,00227.4164,W,1,10,0.9,3.37,M,48.8,M,,0000*76
$GPGSA,M,3,06,25,23,13,05,29,31,16,21,30,,,1.8,0.9,1.6*30
$GPRMC,105717.000,A,5034.3304,N,00227.4164,W,5.94,342.54,161011,,,A*75
$GPGGA,105718.000,5034.3320,N,00227.4171,W,1,10,0.9,3.40,M,48.8,M,,0000*7B
$GPGSA,M,3,06,25,23,13,05,29,31,16,21,30,,,1.8,0.9,1.6*30
$GPRMC,105718.000,A,5034.3320,N,00227.4171,W,5.72,343.26,161011,,,A*74
$GPGGA,105719.000,5034.3335,N,00227.4179,W,1,10,0.9,3.45,M,48.8,M,,0000*73
$GPGSA,M,3,06,25,23,13,05,29,31,16,21,30,,,1.8,0.9,1.6*30
$GPRMC,105719.000,A,5034.3335,N,00227.4179,W,5.56,340.81,161011,,,A*71
$GPGGA,105720.000,5034.3350,N,00227.4186,W,1,10,0.9,3.38,M,48.8,M,,0000*70
$GPGSA,M,3,06,25,23,13,05,29,31,16,21,30,,,1.8,0.9,1.6*30
$GPRMC,105720.000,A,5034.3350,N,00227.4186,W,5.98,346.06,161011,,,A*73
$GPGGA,105721.000,5034.3367,N,00227.4192,W,1,10,0.9,3.34,M,48.8,M,,0000*7C
$GPGSA,M,3,06,25,23,13,05,29,31,16,21,30,,,1.8,0.9,1.6*30
$GPGSV,3,1,11,30,68,128,38,21,49,154,45,29,49,065,34,31,47,209,42*77
$GPGSV,3,2,11,16,28,296,31,06,24,251,40,25,18,117,42,05,13,048,30*7F
$GPGSV,3,3,11,23,11,303,31,13,10,329,28,03,08,255,33*42
$GPRMC,105721.000,A,5034.3367,N,00227.4192,W,6.26,350.30,161011,,,A*77
$GPGGA,105722.000,5034.3384,N,00227.4198,W,1,10,0.9,3.04,M,48.8,M,,0000*7B
$GPGSA,M,3,06,25,23,13,05,29,31,16,21,30,,,1.8,0.9,1.6*30
$GPRMC,105722.000,A,5034.3384,N,00227.4198,W,6.28,346.54,161011,,,A*78
$GPGGA,105723.000,5034.3400,N,00227.4206,W,1,10,0.9,2.94,M,48.8,M,,0000*7D
$GPGSA,M,3,06,25,23,13,05,29,31,16,21,30,,,1.8,0.9,1.6*30
$GPRMC,105723.000,A,5034.3400,N,00227.4206,W,5.80,340.13,161011,,,A*72
$GPGGA,105724.000,5034.3415,N,00227.4215,W,1,10,0.9,2.97,M,48.8,M,,0000*7F
$GPGSA,M,3,06,25,23,13,05,29,31,16,21,30,,,1.8,0.9,1.6*30
$GPRMC,105724.000,A,5034.3415,N,00227.4215,W,5.22,336.67,161011,,,A*79
$GPGGA,105725.000,5034.3429,N,00227.4223,W,1,10,0.9,2.94,M,48.8,M,,0000*77
$GPGSA,M,3,06,25,23,13,05,29,31,16,21,30,,,1.8,0.9,1.6*30
$GPRMC,105725.000,A,5034.3429,N,00227.4223,W,5.10,341.01,161011,,,A*73
$GPGGA,105726.000,5034.3442,N,00227.4233,W,1,10,0.9,2.83,M,48.8,M,,0000*7E
$GPGSA,M,3,06,25,23,13,05,29,31,16,21,30,,,1.8,0.9,1.6*30
$GPGSV,3,1,11,30,68,128,38,21,49,154,45,29,49,065,35,31,47,209,42*76
$GPGSV,3,2,11,16,28,296,31,06,24,251,39,25,18,117,41,05,13,048,31*73
$GPGSV,3,3,11,23,11,303,31,13,10,329,36,03,08,255,40*49
$GPRMC,105726.000,A,5034.3442,N,00227.4233,W,4.91,329.26,161011,,,A*7F
$GPGGA,105727.000,5034.3453,N,00227.4244,W,1,10,0.9,2.82,M,48.8,M,,0000*7E
$GPGSA,M,3,06,25,23,13,05,29,31,16,21,30,,,1.8,0.9,1.6*30
$GPRMC,105727.000,A,5034.3453,N,00227.4244,W,4.64,322.74,161011,,,A*78
$GPGGA,105728.000,5034.3461,N,00227.4255,W,1,10,0.9,2.72,M,48.8,M,,0000*7F
$GPGSA,M,3,06,25,23,13,05,29,31,16,21,30,,,1.8,0.9,1.6*30
$GPRMC,105728.000,A,5034.3461,N,00227.4255,W,3.20,321.07,161011,,,A*76
$GPGGA,105729.000,5034.3468,N,00227.4264,W,1,10,0.9,2.86,M,48.8,M,,0000*7E
$GPGSA,M,3,06,25,23,13,05,29,31,16,21,30,,,1.8,0.9,1.6*30
$GPRMC,105729.000,A,5034.3468,N,00227.4264,W,2.84,317.53,161011,,,A*77
$GPGGA,105730.000,5034.3473,N,00227.4271,W,1,10,0.9,2.89,M,48.8,M,,0000*77
$GPGSA,M,3,06,25,23,13,05,29,31,16,21,30,,,1.8,0.9,1.6*30
$GPRMC,105730.000,A,5034.3473,N,00227.4271,W,2.38,320.44,161011,,,A*74
$GPGGA,105731.000,5034.3478,N,00227.4276,W,1,10,0.9,3.02,M,48.8,M,,0000*78
$GPGSA,M,3,06,25,23,13,05,29,31,16,21,30,,,1.8,0.9,1.6*30
$GPGSV,3,1,11,30,68,128,40,21,49,154,44,29,49,065,36,31,47,209,42*7B
$GPGSV,3,2,11,16,28,296,31,06,24,251,39,25,18,117,43,05,13,048,33*73
$GPGSV,3,3,11,23,11,303,31,13,10,329,28,03,08,255,43*45
$GPRMC,105731.000,A,5034.3478,N,00227.4276,W,1.68,336.17,161011,,,A*7E
$GPGGA,105732.000,5034.3480,N,00227.4279,W,1,09,1.0,3.00,M,48.8,M,,0000*71
$GPGSA,M,3,06,25,23,05,29,31,16,21,30,,,,1.9,1.0,1.6*3B
$GPRMC,105732.000,A,5034.3480,N,00227.4279,W,0.59,304.69,161011,,,A*7E
$GPGGA,105733.000,5034.3481,N,00227.4282,W,1,10,0.9,2.94,M,48.8,M,,0000*79
$GPGSA,M,3,06,25,23,13,05,29,31,16,21,30,,,1.8,0.9,1.6*30
$GPRMC,105733.000,A,5034.3481,N,00227.4282,W,0.83,270.90,161011,,,A*79
$GPGGA,105734.000,5034.3482,N,00227.4285,W,1,10,0.9,3.01,M,48.8,M,,0000*77
$GPGSA,M,3,06,25,23,13,05,29,31,16,21,30,,,1.8,0.9,1.6*30
$GPRMC,105734.000,A,5034.3482,N,00227.4285,W,0.37,313.00,161011,,,A*78
$GPGGA,105735.000,5034.3483,N,00227.4286,W,1,10,0.9,3.09,M,48.8,M,,0000*7C
$GPGSA,M,3,06,25,23,13,05,29,31,16,21,30,,,1.8,0.9,1.6*30
$GPRMC,105735.000,A,5034.3483,N,00227.4286,W,0.45,336.09,161011,,,A*70
$GPGGA,105736.000,5034.3485,N,00227.4287,W,1,10,0.9,3.16,M,48.8,M,,0000*76
$GPGSA,M,3,06,25,23,13,05,29,31,16,21,30,,,1.8,0.9,1.6*30
$GPGSV,3,1,11,30,68,128,40,21,49,154,43,29,49,065,29,31,47,209,43*73
$GPGSV,3,2,11,16,28,296,40,06,24,251,46,25,18,117,28,05,13,048,33*70
$GPGSV,3,3,11,23,11,303,43,13,10,329,40,03,08,255,46*4B
$GPRMC,105736.000,A,5034.3485,N,00227.4287,W,0.60,344.60,161011,,,A*79
$GPGGA,105737.000,5034.3486,N,00227.4286,W,1,10,0.9,3.38,M,48.8,M,,0000*79
$GPGSA,M,3,06,25,23,13,05,29,31,16,21,30,,,1.8,0.9,1.6*30
$GPRMC,105737.000,A,5034.3486,N,00227.4286,W,0.71,112.55,161011,,,A*7D
$GPGGA,105738.000,5034.3486,N,00227.4285,W,1,10,0.9,3.57,M,48.8,M,,0000*7C
$GPGSA,M,3,06,25,23,13,05,29,31,16,21,30,,,1.8,0.9,1.6*30
$GPRMC,105738.000,A,5034.3486,N,00227.4285,W,0.17,40.52,161011,,,A*40
$GPGGA,105739.000,5034.3487,N,00227.4284,W,1,10,0.9,3.58,M,48.8,M,,0000*72
$GPGSA,M,3,06,25,23,13,05,29,31,16,21,30,,,1.8,0.9,1.6*30
$GPRMC,105739.000,A,5034.3487,N,00227.4284,W,0.63,51.43,161011,,,A*42
$GPGGA,105740.000,5034.3488,N,00227.4281,W,1,10,0.9,3.65,M,48.8,M,,0000*78
$GPGSA,M,3,06,25,23,13,05,29,31,16,21,30,,,1.8,0.9,1.6*30
$GPRMC,105740.000,A,5034.3488,N,00227.4281,W,1.03,84.98,161011,,,A*4F
$GPGGA,105741.000,5034.3488,N,00227.4277,W,1,10,0.9,3.68,M,48.8,M,,0000*7D
$GPGSA,M,3,06,25,23,13,05,29,31,16,21,30,,,1.8,0.9,1.6*30
$GPGSV,3,1,11,30,68,128,40,21,49,154,39,29,49,065,32,31,47,209,39*79
$GPGSV,3,2,11,16,28,296,48,06,24,251,45,25,18,117,40,05,13,048,37*71
$GPGSV,3,3,11,23,11,303,45,13,10,329,36,03,08,255,46*4C
$GPRMC,105741.000,A,5034.3488,N,00227.4277,W,0.97,108.71,161011,,,A*79
$GPGGA,105742.000,5034.3488,N,00227.4273,W,1,10,0.9,3.59,M,48.8,M,,0000*78
$GPGSA,M,3,06,25,23,13,05,29,31,16,21,30,,,1.8,0.9,1.6*30
$GPRMC,105742.000,A,5034.3488,N,00227.4273,W,0.92,97.53,161011,,,A*4C
$GPGGA,105743.000,5034.3487,N,00227.4269,W,1,10,0.9,3.51,M,48.8,M,,0000*75
$GPGSA,M,3,06,25,23,13,05,29,31,16,21,30,,,1.8,0.9,1.6*30
$GPRMC,105743.000,A,5034.3487,N,00227.4269,W,1.04,109.84,161011,,,A*7B
$GPGGA,105744.000,5034.3486,N,00227.4265,W,1,10,0.9,3.51,M,48.8,M,,0000*7F
$GPGSA,M,3,06,25,23,13,05,29,31,16,21,30,,,1.8,0.9,1.6*30
$GPRMC,105744.000,A,5034.3486,N,00227.4265,W,0.92,118.99,161011,,,A*73
$GPGGA,105745.000,5034.3485,N,00227.4263,W,1,10,0.9,3.58,M,48.8,M,,0000*72
$GPGSA,M,3,06,25,23,13,05,29,31,16,21,30,,,1.8,0.9,1.6*30
$GPRMC,105745.000,A,5034.3485,N,00227.4263,W,0.52,131.54,161011,,,A*71
$GPGGA,105746.000,5034.3483,N,00227.4262,W,1,10,0.9,3.54,M,48.8,M,,0000*7A
$GPGSA,M,3,06,25,23,13,05,29,31,16,21,30,,,1.8,0.9,1.6*30
$GPGSV,3,1,11,30,68,128,40,21,49,154,38,29,49,065,32,31,47,209,38*79
$GPGSV,3,2,11,16,28,296,45,06,24,251,45,25,18,117,40,05,13,048,37*7C
$GPGSV,3,3,11,23,11,303,46,13,10,329,32,03,08,255,46*4B
$GPRMC,105746.000,A,5034.3483,N,00227.4262,W,1.13,169.53,161011,,,A*7B
$GPGGA,105747.000,5034.3480,N,00227.4262,W,1,10,0.9,3.44,M,48.8,M,,0000*79
$GPGSA,M,3,06,25,23,13,05,29,31,16,21,30,,,1.8,0.9,1.6*30
$GPRMC,105747.000,A,5034.3480,N,00227.4262,W,1.26,179.62,161011,,,A*7C
$GPGGA,105748.000,5034.3475,N,00227.4262,W,1,10,0.9,3.39,M,48.8,M,,0000*76
$GPGSA,M,3,06,25,23,13,05,29,31,16,21,30,,,1.8,0.9,1.6*30
$GPRMC,105748.000,A,5034.3475,N,00227.4262,W,2.08,181.08,161011,,,A*7D
$GPGGA,105749.000,5034.3469,N,00227.4263,W,1,10,0.9,3.40,M,48.8,M,,0000*75
$GPGSA,M,3,06,25,23,13,05,29,31,16,21,30,,,1.8,0.9,1.6*30
$GPRMC,105749.000,A,5034.3469,N,00227.4263,W,2.12,189.71,161011,,,A*7D
$GPGGA,105750.000,5034.3463,N,00227.4264,W,1,10,0.9,3.37,M,48.8,M,,0000*70
$GPGSA,M,3,06,25,23,13,05,29,31,16,21,30,,,1.8,0.9,1.6*30
$GPRMC,105750.000,A,5034.3463,N,00227.4264,W,1.82,173.94,161011,,,A*7C
$GPGGA,105751.000,5034.3459,N,00227.4263,W,1,10,0.9,3.58,M,48.8,M,,0000*76
$GPGSA,M,3,06,25,23,13,05,29,31,16,21,30,,,1.8,0.9,1.6*30
$GPGSV,3,1,11,30,68,128,33,21,49,154,34,29,49,065,30,31,47,209,46*7A
$GPGSV,3,2,11,16,28,296,43,06,24,251,44,25,18,117,31,05,13,048,32*78
$GPGSV,3,3,11,23,11,303,41,13,10,329,38,03,08,255,47*47
$GPRMC,105751.000,A,5034.3459,N,00227.4263,W,1.34,174.48,161011,,,A*78
$GPGGA,105752.000,5034.3457,N,00227.4262,W,1,10,0.9,3.74,M,48.8,M,,0000*74
$GPGSA,M,3,06,25,23,13,05,29,31,16,21,30,,,1.8,0.9,1.6*30
$GPRMC,105752.000,A,5034.3457,N,00227.4262,W,0.82,158.45,161011,,,A*7B
$GPGGA,105753.000,5034.3454,N,00227.4262,W,1,10,0.9,3.81,M,48.8,M,,0000*7C
$GPGSA,M,3,06,25,23,13,05,29,31,16,21,30,,,1.8,0.9,1.6*30
$GPRMC,105753.000,A,5034.3454,N,00227.4262,W,0.86,179.92,161011,,,A*74
$GPGGA,105754.000,5034.3452,N,00227.4262,W,1,10,0.9,4.05,M,48.8,M,,0000*76
$GPGSA,M,3,06,25,23,13,05,29,31,16,21,30,,,1.8,0.9,1.6*30
$GPRMC,105754.000,A,5034.3452,N,00227.4262,W,1.04,175.38,161011,,,A*72
$GPGGA,105755.000,5034.3450,N,00227.4263,W,1,10,0.9,4.08,M,48.8,M,,0000*79
$GPGSA,M,3,06,25,23,13,05,29,31,16,21,30,,,1.8,0.9,1.6*30
$GPRMC,105755.000,A,5034.3450,N,00227.4263,W,0.95,196.41,161011,,,A*7A
$GPGGA,105756.000,5034.3445,N,00227.4266,W,1,10,0.9,3.83,M,48.8,M,,0000*7F
$GPGSA,M,3,06,25,23,13,05,29,31,16,21,30,,,1.8,0.9,1.6*30
$GPGSV,3,1,11,30,68,128,39,21,49,154,34,29,49,065,35,31,47,209,38*7C
$GPGSV,3,2,11,16,28,296,45,06,24,251,43,25,18,117,40,05,13,048,28*74
$GPGSV,3,3,11,23,11,303,42,13,10,329,45,03,08,255,46*4F
$GPRMC,105756.000,A,5034.3445,N,00227.4266,W,2.26,207.10,161011,,,A*7D
$GPGGA,105757.000,5034.3439,N,00227.4271,W,1,10,0.9,3.79,M,48.8,M,,0000*76
$GPGSA,M,3,06,25,23,13,05,29,31,16,21,30,,,1.8,0.9,1.6*30
$GPRMC,105757.000,A,5034.3439,N,00227.4271,W,2.19,205.68,161011,,,A*70
$GPGGA,105758.000,5034.3434,N,00227.4275,W,1,10,0.9,3.84,M,48.8,M,,0000*72
$GPGSA,M,3,06,25,23,13,05,29,31,16,21,30,,,1.8,0.9,1.6*30
$GPRMC,105758.000,A,5034.3434,N,00227.4275,W,2.24,207.02,161011,,,A*76
$GPGGA,105759.000,5034.3429,N,00227.4280,W,1,10,0.9,3.79,M,48.8,M,,0000*77
$GPGSA,M,3,06,25,23,13,05,29,31,16,21,30,,,1.8,0.9,1.6*30
$GPRMC,105759.000,A,5034.3429,N,00227.4280,W,1.80,213.77,161011,,,A*7B
$GPGGA,105800.000,5034.3425,N,00227.4285,W,1,10,0.9,3.67,M,48.8,M,,0000*72
$GPGSA,M,3,06,25,23,13,05,29,31,16,21,30,,,1.8,0.9,1.6*30
$GPRMC,105800.000,A,5034.3425,N,00227.4285,W,1.85,216.24,161011,,,A*77
$GPGGA,105801.000,5034.3419,N,00227.4291,W,1,10,0.9,3.53,M,48.8,M,,0000*7E
$GPGSA,M,3,06,25,23,13,05,29,31,16,21,30,,,1.8,0.9,1.6*30
$GPGSV,3,1,11,30,68,128,39,21,49,154,36,29,49,065,30,31,47,209,33*70
$GPGSV,3,2,11,16,28,296,46,06,24,251,42,25,18,117,40,05,13,048,30*7F
$GPGSV,3,3,11,23,11,303,42,13,10,329,45,03,08,255,46*4F
$GPRMC,105801.000,A,5034.3419,N,00227.4291,W,2.52,207.36,161011,,,A*76
$GPGGA,105802.000,5034.3412,N,00227.4296,W,1,10,0.9,3.44,M,48.8,M,,0000*77
$GPGSA,M,3,06,25,23,13,05,29,31,16,21,30,,,1.8,0.9,1.6*30
$GPRMC,105802.000,A,5034.3412,N,00227.4296,W,3.10,199.40,161011,,,A*7B
$GPGGA,105803.000,5034.3403,N,00227.4300,W,1,10,0.9,3.38,M,48.8,M,,0000*73
$GPGSA,M,3,06,25,23,13,05,29,31,16,21,30,,,1.8,0.9,1.6*30
$GPRMC,105803.000,A,5034.3403,N,00227.4300,W,3.31,194.70,161011,,,A*79
$GPGGA,105804.000,5034.3395,N,00227.4304,W,1,10,0.9,3.42,M,48.8,M,,0000*75
$GPGSA,M,3,06,25,23,13,05,29,31,16,21,30,,,1.8,0.9,1.6*30
$GPRMC,105804.000,A,5034.3395,N,00227.4304,W,3.31,195.13,161011,,,A*76
$GPGGA,105805.000,5034.3386,N,00227.4309,W,1,10,0.9,3.51,M,48.8,M,,0000*79
$GPGSA,M,3,06,25,23,13,05,29,31,16,21,30,,,1.8,0.9,1.6*30
$GPRMC,105805.000,A,5034.3386,N,00227.4309,W,3.38,198.16,161011,,,A*79
$GPGGA,105806.000,5034.3377,N,00227.4314,W,1,10,0.9,3.60,M,48.8,M,,0000*7A
$GPGSA,M,3,06,25,23,13,05,29,31,16,21,30,,,1.8,0.9,1.6*30
$GPGSV,3,1,11,30,68,128,44,21,49,154,36,29,49,065,33,31,47,209,40*7D
$GPGSV,3,2,11,16,28,296,43,06,24,251,43,25,18,117,34,05,13,048,31*79
$GPGSV,3,3,11,23,11,303,42,13,10,329,41,03,08,255,47*4A
$GPRMC,105806.000,A,5034.3377,N,00227.4314,W,3.86,197.29,161011,,,A*7E
$GPGGA,105807.000,5034.3366,N,00227.4319,W,1,10,0.9,3.56,M,48.8,M,,0000*73
$GPGSA,M,3,06,25,23,13,05,29,31,16,21,30,,,1.8,0.9,1.6*30
$GPRMC,105807.000,A,5034.3366,N,00227.4319,W,4.14,197.09,161011,,,A*7C
$GPGGA,105808.000,5034.3355,N,00227.4328,W,1,10,0.9,3.54,M,48.8,M,,0000*7C
$GPGSA,M,3,06,25,23,13,05,29,31,16,21,30,,,1.8,0.9,1.6*30
$GPRMC,105808.000,A,5034.3355,N,00227.4328,W,4.53,213.92,161011,,,A*7F
$GPGGA,105809.000,5034.3346,N,00227.4340,W,1,10,0.9,3.47,M,48.8,M,,0000*73
$GPGSA,M,3,06,25,23,13,05,29,31,16,21,30,,,1.8,0.9,1.6*30
$GPRMC,105809.000,A,5034.3346,N,00227.4340,W,4.06,220.08,161011,,,A*71
$GPGGA,105810.000,5034.3337,N,00227.4350,W,1,10,0.9,3.47,M,48.8,M,,0000*7C
$GPGSA,M,3,06,25,23,13,05,29,31,16,21,30,,,1.8,0.9,1.6*30
$GPRMC,105810.000,A,5034.3337,N,00227.4350,W,3.86,212.05,161011,,,A*7D
$GPGGA,105811.000,5034.3326,N,00227.4360,W,1,10,0.9,3.57,M,48.8,M,,0000*7F
$GPGSA,M,3,06,25,23,13,05,29,31,16,21,30,,,1.8,0.9,1.6*30
$GPGSV,3,1,11,30,68,128,36,21,49,154,36,29,49,065,32,31,47,209,40*79
$GPGSV,3,2,11,16,28,296,43,06,24,251,44,25,18,117,44,05,13,048,32*7A
$GPGSV,3,3,11,23,11,303,46,13,10,329,44,03,08,255,45*49
$GPRMC,105811.000,A,5034.3326,N,00227.4360,W,4.61,202.27,161011,,,A*70
$GPGGA,105812.000,5034.3314,N,00227.4370,W,1,10,0.9,3.70,M,48.8,M,,0000*79
$GPGSA,M,3,06,25,23,13,05,29,31,16,21,30,,,1.8,0.9,1.6*30
$GPRMC,105812.000,A,5034.3314,N,00227.4370,W,5.16,212.71,161011,,,A*70
$GPGGA,105813.000,5034.3303,N,00227.4383,W,1,10,0.9,3.89,M,48.8,M,,0000*74
$GPGSA,M,3,06,25,23,13,05,29,31,16,21,30,,,1.8,0.9,1.6*30
$GPRMC,105813.000,A,5034.3303,N,00227.4383,W,4.64,217.48,161011,,,A*70
$GPGGA,105814.000,5034.3293,N,00227.4396,W,1,10,0.9,3.75,M,48.8,M,,0000*7C
$GPGSA,M,3,06,25,23,13,05,29,31,16,21,30,,,1.8,0.9,1.6*30
$GPRMC,105814.000,A,5034.3293,N,00227.4396,W,4.36,218.68,161011,,,A*71
$GPGGA,105815.000,5034.3281,N,00227.4406,W,1,10,0.9,3.74,M,48.8,M,,0000*71
$GPGSA,M,3,06,25,23,13,05,29,31,16,21,30,,,1.8,0.9,1.6*30
$GPRMC,105815.000,A,5034.3281,N,00227.4406,W,5.20,198.71,161011,,,A*78
$GPGGA,105816.000,5034.3266,N,00227.4414,W,1,10,0.9,3.55,M,48.8,M,,0000*7B
$GPGSA,M,3,06,25,23,13,05,29,31,16,21,30,,,1.8,0.9,1.6*30
$GPGSV,3,1,11,30,68,128,35,21,49,154,36,29,49,065,34,31,47,209,38*73
$GPGSV,3,2,11,16,28,296,43,06,24,251,43,25,18,117,32,05,13,048,32*7C
$GPGSV,3,3,11,23,11,303,47,13,10,329,43,03,08,255,40*4A
$GPRMC,105816.000,A,5034.3266,N,00227.4414,W,5.65,196.45,161011,,,A*79
$GPGGA,105817.000,5034.3251,N,00227.4423,W,1,10,0.9,3.42,M,48.8,M,,0000*7C
$GPGSA,M,3,06,25,23,13,05,29,31,16,21,30,,,1.8,0.9,1.6*30
$GPRMC,105817.000,A,5034.3251,N,00227.4423,W,5.16,205.00,161011,,,A*74
$GPGGA,105818.000,5034.3240,N,00227.4435,W,1,10,0.9,3.41,M,48.8,M,,0000*77
$GPGSA,M,3,06,25,23,13,05,29,31,16,21,30,,,1.8,0.9,1.6*30
$GPRMC,105818.000,A,5034.3240,N,00227.4435,W,4.37,217.62,161011,,,A*79
$GPGGA,105819.000,5034.3230,N,00227.4446,W,1,10,0.9,3.40,M,48.8,M,,0000*74
$GPGSA,M,3,06,25,23,13,05,29,31,16,21,30,,,1.8,0.9,1.6*30
