$GPGGA,131059.000,5034.2790,N,00227.3714,W,1,08,1.2,10.00,M,48.8,M,,0000*47
$GPGSA,M,3,07,16,06,18,19,21,03,22,,,,,1.9,1.2,1.5*36
$GPRMC,131059.000,A,5034.2790,N,00227.3714,W,0.05,107.89,161011,,,A*7F
$GPGGA,131100.000,5034.2790,N,00227.3713,W,1,08,1.2,10.00,M,48.8,M,,0000*4D
$GPGSA,M,3,07,16,06,18,19,21,03,22,,,,,1.9,1.2,1.5*36
$GPRMC,131100.000,A,5034.2790,N,00227.3713,W,0.06,45.04,161011,,,A*44
$GPGGA,131101.000,5034.2790,N,00227.3713,W,1,08,1.2,9.97,M,48.8,M,,0000*7A
$GPGSA,M,3,07,16,06,18,19,21,03,22,,,,,1.9,1.2,1.5*36
$GPGSV,3,1,11,06,79,296,44,16,74,226,42,03,63,286,42,21,47,063,39*79
$GPGSV,3,2,11,18,36,102,41,19,30,275,34,22,23,147,37,07,18,318,32*7C
$GPGSV,3,3,11,30,08,151,28,08,03,341,,26,01,026,20*43
$GPRMC,131101.000,A,5034.2790,N,00227.3713,W,0.03,103.17,161011,,,A*71
$GPGGA,131102.000,5034.2790,N,00227.3713,W,1,08,1.2,9.96,M,48.8,M,,0000*78
$GPGSA,M,3,07,16,06,18,19,21,03,22,,,,,1.9,1.2,1.5*36
$GPRMC,131102.000,A,5034.2790,N,00227.3713,W,0.04,66.47,161011,,,A*42
$GPGGA,131103.000,5034.2791,N,00227.3713,W,1,08,1.2,9.95,M,48.8,M,,0000*7B
$GPGSA,M,3,07,16,06,18,19,21,03,22,,,,,1.9,1.2,1.5*36
$GPRMC,131103.000,A,5034.2791,N,00227.3713,W,0.04,56.55,161011,,,A*42
$GPGGA,131104.000,5034.2791,N,00227.3713,W,1,08,1.2,9.92,M,48.8,M,,0000*7B
$GPGSA,M,3,07,16,06,18,19,21,03,22,,,,,1.9,1.2,1.5*36
$GPRMC,131104.000,A,5034.2791,N,00227.3713,W,0.03,88.48,161011,,,A*4D
$GPGGA,131105.000,5034.2791,N,00227.3713,W,1,08,1.2,9.90,M,48.8,M,,0000*78
$GPGSA,M,3,07,16,06,18,19,21,03,22,,,,,1.9,1.2,1.5*36
$GPRMC,131105.000,A,5034.2791,N,00227.3713,W,0.03,71.78,161011,,,A*49
$GPGGA,131106.000,5034.2791,N,00227.3713,W,1,08,1.2,9.88,M,48.8,M,,0000*72
$GPGSA,M,3,07,16,06,18,19,21,03,22,,,,,1.9,1.2,1.5*36
$GPGSV,3,1,11,06,79,296,43,16,74,226,42,03,63,286,43,21,47,063,40*71
$GPGSV,3,2,11,18,36,102,42,19,30,275,34,22,23,147,38,07,18,318,33*71
$GPGSV,3,3,11,30,08,151,28,08,03,341,,26,01,026,19*49
$GPRMC,131106.000,A,5034.2791,N,00227.3713,W,0.06,36.82,161011,,,A*49
$GPGGA,131107.000,5034.2791,N,00227.3713,W,1,08,1.2,9.86,M,48.8,M,,0000*7D
$GPGSA,M,3,07,16,06,18,19,21,03,22,,,,,1.9,1.2,1.5*36
$GPRMC,131107.000,A,5034.2791,N,00227.3713,W,0.06,46.41,161011,,,A*40
$GPGGA,131108.000,5034.2791,N,00227.3713,W,1,08,1.2,9.85,M,48.8,M,,0000*71
$GPGSA,M,3,07,16,06,18,19,21,03,22,,,,,1.9,1.2,1.5*36
$GPRMC,131108.000,A,5034.2791,N,00227.3713,W,0.06,41.12,161011,,,A*4E
$GPGGA,131109.000,5034.2791,N,00227.3713,W,1,08,1.2,9.83,M,48.8,M,,0000*76
$GPGSA,M,3,07,16,06,18,19,21,03,22,,,,,1.9,1.2,1.5*36
$GPRMC,131109.000,A,5034.2791,N,00227.3713,W,0.06,55.75,161011,,,A*4B
$GPGGA,131110.000,5034.2791,N,00227.3713,W,1,08,1.2,9.82,M,48.8,M,,0000*7F
$GPGSA,M,3,07,16,06,18,19,21,03,22,,,,,1.9,1.2,1.5*36
$GPRMC,131110.000,A,5034.2791,N,00227.3713,W,0.08,36.19,161011,,,A*42
$GPGGA,131111.000,5034.2791,N,00227.3713,W,1,08,1.2,9.81,M,48.8,M,,0000*7D
$GPGSA,M,3,07,16,06,18,19,21,03,22,,,,,1.9,1.2,1.5*36
$GPGSV,3,1,11,06,79,296,43,16,74,226,42,03,63,286,43,21,47,063,41*70
$GPGSV,3,2,11,18,36,102,42,19,30,275,35,22,23,147,39,07,18,318,34*76
$GPGSV,3,3,11,30,08,151,27,08,03,341,,26,01,026,18*47
$GPRMC,131111.000,A,5034.2791,N,00227.3713,W,0.06,43.87,161011,,,A*48
$GPGGA,131112.000,5034.2791,N,00227.3713,W,1,08,1.2,9.80,M,48.8,M,,0000*7F
$GPGSA,M,3,07,16,06,18,19,21,03,22,,,,,1.9,1.2,1.5*36
$GPRMC,131112.000,A,5034.2791,N,00227.3713,W,0.07,42.82,161011,,,A*4E
$GPGGA,131113.000,5034.2791,N,00227.3713,W,1,08,1.2,9.80,M,48.8,M,,0000*7E
$GPGSA,M,3,07,16,06,18,19,21,03,22,,,,,1.9,1.2,1.5*36
$GPRMC,131113.000,A,5034.2791,N,00227.3713,W,0.06,39.49,161011,,,A*45
$GPGGA,131114.000,5034.2791,N,00227.3713,W,1,08,1.2,9.79,M,48.8,M,,0000*7F
$GPGSA,M,3,07,16,06,18,19,21,03,22,,,,,1.9,1.2,1.5*36
$GPRMC,131114.000,A,5034.2791,N,00227.3713,W,0.06,50.43,161011,,,A*47
$GPGGA,131115.000,5034.2791,N,00227.3713,W,1,08,1.2,9.77,M,48.8,M,,0000*70
$GPGSA,M,3,07,16,06,18,19,21,03,22,,,,,1.9,1.2,1.5*36
$GPRMC,131115.000,A,5034.2791,N,00227.3713,W,0.07,51.26,161011,,,A*45
$GPGGA,131116.000,5034.2791,N,00227.3713,W,1,08,1.2,9.77,M,48.8,M,,0000*73
$GPGSA,M,3,07,16,06,18,19,21,03,22,,,,,1.9,1.2,1.5*36
$GPGSV,3,1,11,06,79,296,43,16,74,226,42,03,63,286,43,21,47,063,41*70
$GPGSV,3,2,11,18,36,102,42,19,30,275,35,22,23,147,39,07,18,318,34*76
$GPGSV,3,3,11,30,08,151,27,08,03,341,16,26,01,026,17*4F
$GPRMC,131116.000,A,5034.2791,N,00227.3713,W,0.05,48.98,161011,,,A*49
$GPGGA,131117.000,5034.2792,N,00227.3713,W,1,08,1.2,9.75,M,48.8,M,,0000*73
$GPGSA,M,3,07,16,06,18,19,21,03,22,,,,,1.9,1.2,1.5*36
$GPRMC,131117.000,A,5034.2792,N,00227.3713,W,0.06,43.40,161011,,,A*46
$GPGGA,131118.000,5034.2792,N,00227.3713,W,1,08,1.2,9.74,M,48.8,M,,0000*7D
$GPGSA,M,3,07,16,06,18,19,21,03,22,,,,,1.9,1.2,1.5*36
$GPRMC,131118.000,A,5034.2792,N,00227.3713,W,0.07,51.45,161011,,,A*4E
$GPGGA,131119.000,5034.2792,N,00227.3712,W,1,08,1.2,9.73,M,48.8,M,,0000*7A
$GPGSA,M,3,07,16,06,18,19,21,03,22,,,,,1.9,1.2,1.5*36
$GPRMC,131119.000,A,5034.2792,N,00227.3712,W,0.07,40.70,161011,,,A*48
$GPGGA,131120.000,5034.2792,N,00227.3712,W,1,08,1.2,9.72,M,48.8,M,,0000*71
$GPGSA,M,3,07,16,06,18,19,21,03,22,,,,,1.9,1.2,1.5*36
$GPRMC,131120.000,A,5034.2792,N,00227.3712,W,0.05,43.66,161011,,,A*44
$GPGGA,131121.000,5034.2792,N,00227.3712,W,1,08,1.2,9.71,M,48.8,M,,0000*73
$GPGSA,M,3,07,16,06,18,19,21,03,22,,,,,1.9,1.2,1.5*36
$GPGSV,3,1,11,06,79,296,43,16,74,226,42,03,63,286,43,21,47,063,41*70
$GPGSV,3,2,11,18,36,102,42,19,30,275,35,22,23,147,39,07,18,318,35*77
$GPGSV,3,3,11,30,08,151,27,08,03,341,16,26,01,026,16*4E
$GPRMC,131121.000,A,5034.2792,N,00227.3712,W,0.07,40.60,161011,,,A*42
$GPGGA,131122.000,5034.2792,N,00227.3712,W,1,08,1.2,9.70,M,48.8,M,,0000*71
$GPGSA,M,3,07,16,06,18,19,21,03,22,,,,,1.9,1.2,1.5*36
$GPRMC,131122.000,A,5034.2792,N,00227.3712,W,0.06,51.27,161011,,,A*43
$GPGGA,131123.000,5034.2792,N,00227.3712,W,1,08,1.2,9.70,M,48.8,M,,0000*70
$GPGSA,M,3,07,16,06,18,19,21,03,22,,,,,1.9,1.2,1.5*36
$GPRMC,131123.000,A,5034.2792,N,00227.3712,W,0.07,42.05,161011,,,A*41
$GPGGA,131124.000,5034.2792,N,00227.3712,W,1,08,1.2,9.70,M,48.8,M,,0000*77
$GPGSA,M,3,07,16,06,18,19,21,03,22,,,,,1.9,1.2,1.5*36
$GPRMC,131124.000,A,5034.2792,N,00227.3712,W,0.06,48.46,161011,,,A*4A
$GPGGA,131125.000,5034.2792,N,00227.3712,W,1,08,1.2,9.69,M,48.8,M,,0000*7E
$GPGSA,M,3,07,16,06,18,19,21,03,22,,,,,1.9,1.2,1.5*36
$GPRMC,131125.000,A,5034.2792,N,00227.3712,W,0.08,47.35,161011,,,A*4E
$GPGGA,131126.000,5034.2793,N,00227.3712,W,1,08,1.2,9.68,M,48.8,M,,0000*7D
$GPGSA,M,3,07,16,06,18,19,21,03,22,,,,,1.9,1.2,1.5*36
$GPGSV,3,1,11,06,79,296,43,16,74,226,42,03,63,286,44,21,47,063,41*77
$GPGSV,3,2,11,18,36,102,42,19,30,275,35,22,23,147,39,07,18,318,35*77
$GPGSV,3,3,11,30,08,151,26,08,03,341,16,26,01,026,14*4D
$GPRMC,131126.000,A,5034.2793,N,00227.3712,W,0.07,41.31,161011,,,A*41
$GPGGA,131127.000,5034.2793,N,00227.3712,W,1,08,1.2,9.66,M,48.8,M,,0000*72
$GPGSA,M,3,07,16,06,18,19,21,03,22,,,,,1.9,1.2,1.5*36
$GPRMC,131127.000,A,5034.2793,N,00227.3712,W,0.07,39.87,161011,,,A*42
$GPGGA,131128.000,5034.2793,N,00227.3712,W,1,08,1.2,9.65,M,48.8,M,,0000*7E
$GPGSA,M,3,07,16,06,18,19,21,03,22,,,,,1.9,1.2,1.5*36
$GPRMC,131128.000,A,5034.2793,N,00227.3712,W,0.07,42.23,161011,,,A*4F
$GPGGA,131129.000,5034.2793,N,00227.3712,W,1,08,1.2,9.64,M,48.8,M,,0000*7E
$GPGSA,M,3,07,16,06,18,19,21,03,22,,,,,1.9,1.2,1.5*36
$GPRMC,131129.000,A,5034.2793,N,00227.3712,W,0.07,34.20,161011,,,A*4C
$GPGGA,131130.000,5034.2793,N,00227.3712,W,1,08,1.2,9.63,M,48.8,M,,0000*71
$GPGSA,M,3,07,16,06,18,19,21,03,22,,,,,1.9,1.2,1.5*36
$GPRMC,131130.000,A,5034.2793,N,00227.3712,W,0.07,38.89,161011,,,A*4B
$GPGGA,131131.000,5034.2793,N,00227.3712,W,1,08,1.2,9.62,M,48.8,M,,0000*71
$GPGSA,M,3,07,16,06,18,19,21,03,22,,,,,1.9,1.2,1.5*36
$GPGSV,3,1,11,06,79,296,43,16,74,226,42,03,63,286,44,21,47,063,41*77
$GPGSV,3,2,11,18,36,102,42,19,30,275,35,22,23,147,39,07,18,318,35*77
$GPGSV,3,3,11,30,08,151,25,08,03,341,17,26,01,026,14*4F
$GPRMC,131131.000,A,5034.2793,N,00227.3712,W,0.08,33.57,161011,,,A*4D
$GPGGA,131132.000,5034.2793,N,00227.3712,W,1,08,1.2,9.62,M,48.8,M,,0000*72
$GPGSA,M,3,07,16,06,18,19,21,03,22,,,,,1.9,1.2,1.5*36
$GPRMC,131132.000,A,5034.2793,N,00227.3712,W,0.06,42.58,161011,,,A*49
$GPGGA,131133.000,5034.2793,N,00227.3712,W,1,08,1.2,9.61,M,48.8,M,,0000*70
$GPGSA,M,3,07,16,06,18,19,21,03,22,,,,,1.9,1.2,1.5*36
$GPRMC,131133.000,A,5034.2793,N,00227.3712,W,0.07,37.33,161011,,,A*46
$GPGGA,131134.000,5034.2794,N,00227.3712,W,1,08,1.2,9.60,M,48.8,M,,0000*71
$GPGSA,M,3,07,16,06,18,19,21,03,22,,,,,1.9,1.2,1.5*36
$GPRMC,131134.000,A,5034.2794,N,00227.3712,W,0.08,39.78,161011,,,A*48
$GPGGA,131135.000,5034.2794,N,00227.3712,W,1,08,1.2,9.59,M,48.8,M,,0000*7A
$GPGSA,M,3,07,16,06,18,19,21,03,22,,,,,1.9,1.2,1.5*36
$GPRMC,131135.000,A,5034.2794,N,00227.3712,W,0.07,31.48,161011,,,A*4D
$GPGGA,131136.000,5034.2794,N,00227.3712,W,1,08,1.2,9.59,M,48.8,M,,0000*79
$GPGSA,M,3,07,16,06,18,19,21,03,22,,,,,1.9,1.2,1.5*36
$GPGSV,3,1,11,06,79,296,43,16,74,226,42,03,63,286,44,21,47,063,41*77
$GPGSV,3,2,11,18,36,102,42,19,30,275,35,22,23,147,39,07,18,318,36*74
$GPGSV,3,3,11,30,08,151,25,08,03,341,18,26,01,026,13*47
$GPRMC,131136.000,A,5034.2794,N,00227.3712,W,0.06,49.54,161011,,,A*4D
$GPGGA,131137.000,5034.2794,N,00227.3712,W,1,08,1.2,9.58,M,48.8,M,,0000*79
$GPGSA,M,3,07,16,06,18,19,21,03,22,,,,,1.9,1.2,1.5*36
$GPRMC,131137.000,A,5034.2794,N,00227.3712,W,0.06,33.03,161011,,,A*43
$GPGGA,131138.000,5034.2794,N,00227.3712,W,1,08,1.2,9.57,M,48.8,M,,0000*79
$GPGSA,M,3,07,16,06,18,19,21,03,22,,,,,1.9,1.2,1.5*36
$GPRMC,131138.000,A,5034.2794,N,00227.3712,W,0.06,46.68,161011,,,A*43
$GPGGA,131139.000,5034.2794,N,00227.3712,W,1,08,1.2,9.57,M,48.8,M,,0000*78
$GPGSA,M,3,07,16,06,18,19,21,03,22,,,,,1.9,1.2,1.5*36
$GPRMC,131139.000,A,5034.2794,N,00227.3712,W,0.07,32.14,161011,,,A*4B
$GPGGA,131140.000,5034.2794,N,00227.3712,W,1,08,1.2,9.57,M,48.8,M,,0000*76
$GPGSA,M,3,07,16,06,18,19,21,03,22,,,,,1.9,1.2,1.5*36
$GPRMC,131140.000,A,5034.2794,N,00227.3712,W,0.04,41.54,161011,,,A*46
$GPGGA,131141.000,5034.2794,N,00227.3712,W,1,08,1.2,9.57,M,48.8,M,,0000*77
$GPGSA,M,3,07,16,06,18,19,21,03,22,,,,,1.9,1.2,1.5*36
$GPGSV,3,1,11,06,80,298,43,16,74,222,42,03,64,286,44,21,46,062,41*7C
$GPGSV,3,2,11,18,37,101,42,19,31,275,35,22,24,147,39,07,18,317,36*7F
$GPGSV,3,3,11,30,07,151,24,08,04,341,19,26,02,025,*4D
$GPRMC,131141.000,A,5034.2794,N,00227.3712,W,0.05,46.40,161011,,,A*44
$GPGGA,131142.000,5034.2794,N,00227.3712,W,1,08,1.2,9.58,M,48.8,M,,0000*7B
$GPGSA,M,3,07,16,06,18,19,21,03,22,,,,,1.9,1.2,1.5*36
$GPRMC,131142.000,A,5034.2794,N,00227.3712,W,0.06,46.71,161011,,,A*46
$GPGGA,131143.000,5034.2794,N,00227.3712,W,1,08,1.2,9.58,M,48.8,M,,0000*7A
$GPGSA,M,3,07,16,06,18,19,21,03,22,,,,,1.9,1.2,1.5*36
$GPRMC,131143.000,A,5034.2794,N,00227.3712,W,0.06,41.66,161011,,,A*46
$GPGGA,131144.000,5034.2794,N,00227.3711,W,1,08,1.2,9.59,M,48.8,M,,0000*7F
$GPGSA,M,3,07,16,06,18,19,21,03,22,,,,,1.9,1.2,1.5*36
$GPRMC,131144.000,A,5034.2794,N,00227.3711,W,0.06,38.77,161011,,,A*4C
$GPGGA,131145.000,5034.2794,N,00227.3711,W,1,08,1.2,9.58,M,48.8,M,,0000*7F
$GPGSA,M,3,07,16,06,18,19,21,03,22,,,,,1.9,1.2,1.5*36
$GPRMC,131145.000,A,5034.2794,N,00227.3711,W,0.06,34.18,161011,,,A*48
$GPGGA,131146.000,5034.2794,N,00227.3711,W,1,08,1.2,9.58,M,48.8,M,,0000*7C
$GPGSA,M,3,07,16,06,18,19,21,03,22,,,,,1.9,1.2,1.5*36
$GPGSV,3,1,11,06,80,298,43,16,74,222,42,03,64,286,44,21,46,062,41*7C
$GPGSV,3,2,11,18,37,101,42,19,31,275,35,22,24,147,39,07,18,317,36*7F
$GPGSV,3,3,11,30,07,151,24,08,04,341,19,26,02,025,*4D
$GPRMC,131146.000,A,5034.2794,N,00227.3711,W,0.05,52.28,161011,,,A*4B
$GPGGA,131147.000,5034.2794,N,00227.3711,W,1,08,1.2,9.58,M,48.8,M,,0000*7D
$GPGSA,M,3,07,16,06,18,19,21,03,22,,,,,1.9,1.2,1.5*36
$GPRMC,131147.000,A,5034.2794,N,00227.3711,W,0.07,34.29,161011,,,A*49
$GPGGA,131148.000,5034.2794,N,00227.3711,W,1,08,1.2,9.59,M,48.8,M,,0000*73
$GPGSA,M,3,07,16,06,18,19,21,03,22,,,,,1.9,1.2,1.5*36
$GPRMC,131148.000,A,5034.2794,N,00227.3711,W,0.07,35.03,161011,,,A*4F
$GPGGA,131149.000,5034.2794,N,00227.3711,W,1,08,1.2,9.59,M,48.8,M,,0000*72
$GPGSA,M,3,07,16,06,18,19,21,03,22,,,,,1.9,1.2,1.5*36
$GPRMC,131149.000,A,5034.2794,N,00227.3711,W,0.06,37.42,161011,,,A*48
$GPGGA,131150.000,5034.2794,N,00227.3711,W,1,08,1.2,9.60,M,48.8,M,,0000*70
$GPGSA,M,3,07,16,06,18,19,21,03,22,,,,,1.9,1.2,1.5*36
$GPRMC,131150.000,A,5034.2794,N,00227.3711,W,0.05,47.00,161011,,,A*42
$GPGGA,131151.000,5034.2794,N,00227.3711,W,1,08,1.2,9.60,M,48.8,M,,0000*71
$GPGSA,M,3,07,16,06,18,19,21,03,22,,,,,1.9,1.2,1.5*36
$GPGSV,3,1,11,06,80,298,43,16,74,222,42,03,64,286,44,21,46,062,41*7C
$GPGSV,3,2,11,18,37,101,42,19,31,275,35,22,24,147,39,07,18,317,37*7E
$GPGSV,3,3,11,30,07,151,23,08,04,341,19,26,02,025,*4A
$GPRMC,131151.000,A,5034.2794,N,00227.3711,W,0.06,37.25,161011,,,A*40
$GPGGA,131152.000,5034.2794,N,00227.3711,W,1,08,1.2,9.59,M,48.8,M,,0000*78
$GPGSA,M,3,07,16,06,18,19,21,03,22,,,,,1.9,1.2,1.5*36
$GPRMC,131152.000,A,5034.2794,N,00227.3711,W,0.06,45.12,161011,,,A*42
$GPGGA,131153.000,5034.2794,N,00227.3711,W,1,08,1.2,9.58,M,48.8,M,,0000*78
$GPGSA,M,3,07,16,06,18,19,21,03,22,,,,,1.9,1.2,1.5*36
$GPRMC,131153.000,A,5034.2794,N,00227.3711,W,0.07,31.37,161011,,,A*46
$GPGGA,131154.000,5034.2794,N,00227.3711,W,1,08,1.2,9.58,M,48.8,M,,0000*7F
$GPGSA,M,3,07,16,06,18,19,21,03,22,,,,,1.9,1.2,1.5*36
$GPRMC,131154.000,A,5034.2794,N,00227.3711,W,0.06,43.58,161011,,,A*4C
$GPGGA,131155.000,5034.2794,N,00227.3711,W,1,08,1.2,9.57,M,48.8,M,,0000*71
$GPGSA,M,3,07,16,06,18,19,21,03,22,,,,,1.9,1.2,1.5*36
$GPRMC,131155.000,A,5034.2794,N,00227.3711,W,0.06,38.50,161011,,,A*49
$GPGGA,131156.000,5034.2794,N,00227.3711,W,1,08,1.2,9.57,M,48.8,M,,0000*72
$GPGSA,M,3,07,16,06,18,19,21,03,22,,,,,1.9,1.2,1.5*36
$GPGSV,3,1,11,06,80,298,43,16,74,222,42,03,64,286,44,21,46,062,42*7F
$GPGSV,3,2,11,18,37,101,42,19,31,275,35,22,24,147,39,07,18,317,37*7E
$GPGSV,3,3,11,30,07,151,23,08,04,341,20,26,02,025,*40
$GPRMC,131156.000,A,5034.2794,N,00227.3711,W,0.06,32.36,161011,,,A*40
$GPGGA,131157.000,5034.2794,N,00227.3711,W,1,08,1.2,9.57,M,48.8,M,,0000*73
$GPGSA,M,3,07,16,06,18,19,21,03,22,,,,,1.9,1.2,1.5*36
$GPRMC,131157.000,A,5034.2794,N,00227.3711,W,0.05,51.58,161011,,,A*4F
$GPGGA,131158.000,5034.2794,N,00227.3711,W,1,08,1.2,9.57,M,48.8,M,,0000*7C
$GPGSA,M,3,07,16,06,18,19,21,03,22,,,,,1.9,1.2,1.5*36
$GPRMC,131158.000,A,5034.2794,N,00227.3711,W,0.07,36.11,161011,,,A*4E
$GPGGA,131159.000,5034.2794,N,00227.3711,W,1,08,1.2,9.58,M,48.8,M,,0000*72
$GPGSA,M,3,07,16,06,18,19,21,03,22,,,,,1.9,1.2,1.5*36
$GPRMC,131159.000,A,5034.2794,N,00227.3711,W,0.06,31.09,161011,,,A*40
$GPGGA,131200.000,5034.2794,N,00227.3711,W,1,08,1.2,9.58,M,48.8,M,,0000*7D
$GPGSA,M,3,07,16,06,18,19,21,03,22,,,,,1.9,1.2,1.5*36
$GPRMC,131200.000,A,5034.2794,N,00227.3711,W,0.06,35.79,161011,,,A*4C
$GPGGA,131201.000,5034.2794,N,00227.3711,W,1,08,1.2,9.60,M,48.8,M,,0000*77
$GPGSA,M,3,07,16,06,18,19,21,03,22,,,,,1.9,1.2,1.5*36
$GPGSV,3,1,11,06,80,298,43,16,74,222,42,03,64,286,43,21,46,062,42*78
$GPGSV,3,2,11,18,37,101,42,19,31,275,35,22,24,147,39,07,18,317,37*7E
$GPGSV,3,3,11,30,07,151,22,08,04,341,20,26,02,025,*41
$GPRMC,131201.000,A,5034.2794,N,00227.3711,W,0.08,39.19,161011,,,A*49
$GPGGA,131202.000,5034.2794,N,00227.3711,W,1,08,1.2,9.60,M,48.8,M,,0000*74
$GPGSA,M,3,07,16,06,18,19,21,03,22,,,,,1.9,1.2,1.5*36
$GPRMC,131202.000,A,5034.2794,N,00227.3711,W,0.05,34.20,161011,,,A*40
$GPGGA,131203.000,5034.2794,N,00227.3711,W,1,08,1.2,9.60,M,48.8,M,,0000*75
$GPGSA,M,3,07,16,06,18,19,21,03,22,,,,,1.9,1.2,1.5*36
$GPRMC,131203.000,A,5034.2794,N,00227.3711,W,0.07,38.82,161011,,,A*47
$GPGGA,131204.000,5034.2794,N,00227.3711,W,1,08,1.2,9.60,M,48.8,M,,0000*72
$GPGSA,M,3,07,16,06,18,19,21,03,22,,,,,1.9,1.2,1.5*36
$GPRMC,131204.000,A,5034.2794,N,00227.3711,W,0.07,37.75,161011,,,A*47
$GPGGA,131205.000,5034.2794,N,00227.3711,W,1,08,1.2,9.61,M,48.8,M,,0000*72
$GPGSA,M,3,07,16,06,18,19,21,03,22,,,,,1.9,1.2,1.5*36
$GPRMC,131205.000,A,5034.2794,N,00227.3711,W,0.05,33.91,161011,,,A*4A
$GPGGA,131206.000,5034.2794,N,00227.3711,W,1,08,1.2,9.61,M,48.8,M,,0000*71
$GPGSA,M,3,07,16,06,18,19,21,03,22,,,,,1.9,1.2,1.5*36
$GPGSV,3,1,11,06,80,298,43,16,74,222,42,03,64,286,43,21,46,062,42*78
$GPGSV,3,2,11,18,37,101,42,19,31,275,35,22,24,147,39,07,18,317,37*7E
$GPGSV,3,3,11,30,07,151,21,08,04,341,20,26,02,025,*42
$GPRMC,131206.000,A,5034.2794,N,00227.3711,W,0.08,37.66,161011,,,A*48
$GPGGA,131207.000,5034.2794,N,00227.3711,W,1,08,1.2,9.61,M,48.8,M,,0000*70
$GPGSA,M,3,07,16,06,18,19,21,03,22,,,,,1.9,1.2,1.5*36
$GPRMC,131207.000,A,5034.2794,N,00227.3711,W,0.06,43.55,161011,,,A*44
$GPGGA,131208.000,5034.2794,N,00227.3711,W,1,08,1.2,9.61,M,48.8,M,,0000*7F
$GPGSA,M,3,07,16,06,18,19,21,03,22,,,,,1.9,1.2,1.5*36
$GPRMC,131208.000,A,5034.2794,N,00227.3711,W,0.06,34.77,161011,,,A*4B
$GPGGA,131209.000,5034.2794,N,00227.3711,W,1,08,1.2,9.61,M,48.8,M,,0000*7E
$GPGSA,M,3,07,16,06,18,19,21,03,22,,,,,1.9,1.2,1.5*36
$GPRMC,131209.000,A,5034.2794,N,00227.3711,W,0.07,31.77,161011,,,A*4E
$GPGGA,131210.000,5034.2794,N,00227.3711,W,1,08,1.2,9.61,M,48.8,M,,0000*76
$GPGSA,M,3,07,16,06,18,19,21,03,22,,,,,1.9,1.2,1.5*36
$GPRMC,131210.000,A,5034.2794,N,00227.3711,W,0.06,48.66,161011,,,A*49
$GPGGA,131211.000,5034.2794,N,00227.3711,W,1,08,1.2,9.63,M,48.8,M,,0000*75
$GPGSA,M,3,07,16,06,18,19,21,03,22,,,,,1.9,1.2,1.5*36
$GPGSV,3,1,11,06,80,299,43,16,74,221,43,03,64,286,43,21,46,062,42*7B
$GPGSV,3,2,11,18,37,101,42,19,32,275,35,22,24,147,39,07,18,317,37*7D
$GPGSV,3,3,11,30,07,151,21,08,04,341,20,26,02,024,18*4A
$GPRMC,131211.000,A,5034.2794,N,00227.3711,W,0.07,36.65,161011,,,A*43
$GPGGA,131212.000,5034.2794,N,00227.3711,W,1,08,1.2,9.63,M,48.8,M,,0000*76
$GPGSA,M,3,07,16,06,18,19,21,03,22,,,,,1.9,1.2,1.5*36
$GPRMC,131212.000,A,5034.2794,N,00227.3711,W,0.07,30.00,161011,,,A*45
$GPGGA,131213.000,5034.2794,N,00227.3711,W,1,08,1.2,9.64,M,48.8,M,,0000*70
$GPGSA,M,3,07,16,06,18,19,21,03,22,,,,,1.9,1.2,1.5*36
$GPRMC,131213.000,A,5034.2794,N,00227.3711,W,0.07,39.07,161011,,,A*4A
$GPGGA,131214.000,5034.2794,N,00227.3711,W,1,08,1.2,9.65,M,48.8,M,,0000*76
$GPGSA,M,3,07,16,06,18,19,21,03,22,,,,,1.9,1.2,1.5*36
$GPRMC,131214.000,A,5034.2794,N,00227.3711,W,0.07,36.11,161011,,,A*45
$GPGGA,131215.000,5034.2794,N,00227.3711,W,1,08,1.2,9.67,M,48.8,M,,0000*75
$GPGSA,M,3,07,16,06,18,19,21,03,22,,,,,1.9,1.2,1.5*36
$GPRMC,131215.000,A,5034.2794,N,00227.3711,W,0.06,45.26,161011,,,A*45
$GPGGA,131216.000,5034.2794,N,00227.3711,W,1,08,1.2,9.68,M,48.8,M,,0000*79
$GPGSA,M,3,07,16,06,18,19,21,03,22,,,,,1.9,1.2,1.5*36
$GPGSV,3,1,11,06,80,299,43,16,74,221,42,03,64,286,43,21,46,062,42*7A
$GPGSV,3,2,11,18,37,101,42,19,32,275,35,22,24,147,39,07,18,317,37*7D
$GPGSV,3,3,11,30,07,151,21,08,04,341,20,26,02,024,23*42
$GPRMC,131216.000,A,5034.2794,N,00227.3711,W,0.08,28.59,161011,,,A*4B
$GPGGA,131217.000,5034.2794,N,00227.3710,W,1,08,1.2,9.68,M,48.8,M,,0000*79
$GPGSA,M,3,07,16,06,18,19,21,03,22,,,,,1.9,1.2,1.5*36
$GPRMC,131217.000,A,5034.2794,N,00227.3710,W,0.07,31.82,161011,,,A*4A
$GPGGA,131218.000,5034.2794,N,00227.3710,W,1,08,1.2,9.69,M,48.8,M,,0000*77
$GPGSA,M,3,07,16,06,18,19,21,03,22,,,,,1.9,1.2,1.5*36
$GPRMC,131218.000,A,5034.2794,N,00227.3710,W,0.06,39.21,161011,,,A*45
$GPGGA,131219.000,5034.2794,N,00227.3710,W,1,08,1.2,9.70,M,48.8,M,,0000*7E
$GPGSA,M,3,07,16,06,18,19,21,03,22,,,,,1.9,1.2,1.5*36
$GPRMC,131219.000,A,5034.2794,N,00227.3710,W,0.06,33.90,161011,,,A*44
$GPGGA,131220.000,5034.2794,N,00227.3710,W,1,08,1.2,9.72,M,48.8,M,,0000*76
$GPGSA,M,3,07,16,06,18,19,21,03,22,,,,,1.9,1.2,1.5*36
$GPRMC,131220.000,A,5034.2794,N,00227.3710,W,0.07,35.88,161011,,,A*40
$GPGGA,131221.000,5034.2794,N,00227.3710,W,1,08,1.2,9.74,M,48.8,M,,0000*71
$GPGSA,M,3,07,16,06,18,19,21,03,22,,,,,1.9,1.2,1.5*36
$GPGSV,3,1,11,06,80,299,43,16,74,221,42,03,64,286,43,21,46,062,42*7A
$GPGSV,3,2,11,18,37,101,42,19,32,275,35,22,24,147,39,07,18,317,38*72
$GPGSV,3,3,11,30,07,151,21,08,04,341,20,26,02,024,23*42
$GPRMC,131221.000,A,5034.2794,N,00227.3710,W,0.07,35.92,161011,,,A*4A
$GPGGA,131222.000,5034.2794,N,00227.3710,W,1,08,1.2,9.75,M,48.8,M,,0000*73
$GPGSA,M,3,07,16,06,18,19,21,03,22,,,,,1.9,1.2,1.5*36
$GPRMC,131222.000,A,5034.2794,N,00227.3710,W,0.07,36.23,161011,,,A*40
$GPGGA,131223.000,5034.2794,N,00227.3710,W,1,08,1.2,9.77,M,48.8,M,,0000*70
$GPGSA,M,3,07,16,06,18,19,21,03,22,,,,,1.9,1.2,1.5*36
$GPRMC,131223.000,A,5034.2794,N,00227.3710,W,0.06,41.16,161011,,,A*46
$GPGGA,131224.000,5034.2794,N,00227.3710,W,1,08,1.2,9.78,M,48.8,M,,0000*78
$GPGSA,M,3,07,16,06,18,19,21,03,22,,,,,1.9,1.2,1.5*36
$GPRMC,131224.000,A,5034.2794,N,00227.3710,W,0.07,28.80,161011,,,A*40
$GPGGA,131225.000,5034.2794,N,00227.3710,W,1,08,1.2,9.80,M,48.8,M,,0000*7E
$GPGSA,M,3,07,16,06,18,19,21,03,22,,,,,1.9,1.2,1.5*36
$GPRMC,131225.000,A,5034.2794,N,00227.3710,W,0.06,41.54,161011,,,A*46
$GPGGA,131226.000,5034.2794,N,00227.3710,W,1,08,1.2,9.81,M,48.8,M,,0000*7C
$GPGSA,M,3,07,16,06,18,19,21,03,22,,,,,1.9,1.2,1.5*36
$GPGSV,3,1,11,06,80,299,43,16,74,221,42,03,64,286,43,21,46,062,42*7A
$GPGSV,3,2,11,18,37,101,43,19,32,275,35,22,24,147,39,07,18,317,38*73
$GPGSV,3,3,11,30,07,151,21,08,04,341,20,26,02,024,24*45
$GPRMC,131226.000,A,5034.2794,N,00227.3710,W,0.08,31.18,161011,,,A*44
$GPGGA,131227.000,5034.2794,N,00227.3710,W,1,08,1.2,9.84,M,48.8,M,,0000*78
$GPGSA,M,3,07,16,06,18,19,21,03,22,,,,,1.9,1.2,1.5*36
$GPRMC,131227.000,A,5034.2794,N,00227.3710,W,0.05,45.32,161011,,,A*43
$GPGGA,131228.000,5034.2794,N,00227.3710,W,1,08,1.2,9.85,M,48.8,M,,0000*76
$GPGSA,M,3,07,16,06,18,19,21,03,22,,,,,1.9,1.2,1.5*36
$GPRMC,131228.000,A,5034.2794,N,00227.3710,W,0.08,29.94,161011,,,A*47
$GPGGA,131229.000,5034.2794,N,00227.3710,W,1,08,1.2,9.87,M,48.8,M,,0000*75
$GPGSA,M,3,07,16,06,18,19,21,03,22,,,,,1.9,1.2,1.5*36
$GPRMC,131229.000,A,5034.2794,N,00227.3710,W,0.06,43.81,161011,,,A*40
$GPGGA,131230.000,5034.2794,N,00227.3710,W,1,08,1.2,9.90,M,48.8,M,,0000*7B
$GPGSA,M,3,07,16,06,18,19,21,03,22,,,,,1.9,1.2,1.5*36
$GPRMC,131230.000,A,5034.2794,N,00227.3710,W,0.07,36.06,161011,,,A*44
$GPGGA,131231.000,5034.2794,N,00227.3710,W,1,08,1.2,9.92,M,48.8,M,,0000*78
$GPGSA,M,3,07,16,06,18,19,21,03,22,,,,,1.9,1.2,1.5*36
$GPGSV,3,1,11,06,80,299,43,16,74,221,42,03,64,286,43,21,46,062,42*7A
$GPGSV,3,2,11,18,37,101,43,19,32,275,34,22,24,147,39,07,18,317,38*72
$GPGSV,3,3,11,30,07,151,22,08,04,341,20,26,02,024,25*47
$GPRMC,131231.000,A,5034.2794,N,00227.3710,W,0.08,33.34,161011,,,A*4E
$GPGGA,131232.000,5034.2794,N,00227.3710,W,1,08,1.2,9.94,M,48.8,M,,0000*7D
$GPGSA,M,3,07,16,06,18,19,21,03,22,,,,,1.9,1.2,1.5*36
$GPRMC,131232.000,A,5034.2794,N,00227.3710,W,0.06,42.42,161011,,,A*44
$GPGGA,131233.000,5034.2794,N,00227.3710,W,1,08,1.2,9.97,M,48.8,M,,0000*7F
$GPGSA,M,3,07,16,06,18,19,21,03,22,,,,,1.9,1.2,1.5*36
$GPRMC,131233.000,A,5034.2794,N,00227.3710,W,0.08,36.07,161011,,,A*49
$GPGGA,131234.000,5034.2793,N,00227.3710,W,1,08,1.2,9.99,M,48.8,M,,0000*71
$GPGSA,M,3,07,16,06,18,19,21,03,22,,,,,1.9,1.2,1.5*36
$GPRMC,131234.000,A,5034.2793,N,00227.3710,W,0.06,42.49,161011,,,A*4E
$GPGGA,131235.000,5034.2793,N,00227.3710,W,1,08,1.2,10.00,M,48.8,M,,0000*48
$GPGSA,M,3,07,16,06,18,19,21,03,22,,,,,1.9,1.2,1.5*36
$GPRMC,131235.000,A,5034.2793,N,00227.3710,W,0.05,45.59,161011,,,A*4A
$GPGGA,131236.000,5034.2793,N,00227.3710,W,1,08,1.2,10.02,M,48.8,M,,0000*49
$GPGSA,M,3,07,16,06,18,19,21,03,22,,,,,1.9,1.2,1.5*36
$GPGSV,3,1,11,06,80,299,43,16,74,221,42,03,64,286,43,21,46,062,42*7A
$GPGSV,3,2,11,18,37,101,43,19,32,275,34,22,24,147,40,07,18,317,38*7C
$GPGSV,3,3,11,30,07,151,22,08,04,341,20,26,02,024,26*44
$GPRMC,131236.000,A,5034.2793,N,00227.3710,W,0.05,37.93,161011,,,A*4A
$GPGGA,131237.000,5034.2793,N,00227.3710,W,1,08,1.2,10.04,M,48.8,M,,0000*4E
$GPGSA,M,3,07,16,06,18,19,21,03,22,,,,,1.9,1.2,1.5*36
$GPRMC,131237.000,A,5034.2793,N,00227.3710,W,0.07,32.29,161011,,,A*4D
$GPGGA,131238.000,5034.2793,N,00227.3710,W,1,08,1.2,10.06,M,48.8,M,,0000*43
$GPGSA,M,3,07,16,06,18,19,21,03,22,,,,,1.9,1.2,1.5*36
$GPRMC,131238.000,A,5034.2793,N,00227.3710,W,0.05,48.11,161011,,,A*46
$GPGGA,131239.000,5034.2793,N,00227.3710,W,1,08,1.2,10.08,M,48.8,M,,0000*4C
$GPGSA,M,3,07,16,06,18,19,21,03,22,,,,,1.9,1.2,1.5*36
$GPRMC,131239.000,A,5034.2793,N,00227.3710,W,0.06,38.18,161011,,,A*4A
$GPGGA,131240.000,5034.2793,N,00227.3710,W,1,08,1.2,10.10,M,48.8,M,,0000*4B
$GPGSA,M,3,07,16,06,18,19,21,03,22,,,,,1.9,1.2,1.5*36
$GPRMC,131240.000,A,5034.2793,N,00227.3710,W,0.06,43.92,161011,,,A*4A
$GPGGA,131241.000,5034.2793,N,00227.3710,W,1,08,1.2,10.11,M,48.8,M,,0000*4B
$GPGSA,M,3,07,16,06,18,19,21,03,22,,,,,1.9,1.2,1.5*36
$GPGSV,3,1,11,06,80,299,43,16,74,221,42,03,64,286,43,21,46,062,42*7A
$GPGSV,3,2,11,18,37,101,43,19,32,275,34,22,24,147,40,07,18,317,38*7C
$GPGSV,3,3,11,30,07,151,22,08,04,341,21,26,02,024,25*46
$GPRMC,131241.000,A,5034.2793,N,00227.3710,W,0.06,34.47,161011,,,A*43
$GPGGA,131242.000,5034.2793,N,00227.3710,W,1,08,1.2,10.14,M,48.8,M,,0000*4D
$GPGSA,M,3,07,16,06,18,19,21,03,22,,,,,1.9,1.2,1.5*36
$GPRMC,131242.000,A,5034.2793,N,00227.3710,W,0.06,55.98,161011,,,A*45
$GPGGA,131243.000,5034.2793,N,00227.3710,W,1,08,1.2,10.15,M,48.8,M,,0000*4D
$GPGSA,M,3,07,16,06,18,19,21,03,22,,,,,1.9,1.2,1.5*36
$GPRMC,131243.000,A,5034.2793,N,00227.3710,W,0.05,39.90,161011,,,A*45
$GPGGA,131244.000,5034.2793,N,00227.3710,W,1,08,1.2,10.18,M,48.8,M,,0000*47
$GPGSA,M,3,07,16,06,18,19,21,03,22,,,,,1.9,1.2,1.5*36
$GPRMC,131244.000,A,5034.2793,N,00227.3710,W,0.06,34.13,161011,,,A*47
$GPGGA,131245.000,5034.2793,N,00227.3709,W,1,08,1.2,10.20,M,48.8,M,,0000*45
$GPGSA,M,3,07,16,06,18,19,21,03,22,,,,,1.9,1.2,1.5*36
$GPRMC,131245.000,A,5034.2793,N,00227.3709,W,0.07,42.35,161011,,,A*4A
$GPGGA,131246.000,5034.2792,N,00227.3709,W,1,08,1.2,10.21,M,48.8,M,,0000*46
$GPGSA,M,3,07,16,06,18,19,21,03,22,,,,,1.9,1.2,1.5*36
$GPGSV,3,1,11,06,80,299,43,16,74,221,42,03,64,286,43,21,46,062,42*7A
$GPGSV,3,2,11,18,37,101,43,19,32,275,34,22,24,147,40,07,18,317,38*7C
$GPGSV,3,3,11,30,07,151,22,08,04,341,21,26,02,024,26*45
$GPRMC,131246.000,A,5034.2792,N,00227.3709,W,0.05,42.66,161011,,,A*4C
$GPGGA,131247.000,5034.2792,N,00227.3709,W,1,08,1.2,10.23,M,48.8,M,,0000*45
$GPGSA,M,3,07,16,06,18,19,21,03,22,,,,,1.9,1.2,1.5*36
$GPRMC,131247.000,A,5034.2792,N,00227.3709,W,0.06,38.09,161011,,,A*4A
$GPGGA,131248.000,5034.2792,N,00227.3709,W,1,08,1.2,10.26,M,48.8,M,,0000*4F
$GPGSA,M,3,07,16,06,18,19,21,03,22,,,,,1.9,1.2,1.5*36
$GPRMC,131248.000,A,5034.2792,N,00227.3709,W,0.05,46.02,161011,,,A*44
$GPGGA,131249.000,5034.2792,N,00227.3709,W,1,08,1.2,10.28,M,48.8,M,,0000*40
$GPGSA,M,3,07,16,06,18,19,21,03,22,,,,,1.9,1.2,1.5*36
$GPRMC,131249.000,A,5034.2792,N,00227.3709,W,0.07,39.52,161011,,,A*4A
$GPGGA,131250.000,5034.2792,N,00227.3709,W,1,08,1.2,10.29,M,48.8,M,,0000*49
$GPGSA,M,3,07,16,06,18,19,21,03,22,,,,,1.9,1.2,1.5*36
$GPRMC,131250.000,A,5034.2792,N,00227.3709,W,0.06,44.80,161011,,,A*46
$GPGGA,131251.000,5034.2792,N,00227.3709,W,1,08,1.2,10.30,M,48.8,M,,0000*40
$GPGSA,M,3,07,16,06,18,19,21,03,22,,,,,1.9,1.2,1.5*36
$GPGSV,3,1,11,06,80,299,43,16,74,221,42,03,64,286,43,21,46,062,42*7A
$GPGSV,3,2,11,18,37,101,43,19,32,275,34,22,24,147,40,07,18,317,37*73
$GPGSV,3,3,11,30,07,151,22,08,04,341,21,26,02,024,26*45
$GPRMC,131251.000,A,5034.2792,N,00227.3709,W,0.06,41.96,161011,,,A*45
$GPGGA,131252.000,5034.2792,N,00227.3709,W,1,08,1.2,10.32,M,48.8,M,,0000*41
$GPGSA,M,3,07,16,06,18,19,21,03,22,,,,,1.9,1.2,1.5*36
$GPRMC,131252.000,A,5034.2792,N,00227.3709,W,0.06,40.04,161011,,,A*4C
$GPGGA,131253.000,5034.2792,N,00227.3709,W,1,08,1.2,10.34,M,48.8,M,,0000*46
$GPGSA,M,3,07,16,06,18,19,21,03,22,,,,,1.9,1.2,1.5*36
$GPRMC,131253.000,A,5034.2792,N,00227.3709,W,0.06,44.58,161011,,,A*40
$GPGGA,131254.000,5034.2792,N,00227.3709,W,1,08,1.2,10.36,M,48.8,M,,0000*43
$GPGSA,M,3,07,16,06,18,19,21,03,22,,,,,1.9,1.2,1.5*36
$GPRMC,131254.000,A,5034.2792,N,00227.3709,W,0.06,41.12,161011,,,A*4C
$GPGGA,131255.000,5034.2792,N,00227.3709,W,1,08,1.2,10.37,M,48.8,M,,0000*43
$GPGSA,M,3,07,16,06,18,19,21,03,22,,,,,1.9,1.2,1.5*36
$GPRMC,131255.000,A,5034.2792,N,00227.3709,W,0.07,36.45,161011,,,A*4E
$GPGGA,131256.000,5034.2792,N,00227.3709,W,1,08,1.2,10.39,M,48.8,M,,0000*4E
$GPGSA,M,3,07,16,06,18,19,21,03,22,,,,,1.9,1.2,1.5*36
$GPGSV,3,1,11,06,80,299,43,16,74,221,42,03,64,286,43,21,46,062,42*7A
$GPGSV,3,2,11,18,37,101,43,19,32,275,35,22,24,147,40,07,18,317,37*72
$GPGSV,3,3,11,30,07,151,23,08,04,341,23,26,02,024,26*46
$GPRMC,131256.000,A,5034.2792,N,00227.3709,W,0.06,40.96,161011,,,A*43
$GPGGA,131257.000,5034.2792,N,00227.3709,W,1,08,1.2,10.41,M,48.8,M,,0000*40
$GPGSA,M,3,07,16,06,18,19,21,03,22,,,,,1.9,1.2,1.5*36
$GPRMC,131257.000,A,5034.2792,N,00227.3709,W,0.07,42.15,161011,,,A*4A
$GPGGA,131258.000,5034.2792,N,00227.3709,W,1,08,1.2,10.42,M,48.8,M,,0000*4C
$GPGSA,M,3,07,16,06,18,19,21,03,22,,,,,1.9,1.2,1.5*36
$GPRMC,131258.000,A,5034.2792,N,00227.3709,W,0.06,47.22,161011,,,A*45
$GPGGA,131259.000,5034.2792,N,00227.3709,W,1,08,1.2,10.43,M,48.8,M,,0000*4C
$GPGSA,M,3,07,16,06,18,19,21,03,22,,,,,1.9,1.2,1.5*36
$GPRMC,131259.000,A,5034.2792,N,00227.3709,W,0.06,36.16,161011,,,A*45
$GPGGA,131300.000,5034.2791,N,00227.3709,W,1,08,1.2,10.43,M,48.8,M,,0000*42
$GPGSA,M,3,07,16,06,18,19,21,03,22,,,,,1.9,1.2,1.5*36
$GPRMC,131300.000,A,5034.2791,N,00227.3709,W,0.07,44.21,161011,,,A*4B
$GPGGA,131301.000,5034.2791,N,00227.3709,W,1,08,1.2,10.45,M,48.8,M,,0000*45
$GPGSA,M,3,07,16,06,18,19,21,03,22,,,,,1.9,1.2,1.5*36
$GPGSV,3,1,11,06,80,299,43,16,74,221,43,03,64,286,43,21,46,062,42*7B
$GPGSV,3,2,11,18,37,101,43,19,32,275,35,22,24,147,40,07,18,317,37*72
$GPGSV,3,3,11,30,07,151,24,08,04,341,23,26,02,024,26*41
$GPRMC,131301.000,A,5034.2791,N,00227.3709,W,0.06,38.97,161011,,,A*4D
$GPGGA,131302.000,5034.2791,N,00227.3709,W,1,08,1.2,10.45,M,48.8,M,,0000*46
$GPGSA,M,3,07,16,06,18,19,21,03,22,,,,,1.9,1.2,1.5*36
$GPRMC,131302.000,A,5034.2791,N,00227.3709,W,0.06,41.52,161011,,,A*49
$GPGGA,131303.000,5034.2791,N,00227.3709,W,1,08,1.2,10.46,M,48.8,M,,0000*44
$GPGSA,M,3,07,16,06,18,19,21,03,22,,,,,1.9,1.2,1.5*36
$GPRMC,131303.000,A,5034.2791,N,00227.3709,W,0.07,35.01,161011,,,A*4C
$GPGGA,131304.000,5034.2791,N,00227.3709,W,1,08,1.2,10.47,M,48.8,M,,0000*42
$GPGSA,M,3,07,16,06,18,19,21,03,22,,,,,1.9,1.2,1.5*36
$GPRMC,131304.000,A,5034.2791,N,00227.3709,W,0.06,35.35,161011,,,A*4D
$GPGGA,131305.000,5034.2791,N,00227.3710,W,1,08,1.2,10.34,M,48.8,M,,0000*4F
$GPGSA,M,3,07,16,06,18,19,21,03,22,,,,,1.9,1.2,1.5*36
$GPRMC,131305.000,A,5034.2791,N,00227.3710,W,0.06,44.14,161011,,,A*41
$GPGGA,131306.000,5034.2791,N,00227.3710,W,1,08,1.2,10.24,M,48.8,M,,0000*4D
$GPGSA,M,3,07,16,06,18,19,21,03,22,,,,,1.9,1.2,1.5*36
$GPGSV,3,1,11,06,80,299,43,16,74,221,43,03,64,286,43,21,46,062,42*7B
$GPGSV,3,2,11,18,37,101,43,19,32,275,35,22,24,147,40,07,18,317,37*72
$GPGSV,3,3,11,30,07,151,24,08,04,341,23,26,02,024,25*42
$GPRMC,131306.000,A,5034.2791,N,00227.3710,W,0.06,33.25,161011,,,A*40
$GPGGA,131307.000,5034.2791,N,00227.3710,W,1,08,1.2,10.15,M,48.8,M,,0000*4E
$GPGSA,M,3,07,16,06,18,19,21,03,22,,,,,1.9,1.2,1.5*36
$GPRMC,131307.000,A,5034.2791,N,00227.3710,W,0.05,30.04,161011,,,A*42
$GPGGA,131308.000,5034.2791,N,00227.3711,W,1,08,1.2,10.07,M,48.8,M,,0000*43
$GPGSA,M,3,07,16,06,18,19,21,03,22,,,,,1.9,1.2,1.5*36
$GPRMC,131308.000,A,5034.2791,N,00227.3711,W,0.06,37.57,161011,,,A*4E
$GPGGA,131309.000,5034.2791,N,00227.3711,W,1,08,1.2,10.01,M,48.8,M,,0000*44
$GPGSA,M,3,07,16,06,18,19,21,03,22,,,,,1.9,1.2,1.5*36
$GPRMC,131309.000,A,5034.2791,N,00227.3711,W,0.06,38.64,161011,,,A*40
$GPGGA,131310.000,5034.2791,N,00227.3711,W,1,08,1.2,9.94,M,48.8,M,,0000*78
$GPGSA,M,3,07,16,06,18,19,21,03,22,,,,,1.9,1.2,1.5*36
$GPRMC,131310.000,A,5034.2791,N,00227.3711,W,0.07,35.68,161011,,,A*48
$GPGGA,131311.000,5034.2791,N,00227.3712,W,1,08,1.2,9.89,M,48.8,M,,0000*76
$GPGSA,M,3,07,16,06,18,19,21,03,22,,,,,1.9,1.2,1.5*36
$GPGSV,3,1,11,06,80,299,43,16,74,221,43,03,64,286,43,21,46,062,42*7B
$GPGSV,3,2,11,18,37,101,43,19,32,275,35,22,24,147,40,07,18,317,36*73
$GPGSV,3,3,11,30,07,151,25,08,04,341,24,26,02,024,26*47
$GPRMC,131311.000,A,5034.2791,N,00227.3712,W,0.09,28.97,161011,,,A*48
$GPGGA,131312.000,5034.2791,N,00227.3712,W,1,08,1.2,9.85,M,48.8,M,,0000*79
$GPGSA,M,3,07,16,06,18,19,21,03,22,,,,,1.9,1.2,1.5*36
$GPRMC,131312.000,A,5034.2791,N,00227.3712,W,0.09,21.77,161011,,,A*4C
$GPGGA,131313.000,5034.2791,N,00227.3712,W,1,08,1.2,9.82,M,48.8,M,,0000*7F
$GPGSA,M,3,07,16,06,18,19,21,03,22,,,,,1.9,1.2,1.5*36
$GPRMC,131313.000,A,5034.2791,N,00227.3712,W,0.09,29.42,161011,,,A*43
$GPGGA,131314.000,5034.2791,N,00227.3712,W,1,08,1.2,9.79,M,48.8,M,,0000*7C
$GPGSA,M,3,07,16,06,18,19,21,03,22,,,,,1.9,1.2,1.5*36
$GPRMC,131314.000,A,5034.2791,N,00227.3712,W,0.07,29.87,161011,,,A*43
$GPGGA,131315.000,5034.2791,N,00227.3712,W,1,08,1.2,9.76,M,48.8,M,,0000*72
$GPGSA,M,3,07,16,06,18,19,21,03,22,,,,,1.9,1.2,1.5*36
$GPRMC,131315.000,A,5034.2791,N,00227.3712,W,0.09,28.33,161011,,,A*42
$GPGGA,131316.000,5034.2791,N,00227.3712,W,1,08,1.2,9.75,M,48.8,M,,0000*72
$GPGSA,M,3,07,16,06,18,19,21,03,22,,,,,1.9,1.2,1.5*36
$GPGSV,3,1,11,06,80,300,43,16,73,220,43,03,65,286,43,21,45,062,42*7E
$GPGSV,3,2,11,18,37,100,43,19,32,276,35,22,24,147,40,07,19,317,36*70
$GPGSV,3,3,11,30,06,151,25,08,04,340,24,26,02,024,26*47
$GPRMC,131316.000,A,5034.2791,N,00227.3712,W,0.08,29.95,161011,,,A*4D
$GPGGA,131317.000,5034.2791,N,00227.3713,W,1,08,1.2,9.73,M,48.8,M,,0000*74
$GPGSA,M,3,07,16,06,18,19,21,03,22,,,,,1.9,1.2,1.5*36
$GPRMC,131317.000,A,5034.2791,N,00227.3713,W,0.07,43.73,161011,,,A*46
$GPGGA,131318.000,5034.2791,N,00227.3713,W,1,08,1.2,9.71,M,48.8,M,,0000*79
$GPGSA,M,3,07,16,06,18,19,21,03,22,,,,,1.9,1.2,1.5*36
$GPRMC,131318.000,A,5034.2791,N,00227.3713,W,0.08,33.89,161011,,,A*44
$GPGGA,131319.000,5034.2791,N,00227.3713,W,1,08,1.2,9.70,M,48.8,M,,0000*79
$GPGSA,M,3,07,16,06,18,19,21,03,22,,,,,1.9,1.2,1.5*36
$GPRMC,131319.000,A,5034.2791,N,00227.3713,W,0.06,46.66,161011,,,A*48
$GPGGA,131320.000,5034.2791,N,00227.3713,W,1,08,1.2,9.68,M,48.8,M,,0000*7A
$GPGSA,M,3,07,16,06,18,19,21,03,22,,,,,1.9,1.2,1.5*36
$GPRMC,131320.000,A,5034.2791,N,00227.3713,W,0.06,37.14,161011,,,A*41
$GPGGA,131321.000,5034.2791,N,00227.3713,W,1,08,1.2,9.66,M,48.8,M,,0000*75
$GPGSA,M,3,07,16,06,18,19,21,03,22,,,,,1.9,1.2,1.5*36
$GPGSV,3,1,11,06,80,300,42,16,73,220,43,03,65,286,43,21,45,062,41*7C
$GPGSV,3,2,11,18,37,100,43,19,32,276,35,22,24,147,40,07,19,317,36*70
$GPGSV,3,3,11,30,06,151,26,08,04,340,23,26,02,024,25*40
$GPRMC,131321.000,A,5034.2791,N,00227.3713,W,0.07,39.15,161011,,,A*4E
$GPGGA,131322.000,5034.2791,N,00227.3713,W,1,08,1.2,9.65,M,48.8,M,,0000*75
$GPGSA,M,3,07,16,06,18,19,21,03,22,,,,,1.9,1.2,1.5*36
$GPRMC,131322.000,A,5034.2791,N,00227.3713,W,0.06,34.90,161011,,,A*4C
$GPGGA,131323.000,5034.2791,N,00227.3713,W,1,08,1.2,9.63,M,48.8,M,,0000*72
$GPGSA,M,3,07,16,06,18,19,21,03,22,,,,,1.9,1.2,1.5*36
$GPRMC,131323.000,A,5034.2791,N,00227.3713,W,0.08,42.91,161011,,,A*43
$GPGGA,131324.000,5034.2791,N,00227.3713,W,1,08,1.2,9.62,M,48.8,M,,0000*74
$GPGSA,M,3,07,16,06,18,19,21,03,22,,,,,1.9,1.2,1.5*36
$GPRMC,131324.000,A,5034.2791,N,00227.3713,W,0.07,34.44,161011,,,A*42
$GPGGA,131325.000,5034.2791,N,00227.3713,W,1,08,1.2,9.60,M,48.8,M,,0000*77
$GPGSA,M,3,07,16,06,18,19,21,03,22,,,,,1.9,1.2,1.5*36
$GPRMC,131325.000,A,5034.2791,N,00227.3713,W,0.07,41.14,161011,,,A*44
$GPGGA,131326.000,5034.2791,N,00227.3713,W,1,08,1.2,9.59,M,48.8,M,,0000*7E
$GPGSA,M,3,07,16,06,18,19,21,03,22,,,,,1.9,1.2,1.5*36
$GPGSV,3,1,11,06,80,300,42,16,73,220,43,03,65,286,43,21,45,062,41*7C
$GPGSV,3,2,11,18,37,100,43,19,32,276,35,22,24,147,40,07,19,317,35*73
$GPGSV,3,3,11,30,06,151,26,08,04,340,24,26,02,024,25*47
$GPRMC,131326.000,A,5034.2791,N,00227.3713,W,0.07,35.80,161011,,,A*49
$GPGGA,131327.000,5034.2791,N,00227.3713,W,1,08,1.2,9.58,M,48.8,M,,0000*7E
$GPGSA,M,3,07,16,06,18,19,21,03,22,,,,,1.9,1.2,1.5*36
$GPRMC,131327.000,A,5034.2791,N,00227.3713,W,0.06,38.37,161011,,,A*48
$GPGGA,131328.000,5034.2791,N,00227.3714,W,1,08,1.2,9.57,M,48.8,M,,0000*79
$GPGSA,M,3,07,16,06,18,19,21,03,22,,,,,1.9,1.2,1.5*36
$GPRMC,131328.000,A,5034.2791,N,00227.3714,W,0.07,45.55,161011,,,A*4F
$GPGGA,131329.000,5034.2791,N,00227.3714,W,1,08,1.2,9.56,M,48.8,M,,0000*79
$GPGSA,M,3,07,16,06,18,19,21,03,22,,,,,1.9,1.2,1.5*36
$GPRMC,131329.000,A,5034.2791,N,00227.3714,W,0.06,46.09,161011,,,A*45
$GPGGA,131330.000,5034.2791,N,00227.3714,W,1,08,1.2,9.55,M,48.8,M,,0000*72
$GPGSA,M,3,07,16,06,18,19,21,03,22,,,,,1.9,1.2,1.5*36
$GPRMC,131330.000,A,5034.2791,N,00227.3714,W,0.07,43.58,161011,,,A*4D
$GPGGA,131331.000,5034.2791,N,00227.3714,W,1,08,1.2,9.53,M,48.8,M,,0000*75
$GPGSA,M,3,07,16,06,18,19,21,03,22,,,,,1.9,1.2,1.5*36
$GPGSV,3,1,11,06,80,300,42,16,73,220,43,03,65,286,43,21,45,062,41*7C
$GPGSV,3,2,11,18,37,100,43,19,32,276,35,22,24,147,40,07,19,317,35*73
$GPGSV,3,3,11,30,06,151,27,08,04,340,24,26,02,024,24*47
$GPRMC,131331.000,A,5034.2791,N,00227.3714,W,0.06,43.19,161011,,,A*48
$GPGGA,131332.000,5034.2791,N,00227.3714,W,1,08,1.2,9.50,M,48.8,M,,0000*75
$GPGSA,M,3,07,16,06,18,19,21,03,22,,,,,1.9,1.2,1.5*36
$GPRMC,131332.000,A,5034.2791,N,00227.3714,W,0.06,51.87,161011,,,A*4F
$GPGGA,131333.000,5034.2791,N,00227.3714,W,1,08,1.2,9.48,M,48.8,M,,0000*7D
$GPGSA,M,3,07,16,06,18,19,21,03,22,,,,,1.9,1.2,1.5*36
$GPRMC,131333.000,A,5034.2791,N,00227.3714,W,0.07,44.12,161011,,,A*47
$GPGGA,131334.000,5034.2791,N,00227.3714,W,1,08,1.2,9.45,M,48.8,M,,0000*77
$GPGSA,M,3,07,16,06,18,19,21,03,22,,,,,1.9,1.2,1.5*36
$GPRMC,131334.000,A,5034.2791,N,00227.3714,W,0.04,46.90,161011,,,A*4B
$GPGGA,131335.000,5034.2791,N,00227.3714,W,1,08,1.2,9.43,M,48.8,M,,0000*70
$GPGSA,M,3,07,16,06,18,19,21,03,22,,,,,1.9,1.2,1.5*36
$GPRMC,131335.000,A,5034.2791,N,00227.3714,W,0.05,62.50,161011,,,A*41
$GPGGA,131336.000,5034.2791,N,00227.3714,W,1,08,1.2,9.41,M,48.8,M,,0000*71
$GPGSA,M,3,07,16,06,18,19,21,03,22,,,,,1.9,1.2,1.5*36
$GPGSV,3,1,11,06,80,300,42,16,73,220,43,03,65,286,43,21,45,062,41*7C
$GPGSV,3,2,11,18,37,100,43,19,32,276,35,22,24,147,40,07,19,317,35*73
$GPGSV,3,3,11,30,06,151,27,08,04,340,24,26,02,024,24*47
$GPRMC,131336.000,A,5034.2791,N,00227.3714,W,0.06,50.39,161011,,,A*4F
$GPGGA,131337.000,5034.2791,N,00227.3714,W,1,08,1.2,9.38,M,48.8,M,,0000*7E
$GPGSA,M,3,07,16,06,18,19,21,03,22,,,,,1.9,1.2,1.5*36
$GPRMC,131337.000,A,5034.2791,N,00227.3714,W,0.05,46.76,161011,,,A*41
$GPGGA,131338.000,5034.2791,N,00227.3714,W,1,08,1.2,9.36,M,48.8,M,,0000*7F
$GPGSA,M,3,07,16,06,18,19,21,03,22,,,,,1.9,1.2,1.5*36
$GPRMC,131338.000,A,5034.2791,N,00227.3714,W,0.06,45.10,161011,,,A*4E
$GPGGA,131339.000,5034.2791,N,00227.3714,W,1,08,1.2,9.34,M,48.8,M,,0000*7C
$GPGSA,M,3,07,16,06,18,19,21,03,22,,,,,1.9,1.2,1.5*36
$GPRMC,131339.000,A,5034.2791,N,00227.3714,W,0.05,58.54,161011,,,A*40
$GPGGA,131340.000,5034.2791,N,00227.3714,W,1,08,1.2,9.32,M,48.8,M,,0000*74
$GPGSA,M,3,07,16,06,18,19,21,03,22,,,,,1.9,1.2,1.5*36
$GPRMC,131340.000,A,5034.2791,N,00227.3714,W,0.06,57.12,161011,,,A*40
$GPGGA,131341.000,5034.2791,N,00227.3714,W,1,08,1.2,9.31,M,48.8,M,,0000*76
$GPGSA,M,3,07,16,06,18,19,21,03,22,,,,,1.9,1.2,1.5*36
$GPGSV,3,1,11,06,80,300,42,16,73,220,43,03,65,286,43,21,45,062,41*7C
$GPGSV,3,2,11,18,37,100,42,19,32,276,35,22,24,147,40,07,19,317,34*73
$GPGSV,3,3,11,30,06,151,27,08,04,340,24,26,02,024,23*40
$GPRMC,131341.000,A,5034.2791,N,00227.3714,W,0.06,44.79,161011,,,A*4E
$GPGGA,131342.000,5034.2791,N,00227.3714,W,1,08,1.2,9.29,M,48.8,M,,0000*7C
$GPGSA,M,3,07,16,06,18,19,21,03,22,,,,,1.9,1.2,1.5*36
$GPRMC,131342.000,A,5034.2791,N,00227.3714,W,0.06,46.11,161011,,,A*41
$GPGGA,131343.000,5034.2791,N,00227.3714,W,1,08,1.2,9.28,M,48.8,M,,0000*7C
$GPGSA,M,3,07,16,06,18,19,21,03,22,,,,,1.9,1.2,1.5*36
$GPRMC,131343.000,A,5034.2791,N,00227.3714,W,0.06,50.86,161011,,,A*49
$GPGGA,131344.000,5034.2791,N,00227.3715,W,1,08,1.2,9.27,M,48.8,M,,0000*75
$GPGSA,M,3,07,16,06,18,19,21,03,22,,,,,1.9,1.2,1.5*36
$GPRMC,131344.000,A,5034.2791,N,00227.3715,W,0.05,52.43,161011,,,A*47
$GPGGA,131345.000,5034.2791,N,00227.3715,W,1,08,1.2,9.25,M,48.8,M,,0000*76
$GPGSA,M,3,07,16,06,18,19,21,03,22,,,,,1.9,1.2,1.5*36
$GPRMC,131345.000,A,5034.2791,N,00227.3715,W,0.05,54.40,161011,,,A*43
$GPGGA,131346.000,5034.2790,N,00227.3715,W,1,08,1.2,9.23,M,48.8,M,,0000*72
$GPGSA,M,3,07,16,06,18,19,21,03,22,,,,,1.9,1.2,1.5*36
$GPGSV,3,1,11,06,80,300,42,16,73,220,43,03,65,286,43,21,45,062,41*7C
$GPGSV,3,2,11,18,37,100,42,19,32,276,36,22,24,147,40,07,19,317,34*70
$GPGSV,3,3,11,30,06,151,27,08,04,340,24,26,02,024,23*40
$GPRMC,131346.000,A,5034.2790,N,00227.3715,W,0.06,51.46,161011,,,A*41
$GPGGA,131347.000,5034.2790,N,00227.3715,W,1,08,1.2,9.22,M,48.8,M,,0000*72
$GPGSA,M,3,07,16,06,18,19,21,03,22,,,,,1.9,1.2,1.5*36
$GPRMC,131347.000,A,5034.2790,N,00227.3715,W,0.06,56.14,161011,,,A*40
$GPGGA,131348.000,5034.2790,N,00227.3715,W,1,08,1.2,9.20,M,48.8,M,,0000*7F
$GPGSA,M,3,07,16,06,18,19,21,03,22,,,,,1.9,1.2,1.5*36
$GPRMC,131348.000,A,5034.2790,N,00227.3715,W,0.06,46.38,161011,,,A*40
$GPGGA,131349.000,5034.2790,N,00227.3715,W,1,08,1.2,9.19,M,48.8,M,,0000*74
$GPGSA,M,3,07,16,06,18,19,21,03,22,,,,,1.9,1.2,1.5*36
$GPRMC,131349.000,A,5034.2790,N,00227.3715,W,0.04,58.60,161011,,,A*41
$GPGGA,131350.000,5034.2790,N,00227.3715,W,1,08,1.2,9.17,M,48.8,M,,0000*72
$GPGSA,M,3,07,16,06,18,19,21,03,22,,,,,1.9,1.2,1.5*36
$GPRMC,131350.000,A,5034.2790,N,00227.3715,W,0.05,52.21,161011,,,A*47
$GPGGA,131351.000,5034.2790,N,00227.3715,W,1,08,1.2,9.17,M,48.8,M,,0000*73
$GPGSA,M,3,07,16,06,18,19,21,03,22,,,,,1.9,1.2,1.5*36
$GPGSV,3,1,11,06,80,300,42,16,73,220,43,03,65,286,43,21,45,062,41*7C
$GPGSV,3,2,11,18,37,100,42,19,32,276,36,22,24,147,40,07,19,317,34*70
$GPGSV,3,3,11,30,06,151,28,08,04,340,24,26,02,024,22*4E
$GPRMC,131351.000,A,5034.2790,N,00227.3715,W,0.06,48.16,161011,,,A*4A
$GPGGA,131352.000,5034.2790,N,00227.3715,W,1,08,1.2,9.17,M,48.8,M,,0000*70
$GPGSA,M,3,07,16,06,18,19,21,03,22,,,,,1.9,1.2,1.5*36
$GPRMC,131352.000,A,5034.2790,N,00227.3715,W,0.09,30.93,161011,,,A*44
$GPGGA,131353.000,5034.2791,N,00227.3715,W,1,08,1.2,9.17,M,48.8,M,,0000*70
$GPGSA,M,3,07,16,06,18,19,21,03,22,,,,,1.9,1.2,1.5*36
$GPRMC,131353.000,A,5034.2791,N,00227.3715,W,0.08,39.31,161011,,,A*44
$GPGGA,131354.000,5034.2791,N,00227.3715,W,1,08,1.2,9.18,M,48.8,M,,0000*78
$GPGSA,M,3,07,16,06,18,19,21,03,22,,,,,1.9,1.2,1.5*36
$GPRMC,131354.000,A,5034.2791,N,00227.3715,W,0.08,34.88,161011,,,A*4C
$GPGGA,131355.000,5034.2791,N,00227.3715,W,1,08,1.2,9.18,M,48.8,M,,0000*79
$GPGSA,M,3,07,16,06,18,19,21,03,22,,,,,1.9,1.2,1.5*36
$GPRMC,131355.000,A,5034.2791,N,00227.3715,W,0.08,40.44,161011,,,A*4E
$GPGGA,131356.000,5034.2791,N,00227.3715,W,1,08,1.2,9.17,M,48.8,M,,0000*75
$GPGSA,M,3,07,16,06,18,19,21,03,22,,,,,1.9,1.2,1.5*36
$GPGSV,3,1,11,06,80,300,42,16,73,220,42,03,65,286,43,21,45,062,41*7D
$GPGSV,3,2,11,18,37,100,42,19,32,276,36,22,24,147,40,07,19,317,34*70
$GPGSV,3,3,11,30,06,151,28,08,04,340,24,26,02,024,21*4D
$GPRMC,131356.000,A,5034.2791,N,00227.3715,W,0.07,49.43,161011,,,A*4C
$GPGGA,131357.000,5034.2791,N,00227.3715,W,1,08,1.2,9.16,M,48.8,M,,0000*75
$GPGSA,M,3,07,16,06,18,19,21,03,22,,,,,1.9,1.2,1.5*36
$GPRMC,131357.000,A,5034.2791,N,00227.3715,W,0.06,47.67,161011,,,A*44
$GPGGA,131358.000,5034.2791,N,00227.3715,W,1,08,1.2,9.15,M,48.8,M,,0000*79
$GPGSA,M,3,07,16,06,18,19,21,03,22,,,,,1.9,1.2,1.5*36
$GPRMC,131358.000,A,5034.2791,N,00227.3715,W,0.06,57.19,161011,,,A*43
$GPGGA,131359.000,5034.2791,N,00227.3715,W,1,08,1.2,9.14,M,48.8,M,,0000*79
$GPGSA,M,3,07,16,06,18,19,21,03,22,,,,,1.9,1.2,1.5*36
$GPRMC,131359.000,A,5034.2791,N,00227.3715,W,0.07,46.78,161011,,,A*44
$GPGGA,131400.000,5034.2791,N,00227.3715,W,1,08,1.2,9.13,M,48.8,M,,0000*75
$GPGSA,M,3,07,16,06,18,19,21,03,22,,,,,1.9,1.2,1.5*36
$GPRMC,131400.000,A,5034.2791,N,00227.3715,W,0.05,49.98,161011,,,A*4C
$GPGGA,131401.000,5034.2791,N,00227.3715,W,1,08,1.2,9.12,M,48.8,M,,0000*75
$GPGSA,M,3,07,16,06,18,19,21,03,22,,,,,1.9,1.2,1.5*36
$GPGSV,3,1,11,06,80,300,43,16,73,220,42,03,65,286,43,21,45,062,41*7C
$GPGSV,3,2,11,18,37,100,42,19,32,276,36,22,24,147,40,07,19,317,33*77
$GPGSV,3,3,11,30,06,151,28,08,04,340,23,26,02,024,20*4B
$GPRMC,131401.000,A,5034.2791,N,00227.3715,W,0.07,46.56,161011,,,A*42
$GPGGA,131402.000,5034.2791,N,00227.3715,W,1,08,1.2,9.10,M,48.8,M,,0000*74
$GPGSA,M,3,07,16,06,18,19,21,03,22,,,,,1.9,1.2,1.5*36
$GPRMC,131402.000,A,5034.2791,N,00227.3715,W,0.06,47.84,161011,,,A*4E
$GPGGA,131403.000,5034.2791,N,00227.3715,W,1,08,1.2,9.09,M,48.8,M,,0000*7D
$GPGSA,M,3,07,16,06,18,19,21,03,22,,,,,1.9,1.2,1.5*36
$GPRMC,131403.000,A,5034.2791,N,00227.3715,W,0.06,56.15,161011,,,A*47
$GPGGA,131404.000,5034.2791,N,00227.3715,W,1,08,1.2,9.07,M,48.8,M,,0000*74
$GPGSA,M,3,07,16,06,18,19,21,03,22,,,,,1.9,1.2,1.5*36
$GPRMC,131404.000,A,5034.2791,N,00227.3715,W,0.06,45.97,161011,,,A*48
$GPGGA,131405.000,5034.2791,N,00227.3715,W,1,08,1.2,9.06,M,48.8,M,,0000*74
$GPGSA,M,3,07,16,06,18,19,21,03,22,,,,,1.9,1.2,1.5*36
$GPRMC,131405.000,A,5034.2791,N,00227.3715,W,0.06,53.05,161011,,,A*45
$GPGGA,131406.000,5034.2791,N,00227.3715,W,1,08,1.2,9.04,M,48.8,M,,0000*75
$GPGSA,M,3,07,16,06,18,19,21,03,22,,,,,1.9,1.2,1.5*36
$GPGSV,3,1,11,06,80,300,43,16,73,220,42,03,65,286,43,21,45,062,41*7C
$GPGSV,3,2,11,18,37,100,42,19,32,276,35,22,24,147,40,07,19,317,33*74
$GPGSV,3,3,11,30,06,151,28,08,04,340,23,26,02,024,*49
$GPRMC,131406.000,A,5034.2791,N,00227.3715,W,0.07,52.62,161011,,,A*47
$GPGGA,131407.000,5034.2791,N,00227.3715,W,1,08,1.2,9.03,M,48.8,M,,0000*73
$GPGSA,M,3,07,16,06,18,19,21,03,22,,,,,1.9,1.2,1.5*36
$GPRMC,131407.000,A,5034.2791,N,00227.3715,W,0.07,28.44,161011,,,A*4F
$GPGGA,131408.000,5034.2791,N,00227.3715,W,1,08,1.2,9.02,M,48.8,M,,0000*7D
$GPGSA,M,3,07,16,06,18,19,21,03,22,,,,,1.9,1.2,1.5*36
$GPRMC,131408.000,A,5034.2791,N,00227.3715,W,0.08,39.38,161011,,,A*44
$GPGGA,131409.000,5034.2791,N,00227.3715,W,1,08,1.2,9.02,M,48.8,M,,0000*7C
$GPGSA,M,3,07,16,06,18,19,21,03,22,,,,,1.9,1.2,1.5*36
$GPRMC,131409.000,A,5034.2791,N,00227.3715,W,0.09,37.78,161011,,,A*4E
$GPGGA,131410.000,5034.2791,N,00227.3715,W,1,08,1.2,9.01,M,48.8,M,,0000*77
$GPGSA,M,3,07,16,06,18,19,21,03,22,,,,,1.9,1.2,1.5*36
$GPRMC,131410.000,A,5034.2791,N,00227.3715,W,0.08,37.97,161011,,,A*46
$GPGGA,131411.000,5034.2791,N,00227.3715,W,1,08,1.2,9.00,M,48.8,M,,0000*77
$GPGSA,M,3,07,16,06,18,19,21,03,22,,,,,1.9,1.2,1.5*36
$GPGSV,3,1,11,06,80,300,43,16,73,220,42,03,65,286,43,21,45,062,41*7C
$GPGSV,3,2,11,18,37,100,42,19,32,276,35,22,24,147,40,07,19,317,33*74
$GPGSV,3,3,11,30,06,151,28,08,04,340,22,26,02,024,*48
$GPRMC,131411.000,A,5034.2791,N,00227.3715,W,0.07,36.79,161011,,,A*49
$GPGGA,131412.000,5034.2791,N,00227.3715,W,1,08,1.2,9.00,M,48.8,M,,0000*74
$GPGSA,M,3,07,16,06,18,19,21,03,22,,,,,1.9,1.2,1.5*36
$GPRMC,131412.000,A,5034.2791,N,00227.3715,W,0.09,36.46,161011,,,A*48
$GPGGA,131413.000,5034.2791,N,00227.3715,W,1,08,1.2,8.99,M,48.8,M,,0000*74
$GPGSA,M,3,07,16,06,18,19,21,03,22,,,,,1.9,1.2,1.5*36
$GPRMC,131413.000,A,5034.2791,N,00227.3715,W,0.08,36.78,161011,,,A*45
$GPGGA,131414.000,5034.2791,N,00227.3715,W,1,08,1.2,9.00,M,48.8,M,,0000*72
$GPGSA,M,3,07,16,06,18,19,21,03,22,,,,,1.9,1.2,1.5*36
$GPRMC,131414.000,A,5034.2791,N,00227.3715,W,0.07,37.32,161011,,,A*42
$GPGGA,131415.000,5034.2791,N,00227.3715,W,1,08,1.2,8.99,M,48.8,M,,0000*72
$GPGSA,M,3,07,16,06,18,19,21,03,22,,,,,1.9,1.2,1.5*36
$GPRMC,131415.000,A,5034.2791,N,00227.3715,W,0.08,40.25,161011,,,A*4A
$GPGGA,131416.000,5034.2792,N,00227.3715,W,1,08,1.2,9.00,M,48.8,M,,0000*73
$GPGSA,M,3,07,16,06,18,19,21,03,22,,,,,1.9,1.2,1.5*36
$GPGSV,3,1,12,06,81,301,43,16,73,218,42,03,65,287,42,21,45,062,41*74
$GPGSV,3,2,12,18,37,100,42,19,32,276,35,22,25,146,40,07,19,316,33*76
$GPGSV,3,3,12,30,06,151,28,08,04,340,22,26,02,024,,15,00,056,*7C
$GPRMC,131416.000,A,5034.2792,N,00227.3715,W,0.08,37.55,161011,,,A*4D
$GPGGA,131417.000,5034.2792,N,00227.3715,W,1,08,1.2,9.01,M,48.8,M,,0000*73
$GPGSA,M,3,07,16,06,18,19,21,03,22,,,,,1.9,1.2,1.5*36
$GPRMC,131417.000,A,5034.2792,N,00227.3715,W,0.07,40.00,161011,,,A*43
$GPGGA,131418.000,5034.2792,N,00227.3715,W,1,08,1.2,9.01,M,48.8,M,,0000*7C
$GPGSA,M,3,07,16,06,18,19,21,03,22,,,,,1.9,1.2,1.5*36
$GPRMC,131418.000,A,5034.2792,N,00227.3715,W,0.09,37.97,161011,,,A*4C
$GPGGA,131419.000,5034.2792,N,00227.3715,W,1,08,1.2,9.02,M,48.8,M,,0000*7E
$GPGSA,M,3,07,16,06,18,19,21,03,22,,,,,1.9,1.2,1.5*36
$GPRMC,131419.000,A,5034.2792,N,00227.3715,W,0.07,33.36,161011,,,A*4C
$GPGGA,131420.000,5034.2792,N,00227.3715,W,1,08,1.2,9.02,M,48.8,M,,0000*74
$GPGSA,M,3,07,16,06,18,19,21,03,22,,,,,1.9,1.2,1.5*36
$GPRMC,131420.000,A,5034.2792,N,00227.3715,W,0.08,45.16,161011,,,A*4A
$GPGGA,131421.000,5034.2792,N,00227.3715,W,1,08,1.2,9.06,M,48.8,M,,0000*71
$GPGSA,M,3,07,16,06,18,19,21,03,22,,,,,1.9,1.2,1.5*36
$GPGSV,3,1,12,06,81,301,43,16,73,218,42,03,65,287,42,21,45,062,41*74
$GPGSV,3,2,12,18,37,100,42,19,32,276,35,22,25,146,40,07,19,316,33*76
$GPGSV,3,3,12,30,06,151,28,08,04,340,21,26,02,024,,15,00,056,*7F
$GPRMC,131421.000,A,5034.2792,N,00227.3715,W,0.08,36.14,161011,,,A*4D
$GPGGA,131422.000,5034.2792,N,00227.3714,W,1,08,1.2,9.10,M,48.8,M,,0000*74
$GPGSA,M,3,07,16,06,18,19,21,03,22,,,,,1.9,1.2,1.5*36
$GPRMC,131422.000,A,5034.2792,N,00227.3714,W,0.09,40.30,161011,,,A*49
$GPGGA,131423.000,5034.2792,N,00227.3714,W,1,08,1.2,9.14,M,48.8,M,,0000*71
$GPGSA,M,3,07,16,06,18,19,21,03,22,,,,,1.9,1.2,1.5*36
$GPRMC,131423.000,A,5034.2792,N,00227.3714,W,0.07,43.32,161011,,,A*47
$GPGGA,131424.000,5034.2792,N,00227.3714,W,1,08,1.2,9.19,M,48.8,M,,0000*7B
$GPGSA,M,3,07,16,06,18,19,21,03,22,,,,,1.9,1.2,1.5*36
$GPRMC,131424.000,A,5034.2792,N,00227.3714,W,0.09,36.83,161011,,,A*46
$GPGGA,131425.000,5034.2792,N,00227.3714,W,1,08,1.2,9.23,M,48.8,M,,0000*73
$GPGSA,M,3,07,16,06,18,19,21,03,22,,,,,1.9,1.2,1.5*36
$GPRMC,131425.000,A,5034.2792,N,00227.3714,W,0.07,39.16,161011,,,A*4A
$GPGGA,131426.000,5034.2792,N,00227.3714,W,1,08,1.2,9.27,M,48.8,M,,0000*74
$GPGSA,M,3,07,16,06,18,19,21,03,22,,,,,1.9,1.2,1.5*36
$GPGSV,3,1,12,06,81,301,43,16,73,218,42,03,65,287,42,21,45,062,41*74
$GPGSV,3,2,12,18,37,100,42,19,32,276,35,22,25,146,40,07,19,316,33*76
$GPGSV,3,3,12,30,06,151,28,08,04,340,21,26,02,024,,15,00,056,*7F
$GPRMC,131426.000,A,5034.2792,N,00227.3714,W,0.09,43.72,161011,,,A*48
$GPGGA,131427.000,5034.2792,N,00227.3714,W,1,08,1.2,9.32,M,48.8,M,,0000*71
$GPGSA,M,3,07,16,06,18,19,21,03,22,,,,,1.9,1.2,1.5*36
$GPRMC,131427.000,A,5034.2792,N,00227.3714,W,0.08,41.37,161011,,,A*4B
$GPGGA,131428.000,5034.2792,N,00227.3714,W,1,08,1.2,9.36,M,48.8,M,,0000*7A
$GPGSA,M,3,07,16,06,18,19,21,03,22,,,,,1.9,1.2,1.5*36
$GPRMC,131428.000,A,5034.2792,N,00227.3714,W,0.09,41.37,161011,,,A*45
$GPGGA,131429.000,5034.2792,N,00227.3713,W,1,08,1.2,9.39,M,48.8,M,,0000*73
$GPGSA,M,3,07,16,06,18,19,21,03,22,,,,,1.9,1.2,1.5*36
$GPRMC,131429.000,A,5034.2792,N,00227.3713,W,0.08,42.97,161011,,,A*4B
$GPGGA,131430.000,5034.2793,N,00227.3713,W,1,08,1.2,9.44,M,48.8,M,,0000*70
$GPGSA,M,3,07,16,06,18,19,21,03,22,,,,,1.9,1.2,1.5*36
$GPRMC,131430.000,A,5034.2793,N,00227.3713,W,0.07,40.41,161011,,,A*44
$GPGGA,131431.000,5034.2793,N,00227.3713,W,1,08,1.2,9.48,M,48.8,M,,0000*7D
$GPGSA,M,3,07,16,06,18,19,21,03,22,,,,,1.9,1.2,1.5*36
$GPGSV,3,1,12,06,81,301,43,16,73,218,42,03,65,287,42,21,45,062,41*74
$GPGSV,3,2,12,18,37,100,43,19,32,276,35,22,25,146,40,07,19,316,34*70
$GPGSV,3,3,12,30,06,151,28,08,04,340,21,26,02,024,,15,00,056,*7F
$GPRMC,131431.000,A,5034.2793,N,00227.3713,W,0.07,43.47,161011,,,A*40
$GPGGA,131432.000,5034.2793,N,00227.3713,W,1,08,1.2,9.51,M,48.8,M,,0000*76
$GPGSA,M,3,07,16,06,18,19,21,03,22,,,,,1.9,1.2,1.5*36
$GPRMC,131432.000,A,5034.2793,N,00227.3713,W,0.07,43.48,161011,,,A*4C
$GPGGA,131433.000,5034.2793,N,00227.3713,W,1,08,1.2,9.55,M,48.8,M,,0000*73
$GPGSA,M,3,07,16,06,18,19,21,03,22,,,,,1.9,1.2,1.5*36
$GPRMC,131433.000,A,5034.2793,N,00227.3713,W,0.07,40.04,161011,,,A*46
$GPGGA,131434.000,5034.2793,N,00227.3713,W,1,08,1.2,9.58,M,48.8,M,,0000*79
$GPGSA,M,3,07,16,06,18,19,21,03,22,,,,,1.9,1.2,1.5*36
$GPRMC,131434.000,A,5034.2793,N,00227.3713,W,0.07,51.90,161011,,,A*4C
$GPGGA,131435.000,5034.2793,N,00227.3713,W,1,08,1.2,9.61,M,48.8,M,,0000*72
$GPGSA,M,3,07,16,06,18,19,21,03,22,,,,,1.9,1.2,1.5*36
$GPRMC,131435.000,A,5034.2793,N,00227.3713,W,0.08,38.42,161011,,,A*42
$GPGGA,131436.000,5034.2793,N,00227.3713,W,1,08,1.2,9.65,M,48.8,M,,0000*75
$GPGSA,M,3,07,16,06,18,19,21,03,22,,,,,1.9,1.2,1.5*36
$GPGSV,3,1,12,06,81,301,43,16,73,218,42,03,65,287,42,21,45,062,41*74
$GPGSV,3,2,12,18,37,100,43,19,32,276,35,22,25,146,41,07,19,316,34*71
$GPGSV,3,3,12,30,06,151,28,08,04,340,21,26,02,024,,15,00,056,*7F
$GPRMC,131436.000,A,5034.2793,N,00227.3713,W,0.08,42.71,161011,,,A*4C
$GPGGA,131437.000,5034.2793,N,00227.3713,W,1,08,1.2,9.68,M,48.8,M,,0000*79
$GPGSA,M,3,07,16,06,18,19,21,03,22,,,,,1.9,1.2,1.5*36
$GPRMC,131437.000,A,5034.2793,N,00227.3713,W,0.07,53.36,161011,,,A*41
$GPGGA,131438.000,5034.2793,N,00227.3713,W,1,08,1.2,9.72,M,48.8,M,,0000*7D
$GPGSA,M,3,07,16,06,18,19,21,03,22,,,,,1.9,1.2,1.5*36
$GPRMC,131438.000,A,5034.2793,N,00227.3713,W,0.07,39.59,161011,,,A*4B
$GPGGA,131439.000,5034.2793,N,00227.3713,W,1,08,1.2,9.75,M,48.8,M,,0000*7B
$GPGSA,M,3,07,16,06,18,19,21,03,22,,,,,1.9,1.2,1.5*36
$GPRMC,131439.000,A,5034.2793,N,00227.3713,W,0.07,48.14,161011,,,A*45
$GPGGA,131440.000,5034.2793,N,00227.3713,W,1,08,1.2,9.78,M,48.8,M,,0000*78
$GPGSA,M,3,07,16,06,18,19,21,03,22,,,,,1.9,1.2,1.5*36
$GPRMC,131440.000,A,5034.2793,N,00227.3713,W,0.08,46.39,161011,,,A*45
$GPGGA,131441.000,5034.2793,N,00227.3712,W,1,08,1.2,9.81,M,48.8,M,,0000*7E
$GPGSA,M,3,07,16,06,18,19,21,03,22,,,,,1.9,1.2,1.5*36
$GPGSV,3,1,12,06,81,301,43,16,73,218,42,03,65,287,42,21,45,062,41*74
$GPGSV,3,2,12,18,37,100,43,19,32,276,35,22,25,146,40,07,19,316,34*70
$GPGSV,3,3,12,30,06,151,28,08,04,340,21,26,02,024,,15,00,056,*7F
$GPRMC,131441.000,A,5034.2793,N,00227.3712,W,0.07,45.71,161011,,,A*45
$GPGGA,131442.000,5034.2793,N,00227.3712,W,1,08,1.2,9.84,M,48.8,M,,0000*78
$GPGSA,M,3,07,16,06,18,19,21,03,22,,,,,1.9,1.2,1.5*36
$GPRMC,131442.000,A,5034.2793,N,00227.3712,W,0.08,46.84,161011,,,A*40
$GPGGA,131443.000,5034.2793,N,00227.3712,W,1,08,1.2,9.87,M,48.8,M,,0000*7A
$GPGSA,M,3,07,16,06,18,19,21,03,22,,,,,1.9,1.2,1.5*36
$GPRMC,131443.000,A,5034.2793,N,00227.3712,W,0.08,37.62,161011,,,A*4F
$GPGGA,131444.000,5034.2793,N,00227.3712,W,1,08,1.2,9.90,M,48.8,M,,0000*7B
$GPGSA,M,3,07,16,06,18,19,21,03,22,,,,,1.9,1.2,1.5*36
$GPRMC,131444.000,A,5034.2793,N,00227.3712,W,0.08,42.27,161011,,,A*4B
$GPGGA,131445.000,5034.2793,N,00227.3712,W,1,08,1.2,9.94,M,48.8,M,,0000*7E
$GPGSA,M,3,07,16,06,18,19,21,03,22,,,,,1.9,1.2,1.5*36
$GPRMC,131445.000,A,5034.2793,N,00227.3712,W,0.09,43.65,161011,,,A*4C
$GPGGA,131446.000,5034.2793,N,00227.3712,W,1,08,1.2,9.96,M,48.8,M,,0000*7F
$GPGSA,M,3,07,16,06,18,19,21,03,22,,,,,1.9,1.2,1.5*36
$GPGSV,3,1,12,06,81,301,42,16,73,218,42,03,65,287,42,21,45,062,41*75
$GPGSV,3,2,12,18,37,100,43,19,32,276,35,22,25,146,40,07,19,316,34*70
$GPGSV,3,3,12,30,06,151,28,08,04,340,21,26,02,024,,15,00,056,*7F
$GPRMC,131446.000,A,5034.2793,N,00227.3712,W,0.06,45.11,161011,,,A*45
$GPGGA,131447.000,5034.2793,N,00227.3712,W,1,08,1.2,9.99,M,48.8,M,,0000*71
$GPGSA,M,3,07,16,06,18,19,21,03,22,,,,,1.9,1.2,1.5*36
$GPRMC,131447.000,A,5034.2793,N,00227.3712,W,0.09,43.28,161011,,,A*47
$GPGGA,131448.000,5034.2793,N,00227.3712,W,1,08,1.2,10.03,M,48.8,M,,0000*45
$GPGSA,M,3,07,16,06,18,19,21,03,22,,,,,1.9,1.2,1.5*36
$GPRMC,131448.000,A,5034.2793,N,00227.3712,W,0.09,41.62,161011,,,A*44
$GPGGA,131449.000,5034.2793,N,00227.3712,W,1,08,1.2,10.06,M,48.8,M,,0000*41
$GPGSA,M,3,07,16,06,18,19,21,03,22,,,,,1.9,1.2,1.5*36
$GPRMC,131449.000,A,5034.2793,N,00227.3712,W,0.08,41.58,161011,,,A*4D
$GPGGA,131450.000,5034.2793,N,00227.3712,W,1,08,1.2,10.09,M,48.8,M,,0000*46
$GPGSA,M,3,07,16,06,18,19,21,03,22,,,,,1.9,1.2,1.5*36
$GPRMC,131450.000,A,5034.2793,N,00227.3712,W,0.07,46.89,161011,,,A*41
$GPGGA,131451.000,5034.2793,N,00227.3711,W,1,08,1.2,10.12,M,48.8,M,,0000*4E
$GPGSA,M,3,07,16,06,18,19,21,03,22,,,,,1.9,1.2,1.5*36
$GPGSV,3,1,12,06,81,301,42,16,73,218,42,03,65,287,42,21,45,062,41*75
$GPGSV,3,2,12,18,37,100,43,19,32,276,35,22,25,146,40,07,19,316,34*70
$GPGSV,3,3,12,30,06,151,28,08,04,340,21,26,02,024,,15,00,056,*7F
$GPRMC,131451.000,A,5034.2793,N,00227.3711,W,0.09,40.35,161011,,,A*4C
$GPGGA,131452.000,5034.2793,N,00227.3711,W,1,08,1.2,10.15,M,48.8,M,,0000*4A
$GPGSA,M,3,07,16,06,18,19,21,03,22,,,,,1.9,1.2,1.5*36
$GPRMC,131452.000,A,5034.2793,N,00227.3711,W,0.08,48.36,161011,,,A*45
$GPGGA,131453.000,5034.2793,N,00227.3711,W,1,08,1.2,10.17,M,48.8,M,,0000*49
$GPGSA,M,3,07,16,06,18,19,21,03,22,,,,,1.9,1.2,1.5*36
$GPRMC,131453.000,A,5034.2793,N,00227.3711,W,0.08,47.89,161011,,,A*4F
$GPGGA,131454.000,5034.2793,N,00227.3711,W,1,08,1.2,10.20,M,48.8,M,,0000*4A
$GPGSA,M,3,07,16,06,18,19,21,03,22,,,,,1.9,1.2,1.5*36
$GPRMC,131454.000,A,5034.2793,N,00227.3711,W,0.09,34.62,161011,,,A*48
$GPGGA,131455.000,5034.2793,N,00227.3711,W,1,08,1.2,10.23,M,48.8,M,,0000*48
$GPGSA,M,3,07,16,06,18,19,21,03,22,,,,,1.9,1.2,1.5*36
$GPRMC,131455.000,A,5034.2793,N,00227.3711,W,0.07,45.09,161011,,,A*4C
$GPGGA,131456.000,5034.2793,N,00227.3711,W,1,08,1.2,10.25,M,48.8,M,,0000*4D
$GPGSA,M,3,07,16,06,18,19,21,03,22,,,,,1.9,1.2,1.5*36
$GPGSV,3,1,12,06,81,301,42,16,73,218,42,03,65,287,42,21,45,062,41*75
$GPGSV,3,2,12,18,37,100,43,19,32,276,35,22,25,146,40,07,19,316,33*77
$GPGSV,3,3,12,30,06,151,27,08,04,340,21,26,02,024,,15,00,056,*70
$GPRMC,131456.000,A,5034.2793,N,00227.3711,W,0.08,47.26,161011,,,A*4F
$GPGGA,131457.000,5034.2793,N,00227.3711,W,1,08,1.2,10.28,M,48.8,M,,0000*41
$GPGSA,M,3,07,16,06,18,19,21,03,22,,,,,1.9,1.2,1.5*36
$GPRMC,131457.000,A,5034.2793,N,00227.3711,W,0.09,38.82,161011,,,A*49
$GPGGA,131458.000,5034.2793,N,00227.3711,W,1,08,1.2,10.30,M,48.8,M,,0000*47
$GPGSA,M,3,07,16,06,18,19,21,03,22,,,,,1.9,1.2,1.5*36
$GPRMC,131458.000,A,5034.2793,N,00227.3711,W,0.07,46.62,161011,,,A*4F
$GPGGA,131459.000,5034.2793,N,00227.3711,W,1,08,1.2,10.33,M,48.8,M,,0000*45
$GPGSA,M,3,07,16,06,18,19,21,03,22,,,,,1.9,1.2,1.5*36
$GPRMC,131459.000,A,5034.2793,N,00227.3711,W,0.08,40.89,161011,,,A*42
$GPGGA,131500.000,5034.2793,N,00227.3711,W,1,08,1.2,10.35,M,48.8,M,,0000*4E
$GPGSA,M,3,07,16,06,18,19,21,03,22,,,,,2.0,1.2,1.5*3C
$GPRMC,131500.000,A,5034.2793,N,00227.3711,W,0.08,40.74,161011,,,A*4D
$GPGGA,131501.000,5034.2794,N,00227.3711,W,1,08,1.2,10.37,M,48.8,M,,0000*4A
$GPGSA,M,3,07,16,06,18,19,21,03,22,,,,,2.0,1.2,1.5*3C
$GPGSV,3,1,12,06,81,301,42,16,73,218,42,03,65,287,42,21,45,062,41*75
$GPGSV,3,2,12,18,37,100,43,19,32,276,34,22,25,146,41,07,19,316,33*77
$GPGSV,3,3,12,30,06,151,28,08,04,340,20,26,02,024,,15,00,056,*7E
$GPRMC,131501.000,A,5034.2794,N,00227.3711,W,0.09,41.64,161011,,,A*4A
$GPGGA,131502.000,5034.2794,N,00227.3710,W,1,08,1.2,10.40,M,48.8,M,,0000*48
$GPGSA,M,3,07,16,06,18,19,21,03,22,,,,,2.0,1.2,1.5*3C
$GPRMC,131502.000,A,5034.2794,N,00227.3710,W,0.08,38.60,161011,,,A*43
$GPGGA,131503.000,5034.2794,N,00227.3710,W,1,08,1.2,10.42,M,48.8,M,,0000*4B
$GPGSA,M,3,07,16,06,18,19,21,03,22,,,,,2.0,1.2,1.5*3C
$GPRMC,131503.000,A,5034.2794,N,00227.3710,W,0.08,46.19,161011,,,A*45
$GPGGA,131504.000,5034.2794,N,00227.3710,W,1,08,1.2,10.44,M,48.8,M,,0000*4A
$GPGSA,M,3,07,16,06,18,19,21,03,22,,,,,2.0,1.2,1.5*3C
$GPRMC,131504.000,A,5034.2794,N,00227.3710,W,0.08,40.10,161011,,,A*4D
$GPGGA,131505.000,5034.2794,N,00227.3710,W,1,08,1.2,10.46,M,48.8,M,,0000*49
$GPGSA,M,3,07,16,06,18,19,21,03,22,,,,,2.0,1.2,1.5*3C
$GPRMC,131505.000,A,5034.2794,N,00227.3710,W,0.08,44.22,161011,,,A*49
$GPGGA,131506.000,5034.2794,N,00227.3710,W,1,08,1.2,10.49,M,48.8,M,,0000*45
$GPGSA,M,3,07,16,06,18,19,21,03,22,,,,,2.0,1.2,1.5*3C
$GPGSV,3,1,12,06,81,301,43,16,73,218,42,03,65,287,42,21,45,062,41*74
$GPGSV,3,2,12,18,37,100,43,19,32,276,34,22,25,146,41,07,19,316,33*77
