$GPGGA,112811.000,5034.7605,N,00227.5425,W,1,09,1.1,2.56,M,48.8,M,,0000*7F
$GPGSA,M,3,06,21,13,29,31,16,30,03,05,,,,2.4,1.1,2.1*37
$GPGSV,3,1,12,21,61,138,42,30,53,136,42,16,42,299,38,06,36,259,41*77
$GPGSV,3,2,12,29,36,069,39,31,33,201,46,03,20,262,41,05,12,035,34*76
$GPGSV,3,3,12,13,10,316,35,25,06,124,44,23,06,291,38,18,04,136,32*73
$GPRMC,112811.000,A,5034.7605,N,00227.5425,W,0.92,82.64,161011,,,A*44
$GPGGA,112812.000,5034.7606,N,00227.5422,W,1,09,1.1,2.78,M,48.8,M,,0000*74
$GPGSA,M,3,06,21,13,29,31,16,30,03,05,,,,2.4,1.1,2.1*37
$GPRMC,112812.000,A,5034.7606,N,00227.5422,W,0.75,55.85,161011,,,A*4F
$GPGGA,112813.000,5034.7606,N,00227.5418,W,1,09,1.1,2.96,M,48.8,M,,0000*7C
$GPGSA,M,3,06,21,13,29,31,16,30,03,05,,,,2.4,1.1,2.1*37
$GPRMC,112813.000,A,5034.7606,N,00227.5418,W,1.71,93.23,161011,,,A*44
$GPGGA,112814.000,5034.7607,N,00227.5413,W,1,09,1.1,3.15,M,48.8,M,,0000*7B
$GPGSA,M,3,06,21,13,29,31,16,30,03,05,,,,2.4,1.1,2.1*37
$GPRMC,112814.000,A,5034.7607,N,00227.5413,W,0.92,68.18,161011,,,A*49
$GPGGA,112815.000,5034.7608,N,00227.5409,W,1,09,1.1,3.16,M,48.8,M,,0000*7D
$GPGSA,M,3,06,21,13,29,31,16,30,03,05,,,,2.4,1.1,2.1*37
$GPRMC,112815.000,A,5034.7608,N,00227.5409,W,1.30,77.18,161011,,,A*4B
$GPGGA,112816.000,5034.7608,N,00227.5403,W,1,09,1.1,3.06,M,48.8,M,,0000*75
$GPGSA,M,3,06,21,13,29,31,16,30,03,05,,,,2.4,1.1,2.1*37
$GPGSV,3,1,12,21,61,138,33,30,53,136,34,16,42,299,43,06,36,259,46*7B
$GPGSV,3,2,12,29,36,069,32,31,33,201,46,03,20,262,45,05,12,035,32*7F
$GPGSV,3,3,12,13,10,316,41,25,06,124,38,23,06,291,46,18,05,136,35*74
$GPRMC,112816.000,A,5034.7608,N,00227.5403,W,1.49,85.51,161011,,,A*4C
$GPGGA,112817.000,5034.7609,N,00227.5397,W,1,09,1.1,3.12,M,48.8,M,,0000*7A
$GPGSA,M,3,06,21,13,29,31,16,30,03,05,,,,2.4,1.1,2.1*37
$GPRMC,112817.000,A,5034.7609,N,00227.5397,W,1.28,81.57,161011,,,A*43
$GPGGA,112818.000,5034.7609,N,00227.5393,W,1,09,1.1,3.17,M,48.8,M,,0000*74
$GPGSA,M,3,06,21,13,29,31,16,30,03,05,,,,2.4,1.1,2.1*37
$GPRMC,112818.000,A,5034.7609,N,00227.5393,W,0.88,80.65,161011,,,A*43
$GPGGA,112819.000,5034.7609,N,00227.5388,W,1,09,1.1,3.17,M,48.8,M,,0000*7F
$GPGSA,M,3,06,21,13,29,31,16,30,03,05,,,,2.4,1.1,2.1*37
$GPRMC,112819.000,A,5034.7609,N,00227.5388,W,1.59,91.54,161011,,,A*47
$GPGGA,112820.000,5034.7609,N,00227.5382,W,1,09,1.1,3.19,M,48.8,M,,0000*71
$GPGSA,M,3,06,21,13,29,31,16,30,03,05,,,,2.4,1.1,2.1*37
$GPRMC,112820.000,A,5034.7609,N,00227.5382,W,1.31,91.89,161011,,,A*49
$GPGGA,112821.000,5034.7608,N,00227.5377,W,1,08,1.1,3.23,M,48.8,M,,0000*73
$GPGSA,M,3,06,21,13,29,31,16,03,05,,,,,2.4,1.1,2.2*37
$GPGSV,3,1,12,21,61,138,34,30,53,136,22,16,42,299,46,06,36,259,46*7E
$GPGSV,3,2,12,29,36,069,35,31,33,201,41,03,20,262,45,05,12,035,43*79
$GPGSV,3,3,12,13,10,316,42,25,06,124,24,23,06,291,47,18,05,136,17*7B
$GPRMC,112821.000,A,5034.7608,N,00227.5377,W,1.28,103.52,161011,,,A*77
$GPGGA,112822.000,5034.7607,N,00227.5372,W,1,08,1.1,3.05,M,48.8,M,,0000*7E
$GPGSA,M,3,06,21,13,29,31,16,03,05,,,,,2.4,1.1,2.2*37
$GPRMC,112822.000,A,5034.7607,N,00227.5372,W,1.38,117.39,161011,,,A*77
$GPGGA,112823.000,5034.7605,N,00227.5367,W,1,09,1.1,2.87,M,48.8,M,,0000*73
$GPGSA,M,3,06,21,13,29,31,16,30,03,05,,,,2.4,1.1,2.1*37
$GPRMC,112823.000,A,5034.7605,N,00227.5367,W,1.27,110.58,161011,,,A*7E
$GPGGA,112824.000,5034.7604,N,00227.5362,W,1,09,1.1,2.75,M,48.8,M,,0000*7D
$GPGSA,M,3,06,21,13,29,31,16,30,03,05,,,,2.4,1.1,2.1*37
$GPRMC,112824.000,A,5034.7604,N,00227.5362,W,1.20,103.45,161011,,,A*74
$GPGGA,112825.000,5034.7604,N,00227.5357,W,1,09,1.1,2.69,M,48.8,M,,0000*77
$GPGSA,M,3,06,21,13,29,31,16,30,03,05,,,,2.4,1.1,2.1*37
$GPRMC,112825.000,A,5034.7604,N,00227.5357,W,1.14,93.80,161011,,,A*45
$GPGGA,112826.000,5034.7604,N,00227.5353,W,1,09,1.1,2.61,M,48.8,M,,0000*78
$GPGSA,M,3,06,21,13,29,31,16,30,03,05,,,,2.4,1.1,2.1*37
$GPGSV,3,1,12,21,61,138,35,30,53,136,39,16,42,299,46,06,36,259,46*75
$GPGSV,3,2,12,29,36,069,30,31,33,201,41,03,20,262,45,05,12,035,31*79
$GPGSV,3,3,12,13,10,316,43,25,06,124,41,23,06,291,48,18,05,136,38*7B
$GPRMC,112826.000,A,5034.7604,N,00227.5353,W,0.90,95.24,161011,,,A*47
$GPGGA,112827.000,5034.7604,N,00227.5349,W,1,09,1.1,2.55,M,48.8,M,,0000*75
$GPGSA,M,3,06,21,13,29,31,16,30,03,05,,,,2.4,1.1,2.1*37
$GPRMC,112827.000,A,5034.7604,N,00227.5349,W,1.08,84.07,161011,,,A*4C
$GPGGA,112828.000,5034.7604,N,00227.5345,W,1,08,1.2,2.49,M,48.8,M,,0000*79
$GPGSA,M,3,06,21,13,29,31,16,30,03,,,,,2.8,1.2,2.5*39
$GPRMC,112828.000,A,5034.7604,N,00227.5345,W,0.92,92.19,161011,,,A*45
$GPGGA,112829.000,5034.7604,N,00227.5342,W,1,09,1.1,2.42,M,48.8,M,,0000*76
$GPGSA,M,3,06,21,13,29,31,16,30,03,05,,,,2.4,1.1,2.1*37
$GPRMC,112829.000,A,5034.7604,N,00227.5342,W,0.82,95.43,161011,,,A*4A
$GPGGA,112830.000,5034.7604,N,00227.5339,W,1,09,1.1,2.41,M,48.8,M,,0000*71
$GPGSA,M,3,06,21,13,29,31,16,30,03,05,,,,2.4,1.1,2.1*37
$GPRMC,112830.000,A,5034.7604,N,00227.5339,W,0.87,94.68,161011,,,A*43
$GPGGA,112831.000,5034.7604,N,00227.5335,W,1,09,1.1,2.43,M,48.8,M,,0000*7E
$GPGSA,M,3,06,21,13,29,31,16,30,03,05,,,,2.4,1.1,2.1*37
$GPGSV,3,1,12,21,61,138,40,30,53,136,39,16,42,299,47,06,36,259,40*70
$GPGSV,3,2,12,29,36,069,30,31,33,201,42,03,20,262,46,05,12,035,36*7E
$GPGSV,3,3,12,13,10,316,43,25,06,124,28,23,06,291,47,18,05,136,33*70
$GPRMC,112831.000,A,5034.7604,N,00227.5335,W,0.96,89.08,161011,,,A*44
$GPGGA,112832.000,5034.7603,N,00227.5332,W,1,09,1.1,2.39,M,48.8,M,,0000*70
$GPGSA,M,3,06,21,13,29,31,16,30,03,05,,,,2.4,1.1,2.1*37
$GPRMC,112832.000,A,5034.7603,N,00227.5332,W,0.88,96.73,161011,,,A*4A
$GPGGA,112833.000,5034.7603,N,00227.5328,W,1,09,1.1,2.43,M,48.8,M,,0000*77
$GPGSA,M,3,06,21,13,29,31,16,30,03,05,,,,2.4,1.1,2.1*37
$GPRMC,112833.000,A,5034.7603,N,00227.5328,W,0.90,98.73,161011,,,A*47
$GPGGA,112834.000,5034.7603,N,00227.5324,W,1,09,1.1,2.48,M,48.8,M,,0000*77
$GPGSA,M,3,06,21,13,29,31,16,30,03,05,,,,2.4,1.1,2.1*37
$GPRMC,112834.000,A,5034.7603,N,00227.5324,W,1.10,94.19,161011,,,A*45
$GPGGA,112835.000,5034.7603,N,00227.5319,W,1,09,1.1,2.53,M,48.8,M,,0000*72
$GPGSA,M,3,06,21,13,29,31,16,30,03,05,,,,2.4,1.1,2.1*37
$GPRMC,112835.000,A,5034.7603,N,00227.5319,W,1.14,88.20,161011,,,A*49
$GPGGA,112836.000,5034.7603,N,00227.5314,W,1,09,1.1,2.61,M,48.8,M,,0000*7D
$GPGSA,M,3,06,21,13,29,31,16,30,03,05,,,,2.4,1.1,2.1*37
$GPGSV,3,1,12,21,61,138,43,30,53,136,40,16,42,299,47,06,36,259,45*78
$GPGSV,3,2,12,29,36,069,37,31,33,201,42,03,20,262,45,05,12,035,37*7B
$GPGSV,3,3,12,13,10,316,44,25,06,124,25,23,06,291,40,18,05,136,30*7E
$GPRMC,112836.000,A,5034.7603,N,00227.5314,W,1.32,85.10,161011,,,A*4D
$GPGGA,112837.000,5034.7603,N,00227.5308,W,1,09,1.1,2.72,M,48.8,M,,0000*73
$GPGSA,M,3,06,21,13,29,31,16,30,03,05,,,,2.4,1.1,2.1*37
$GPRMC,112837.000,A,5034.7603,N,00227.5308,W,1.65,98.45,161011,,,A*4F
$GPGGA,112838.000,5034.7602,N,00227.5302,W,1,09,1.1,2.82,M,48.8,M,,0000*78
$GPGSA,M,3,06,21,13,29,31,16,30,03,05,,,,2.4,1.1,2.1*37
$GPRMC,112838.000,A,5034.7602,N,00227.5302,W,1.43,98.72,161011,,,A*4B
$GPGGA,112839.000,5034.7602,N,00227.5296,W,1,09,1.1,2.69,M,48.8,M,,0000*70
$GPGSA,M,3,06,21,13,29,31,16,30,03,05,,,,2.4,1.1,2.1*37
$GPRMC,112839.000,A,5034.7602,N,00227.5296,W,0.88,68.70,161011,,,A*4D
$GPGGA,112840.000,5034.7602,N,00227.5291,W,1,09,1.1,2.63,M,48.8,M,,0000*73
$GPGSA,M,3,06,21,13,29,31,16,30,03,05,,,,2.4,1.1,2.1*37
$GPRMC,112840.000,A,5034.7602,N,00227.5291,W,1.72,103.34,161011,,,A*7C
$GPGGA,112841.000,5034.7602,N,00227.5285,W,1,09,1.1,2.76,M,48.8,M,,0000*73
$GPGSA,M,3,06,21,13,29,31,16,30,03,05,,,,2.4,1.1,2.1*37
$GPGSV,3,1,12,21,61,138,29,30,53,136,31,16,42,299,47,06,36,259,45*72
$GPGSV,3,2,12,29,35,069,32,31,33,201,42,03,20,262,45,05,11,035,32*7B
$GPGSV,3,3,12,13,10,316,44,25,06,124,,23,06,291,45,18,05,136,34*78
$GPRMC,112841.000,A,5034.7602,N,00227.5285,W,1.33,89.95,161011,,,A*45
$GPGGA,112842.000,5034.7602,N,00227.5280,W,1,09,1.1,2.88,M,48.8,M,,0000*74
$GPGSA,M,3,06,21,13,29,31,16,30,03,05,,,,2.4,1.1,2.1*37
$GPRMC,112842.000,A,5034.7602,N,00227.5280,W,0.94,96.58,161011,,,A*40
$GPGGA,112843.000,5034.7602,N,00227.5277,W,1,09,1.1,2.97,M,48.8,M,,0000*73
$GPGSA,M,3,06,21,13,29,31,16,30,03,05,,,,2.4,1.1,2.1*37
$GPRMC,112843.000,A,5034.7602,N,00227.5277,W,0.97,73.49,161011,,,A*41
$GPGGA,112844.000,5034.7601,N,00227.5274,W,1,09,1.1,2.95,M,48.8,M,,0000*76
$GPGSA,M,3,06,21,13,29,31,16,30,03,05,,,,2.4,1.1,2.1*37
$GPRMC,112844.000,A,5034.7601,N,00227.5274,W,0.90,119.80,161011,,,A*79
$GPGGA,112845.000,5034.7601,N,00227.5271,W,1,09,1.1,3.02,M,48.8,M,,0000*7D
$GPGSA,M,3,06,21,13,29,31,16,30,03,05,,,,2.4,1.1,2.1*37
$GPRMC,112845.000,A,5034.7601,N,00227.5271,W,0.80,86.41,161011,,,A*46
$GPGGA,112846.000,5034.7600,N,00227.5268,W,1,09,1.1,3.08,M,48.8,M,,0000*7D
$GPGSA,M,3,06,21,13,29,31,16,30,03,05,,,,2.4,1.1,2.1*37
$GPGSV,3,1,12,21,61,137,33,30,53,136,32,16,42,299,45,06,36,259,44*76
$GPGSV,3,2,12,29,35,069,36,31,33,201,38,03,20,262,44,05,11,035,42*74
$GPGSV,3,3,12,13,10,316,43,25,06,124,27,23,06,291,45,18,05,136,24*7B
$GPRMC,112846.000,A,5034.7600,N,00227.5268,W,0.89,95.54,161011,,,A*43
$GPGGA,112847.000,5034.7600,N,00227.5265,W,1,09,1.1,3.03,M,48.8,M,,0000*7A
$GPGSA,M,3,06,21,13,29,31,16,30,03,05,,,,2.4,1.1,2.1*37
$GPRMC,112847.000,A,5034.7600,N,00227.5265,W,0.73,109.67,161011,,,A*7E
$GPGGA,112848.000,5034.7599,N,00227.5263,W,1,08,1.1,3.02,M,48.8,M,,0000*70
$GPGSA,M,3,06,21,13,29,31,16,03,05,,,,,2.4,1.1,2.1*34
$GPRMC,112848.000,A,5034.7599,N,00227.5263,W,0.67,90.96,161011,,,A*4E
$GPGGA,112849.000,5034.7599,N,00227.5259,W,1,09,1.1,3.10,M,48.8,M,,0000*7A
$GPGSA,M,3,06,21,13,29,31,16,30,03,05,,,,2.4,1.1,2.1*37
$GPRMC,112849.000,A,5034.7599,N,00227.5259,W,0.97,102.30,161011,,,A*7F
$GPGGA,112850.000,5034.7598,N,00227.5257,W,1,09,1.1,3.12,M,48.8,M,,0000*7F
$GPGSA,M,3,06,21,13,29,31,16,30,03,05,,,,2.4,1.1,2.1*37
$GPRMC,112850.000,A,5034.7598,N,00227.5257,W,0.56,124.38,161011,,,A*79
$GPGGA,112851.000,5034.7597,N,00227.5255,W,1,09,1.1,3.13,M,48.8,M,,0000*72
$GPGSA,M,3,06,21,13,29,31,16,30,03,05,,,,2.4,1.1,2.1*37
$GPGSV,3,1,12,21,61,137,34,30,53,136,35,16,42,299,45,06,36,259,39*7C
$GPGSV,3,2,12,29,35,069,40,31,33,201,27,03,20,262,37,05,11,035,44*79
$GPGSV,3,3,12,13,10,316,43,25,06,124,34,23,06,291,43,18,05,136,20*7B
$GPRMC,112851.000,A,5034.7597,N,00227.5255,W,0.65,110.19,161011,,,A*71
$GPGGA,112852.000,5034.7597,N,00227.5252,W,1,09,1.1,3.22,M,48.8,M,,0000*74
$GPGSA,M,3,06,21,13,29,31,16,30,03,05,,,,2.4,1.1,2.1*37
$GPRMC,112852.000,A,5034.7597,N,00227.5252,W,1.01,102.77,161011,,,A*7D
$GPGGA,112853.000,5034.7596,N,00227.5248,W,1,09,1.1,3.20,M,48.8,M,,0000*7D
$GPGSA,M,3,06,21,13,29,31,16,30,03,05,,,,2.4,1.1,2.1*37
$GPRMC,112853.000,A,5034.7596,N,00227.5248,W,0.86,119.53,161011,,,A*74
$GPGGA,112854.000,5034.7594,N,00227.5246,W,1,09,1.1,3.18,M,48.8,M,,0000*7D
$GPGSA,M,3,06,21,13,29,31,16,30,03,05,,,,2.4,1.1,2.1*37
$GPRMC,112854.000,A,5034.7594,N,00227.5246,W,0.77,130.86,161011,,,A*72
$GPGGA,112855.000,5034.7593,N,00227.5243,W,1,09,1.1,3.21,M,48.8,M,,0000*74
$GPGSA,M,3,06,21,13,29,31,16,30,03,05,,,,2.4,1.1,2.1*37
$GPRMC,112855.000,A,5034.7593,N,00227.5243,W,0.76,131.76,161011,,,A*7E
$GPGGA,112856.000,5034.7591,N,00227.5241,W,1,09,1.1,3.21,M,48.8,M,,0000*77
$GPGSA,M,3,06,21,13,29,31,16,30,03,05,,,,2.4,1.1,2.1*37
$GPGSV,3,1,12,21,61,137,38,30,53,136,39,16,42,299,42,06,36,259,38*7A
$GPGSV,3,2,12,29,35,069,46,31,33,201,32,03,20,262,36,05,11,035,46*78
$GPGSV,3,3,12,13,10,316,38,25,06,124,36,23,06,291,42,18,05,136,15*72
$GPRMC,112856.000,A,5034.7591,N,00227.5241,W,0.74,125.12,161011,,,A*78
$GPGGA,112857.000,5034.7590,N,00227.5239,W,1,09,1.1,3.20,M,48.8,M,,0000*79
$GPGSA,M,3,06,21,13,29,31,16,30,03,05,,,,2.4,1.1,2.1*37
$GPRMC,112857.000,A,5034.7590,N,00227.5239,W,0.77,136.71,161011,,,A*73
$GPGGA,112858.000,5034.7589,N,00227.5237,W,1,09,1.1,3.16,M,48.8,M,,0000*75
$GPGSA,M,3,06,21,13,29,31,16,30,03,05,,,,2.4,1.1,2.1*37
$GPRMC,112858.000,A,5034.7589,N,00227.5237,W,0.75,120.23,161011,,,A*78
$GPGGA,112859.000,5034.7588,N,00227.5234,W,1,09,1.1,3.18,M,48.8,M,,0000*78
$GPGSA,M,3,06,21,13,29,31,16,30,03,05,,,,2.4,1.1,2.1*37
$GPRMC,112859.000,A,5034.7588,N,00227.5234,W,0.76,119.64,161011,,,A*71
$GPGGA,112900.000,5034.7587,N,00227.5232,W,1,09,1.1,3.15,M,48.8,M,,0000*71
$GPGSA,M,3,06,21,13,29,31,16,30,03,05,,,,2.4,1.1,2.1*37
$GPRMC,112900.000,A,5034.7587,N,00227.5232,W,0.71,132.14,161011,,,A*7C
$GPGGA,112901.000,5034.7585,N,00227.5230,W,1,09,1.1,3.12,M,48.8,M,,0000*77
$GPGSA,M,3,06,21,13,29,31,16,30,03,05,,,,2.4,1.1,2.1*37
$GPGSV,3,1,12,21,61,137,38,30,53,136,39,16,42,299,42,06,36,259,38*7A
$GPGSV,3,2,12,29,35,069,46,31,33,201,31,03,20,262,36,05,11,035,45*78
$GPGSV,3,3,12,13,10,316,34,25,06,124,38,23,06,291,42,18,05,136,23*75
$GPRMC,112901.000,A,5034.7585,N,00227.5230,W,0.70,123.79,161011,,,A*77
$GPGGA,112902.000,5034.7584,N,00227.5228,W,1,09,1.1,3.07,M,48.8,M,,0000*78
$GPGSA,M,3,06,21,13,29,31,16,30,03,05,,,,2.4,1.1,2.1*37
$GPRMC,112902.000,A,5034.7584,N,00227.5228,W,0.62,129.27,161011,,,A*7E
$GPGGA,112903.000,5034.7583,N,00227.5225,W,1,09,1.1,3.03,M,48.8,M,,0000*77
$GPGSA,M,3,06,21,13,29,31,16,30,03,05,,,,2.4,1.1,2.1*37
$GPRMC,112903.000,A,5034.7583,N,00227.5225,W,1.19,123.85,161011,,,A*7A
$GPGGA,112904.000,5034.7582,N,00227.5222,W,1,09,1.1,3.00,M,48.8,M,,0000*75
$GPGSA,M,3,06,21,13,29,31,16,30,03,05,,,,2.4,1.1,2.1*37
$GPRMC,112904.000,A,5034.7582,N,00227.5222,W,0.60,138.32,161011,,,A*72
$GPGGA,112905.000,5034.7580,N,00227.5220,W,1,09,1.1,3.03,M,48.8,M,,0000*77
$GPGSA,M,3,06,21,13,29,31,16,30,03,05,,,,2.4,1.1,2.1*37
$GPRMC,112905.000,A,5034.7580,N,00227.5220,W,0.95,139.70,161011,,,A*7E
$GPGGA,112906.000,5034.7579,N,00227.5218,W,1,09,1.1,3.01,M,48.8,M,,0000*7B
$GPGSA,M,3,06,21,13,29,31,16,30,03,05,,,,2.4,1.1,2.1*37
$GPGSV,3,1,12,21,61,137,39,30,53,136,40,16,42,299,37,06,36,259,34*7B
$GPGSV,3,2,12,29,35,069,47,31,33,201,29,03,20,262,33,05,11,035,45*75
$GPGSV,3,3,12,13,10,316,33,25,06,124,45,23,06,291,35,18,05,136,31*7B
$GPRMC,112906.000,A,5034.7579,N,00227.5218,W,0.86,118.81,161011,,,A*7F
$GPGGA,112907.000,5034.7577,N,00227.5214,W,1,09,1.1,3.00,M,48.8,M,,0000*79
$GPGSA,M,3,06,21,13,29,31,16,30,03,05,,,,2.4,1.1,2.1*37
$GPRMC,112907.000,A,5034.7577,N,00227.5214,W,1.00,128.36,161011,,,A*7C
$GPGGA,112908.000,5034.7576,N,00227.5212,W,1,09,1.1,3.13,M,48.8,M,,0000*73
$GPGSA,M,3,06,21,13,29,31,16,30,03,05,,,,2.4,1.1,2.1*37
$GPRMC,112908.000,A,5034.7576,N,00227.5212,W,0.84,136.09,161011,,,A*7A
$GPGGA,112909.000,5034.7575,N,00227.5210,W,1,09,1.1,3.27,M,48.8,M,,0000*74
$GPGSA,M,3,06,21,13,29,31,16,30,03,05,,,,2.4,1.1,2.1*37
$GPRMC,112909.000,A,5034.7575,N,00227.5210,W,0.84,147.47,161011,,,A*76
$GPGGA,112910.000,5034.7574,N,00227.5208,W,1,08,1.1,3.37,M,48.8,M,,0000*74
$GPGSA,M,3,21,13,29,31,16,30,03,05,,,,,2.4,1.1,2.1*31
$GPRMC,112910.000,A,5034.7574,N,00227.5208,W,0.78,157.52,161011,,,A*70
$GPGGA,112911.000,5034.7572,N,00227.5207,W,1,08,1.1,3.48,M,48.8,M,,0000*74
$GPGSA,M,3,21,13,29,31,16,30,03,05,,,,,2.4,1.1,2.1*31
$GPGSV,3,1,12,21,61,137,41,30,53,136,45,16,42,299,36,06,36,259,*77
$GPGSV,3,2,12,29,35,069,45,31,33,201,39,03,20,262,23,05,11,035,44*76
$GPGSV,3,3,12,13,10,316,16,25,06,124,47,23,06,291,33,18,05,136,39*70
$GPRMC,112911.000,A,5034.7572,N,00227.5207,W,0.63,162.92,161011,,,A*78
$GPGGA,112912.000,5034.7570,N,00227.5206,W,1,08,1.1,3.47,M,48.8,M,,0000*7B
$GPGSA,M,3,21,13,29,31,16,30,03,05,,,,,2.4,1.1,2.1*31
$GPRMC,112912.000,A,5034.7570,N,00227.5206,W,0.77,158.48,161011,,,A*73
$GPGGA,112913.000,5034.7568,N,00227.5204,W,1,08,1.1,3.24,M,48.8,M,,0000*74
$GPGSA,M,3,21,13,29,31,16,30,03,05,,,,,2.4,1.1,2.1*31
$GPRMC,112913.000,A,5034.7568,N,00227.5204,W,0.71,153.48,161011,,,A*74
$GPGGA,112914.000,5034.7567,N,00227.5204,W,1,09,1.1,3.21,M,48.8,M,,0000*78
$GPGSA,M,3,06,21,13,29,31,16,30,03,05,,,,2.4,1.1,2.1*37
$GPRMC,112914.000,A,5034.7567,N,00227.5204,W,0.51,145.52,161011,,,A*72
$GPGGA,112915.000,5034.7565,N,00227.5203,W,1,09,1.1,3.09,M,48.8,M,,0000*76
$GPGSA,M,3,06,21,13,29,31,16,30,03,05,,,,2.4,1.1,2.1*37
$GPRMC,112915.000,A,5034.7565,N,00227.5203,W,0.68,143.73,161011,,,A*79
$GPGGA,112916.000,5034.7563,N,00227.5201,W,1,09,1.1,2.80,M,48.8,M,,0000*71
$GPGSA,M,3,06,21,13,29,31,16,30,03,05,,,,2.4,1.1,2.1*37
$GPGSV,3,1,12,21,61,137,41,30,53,136,46,16,42,299,29,06,36,259,33*7A
$GPGSV,3,2,12,29,35,069,43,31,33,201,43,03,21,262,33,05,11,035,36*78
$GPGSV,3,3,12,13,10,316,23,25,06,124,46,23,06,291,30,18,05,135,38*76
$GPRMC,112916.000,A,5034.7563,N,00227.5201,W,0.79,145.10,161011,,,A*7D
$GPGGA,112917.000,5034.7562,N,00227.5200,W,1,09,1.1,2.78,M,48.8,M,,0000*77
$GPGSA,M,3,06,21,13,29,31,16,30,03,05,,,,2.4,1.1,2.1*37
$GPRMC,112917.000,A,5034.7562,N,00227.5200,W,0.50,133.42,161011,,,A*71
$GPGGA,112918.000,5034.7562,N,00227.5199,W,1,09,1.1,2.77,M,48.8,M,,0000*74
$GPGSA,M,3,06,21,13,29,31,16,30,03,05,,,,2.4,1.1,2.1*37
$GPRMC,112918.000,A,5034.7562,N,00227.5199,W,0.29,128.24,161011,,,A*79
$GPGGA,112919.000,5034.7561,N,00227.5198,W,1,09,1.1,2.66,M,48.8,M,,0000*77
$GPGSA,M,3,06,21,13,29,31,16,30,03,05,,,,2.4,1.1,2.1*37
$GPRMC,112919.000,A,5034.7561,N,00227.5198,W,0.77,139.61,161011,,,A*70
$GPGGA,112920.000,5034.7560,N,00227.5196,W,1,09,1.1,2.66,M,48.8,M,,0000*72
$GPGSA,M,3,06,21,13,29,31,16,30,03,05,,,,2.4,1.1,2.1*37
$GPRMC,112920.000,A,5034.7560,N,00227.5196,W,0.64,127.21,161011,,,A*7C
$GPGGA,112921.000,5034.7559,N,00227.5195,W,1,09,1.1,2.65,M,48.8,M,,0000*79
$GPGSA,M,3,06,21,13,29,31,16,30,03,05,,,,2.4,1.1,2.1*37
$GPGSV,3,1,12,21,61,137,42,30,53,136,45,16,42,299,28,06,36,259,35*7D
$GPGSV,3,2,12,29,35,069,39,31,33,201,46,03,21,262,33,05,11,035,28*7F
$GPGSV,3,3,12,13,10,316,19,25,06,124,45,23,06,291,29,18,05,135,39*75
$GPRMC,112921.000,A,5034.7559,N,00227.5195,W,0.57,128.82,161011,,,A*72
$GPGGA,112922.000,5034.7558,N,00227.5194,W,1,09,1.1,2.85,M,48.8,M,,0000*74
$GPGSA,M,3,06,21,13,29,31,16,30,03,05,,,,2.4,1.1,2.1*37
$GPRMC,112922.000,A,5034.7558,N,00227.5194,W,0.66,141.46,161011,,,A*74
$GPGGA,112923.000,5034.7558,N,00227.5192,W,1,09,1.1,2.92,M,48.8,M,,0000*75
$GPGSA,M,3,06,21,13,29,31,16,30,03,05,,,,2.4,1.1,2.1*37
$GPRMC,112923.000,A,5034.7558,N,00227.5192,W,0.77,96.21,161011,,,A*49
$GPGGA,112924.000,5034.7558,N,00227.5190,W,1,09,1.1,2.91,M,48.8,M,,0000*73
$GPGSA,M,3,06,21,13,29,31,16,30,03,05,,,,2.4,1.1,2.1*37
$GPRMC,112924.000,A,5034.7558,N,00227.5190,W,0.68,107.07,161011,,,A*7F
$GPGGA,112925.000,5034.7557,N,00227.5188,W,1,09,1.1,2.81,M,48.8,M,,0000*75
$GPGSA,M,3,06,21,13,29,31,16,30,03,05,,,,2.4,1.1,2.1*37
$GPRMC,112925.000,A,5034.7557,N,00227.5188,W,0.68,120.65,161011,,,A*79
$GPGGA,112926.000,5034.7556,N,00227.5186,W,1,09,1.1,2.84,M,48.8,M,,0000*7C
$GPGSA,M,3,06,21,13,29,31,16,30,03,05,,,,2.4,1.1,2.1*37
$GPGSV,3,1,12,21,61,137,41,30,53,136,44,16,42,299,32,06,36,259,41*77
$GPGSV,3,2,12,29,35,069,35,31,33,201,46,03,21,262,41,05,11,035,34*7B
$GPGSV,3,3,12,13,10,316,26,25,06,124,44,23,06,291,37,18,05,135,31*7F
$GPRMC,112926.000,A,5034.7556,N,00227.5186,W,0.74,132.15,161011,,,A*7C
$GPGGA,112927.000,5034.7555,N,00227.5184,W,1,09,1.1,2.86,M,48.8,M,,0000*7E
$GPGSA,M,3,06,21,13,29,31,16,30,03,05,,,,2.4,1.1,2.1*37
$GPRMC,112927.000,A,5034.7555,N,00227.5184,W,0.96,106.73,161011,,,A*77
$GPGGA,112928.000,5034.7554,N,00227.5181,W,1,09,1.1,2.82,M,48.8,M,,0000*71
$GPGSA,M,3,06,21,13,29,31,16,30,03,05,,,,2.4,1.1,2.1*37
$GPRMC,112928.000,A,5034.7554,N,00227.5181,W,0.65,112.79,161011,,,A*7F
$GPGGA,112929.000,5034.7553,N,00227.5180,W,1,09,1.1,2.84,M,48.8,M,,0000*70
$GPGSA,M,3,06,21,13,29,31,16,30,03,05,,,,2.4,1.1,2.1*37
$GPRMC,112929.000,A,5034.7553,N,00227.5180,W,0.52,129.00,161011,,,A*7A
$GPGGA,112930.000,5034.7552,N,00227.5178,W,1,09,1.1,2.77,M,48.8,M,,0000*72
$GPGSA,M,3,06,21,13,29,31,16,30,03,05,,,,2.4,1.1,2.1*37
$GPRMC,112930.000,A,5034.7552,N,00227.5178,W,0.71,123.05,161011,,,A*7A
$GPGGA,112931.000,5034.7551,N,00227.5176,W,1,09,1.1,2.76,M,48.8,M,,0000*7F
$GPGSA,M,3,06,21,13,29,31,16,30,03,05,,,,2.4,1.1,2.1*37
$GPGSV,3,1,12,21,61,137,42,30,53,136,43,16,42,299,34,06,36,259,41*75
$GPGSV,3,2,12,29,35,069,35,31,33,201,47,03,21,262,41,05,11,035,34*7A
$GPGSV,3,3,12,13,10,316,27,25,06,124,45,23,06,291,34,18,05,135,32*7F
$GPRMC,112931.000,A,5034.7551,N,00227.5176,W,0.56,112.40,161011,,,A*70
$GPGGA,112932.000,5034.7551,N,00227.5175,W,1,09,1.1,2.71,M,48.8,M,,0000*78
$GPGSA,M,3,06,21,13,29,31,16,30,03,05,,,,2.4,1.1,2.1*37
$GPRMC,112932.000,A,5034.7551,N,00227.5175,W,0.38,130.37,161011,,,A*78
$GPGGA,112933.000,5034.7550,N,00227.5175,W,1,09,1.1,2.64,M,48.8,M,,0000*7C
$GPGSA,M,3,06,21,13,29,31,16,30,03,05,,,,2.4,1.1,2.1*37
$GPRMC,112933.000,A,5034.7550,N,00227.5175,W,0.21,160.82,161011,,,A*7B
$GPGGA,112934.000,5034.7550,N,00227.5174,W,1,09,1.1,2.72,M,48.8,M,,0000*7D
$GPGSA,M,3,06,21,13,29,31,16,30,03,05,,,,2.4,1.1,2.1*37
$GPRMC,112934.000,A,5034.7550,N,00227.5174,W,0.63,101.68,161011,,,A*78
$GPGGA,112935.000,5034.7549,N,00227.5173,W,1,09,1.1,2.77,M,48.8,M,,0000*76
$GPGSA,M,3,06,21,13,29,31,16,30,03,05,,,,2.4,1.1,2.1*37
$GPRMC,112935.000,A,5034.7549,N,00227.5173,W,0.20,99.07,161011,,,A*48
$GPGGA,112936.000,5034.7550,N,00227.5175,W,1,09,1.1,3.11,M,48.8,M,,0000*7A
$GPGSA,M,3,06,21,13,29,31,16,30,03,05,,,,2.4,1.1,2.1*37
$GPGSV,3,1,12,21,61,137,41,30,53,136,42,16,42,299,38,06,36,259,41*7B
$GPGSV,3,2,12,29,35,069,35,31,33,201,47,03,21,262,44,05,11,035,23*79
$GPGSV,3,3,12,13,10,316,33,25,06,124,39,23,06,291,36,18,05,135,32*73
$GPRMC,112936.000,A,5034.7550,N,00227.5175,W,0.31,238.51,161011,,,A*7F
$GPGGA,112937.000,5034.7551,N,00227.5175,W,1,09,1.1,3.02,M,48.8,M,,0000*78
$GPGSA,M,3,06,21,13,29,31,16,30,03,05,,,,2.4,1.1,2.1*37
$GPRMC,112937.000,A,5034.7551,N,00227.5175,W,0.17,146.35,161011,,,A*73
$GPGGA,112938.000,5034.7551,N,00227.5173,W,1,09,1.1,3.21,M,48.8,M,,0000*70
$GPGSA,M,3,06,21,13,29,31,16,30,03,05,,,,2.4,1.1,2.1*37
$GPRMC,112938.000,A,5034.7551,N,00227.5173,W,1.44,107.52,161011,,,A*79
$GPGGA,112939.000,5034.7550,N,00227.5170,W,1,09,1.1,3.09,M,48.8,M,,0000*79
$GPGSA,M,3,06,21,13,29,31,16,30,03,05,,,,2.4,1.1,2.1*37
$GPRMC,112939.000,A,5034.7550,N,00227.5170,W,0.15,57.88,161011,,,A*4C
$GPGGA,112940.000,5034.7550,N,00227.5170,W,1,09,1.1,2.74,M,48.8,M,,0000*7C
$GPGSA,M,3,06,21,13,29,31,16,30,03,05,,,,2.4,1.1,2.1*37
$GPRMC,112940.000,A,5034.7550,N,00227.5170,W,0.34,122.84,161011,,,A*7E
$GPGGA,112941.000,5034.7549,N,00227.5169,W,1,09,1.1,2.60,M,48.8,M,,0000*78
$GPGSA,M,3,06,21,13,29,31,16,30,03,05,,,,2.4,1.1,2.1*37
$GPGSV,3,1,12,21,61,137,41,30,53,136,42,16,42,299,34,06,36,259,42*74
$GPGSV,3,2,12,29,35,070,35,31,33,201,46,03,21,262,39,05,11,035,31*79
$GPGSV,3,3,12,13,10,315,31,25,06,124,40,23,06,291,37,18,05,135,33*7C
$GPRMC,112941.000,A,5034.7549,N,00227.5169,W,0.54,99.64,161011,,,A*46
$GPGGA,112942.000,5034.7549,N,00227.5167,W,1,09,1.1,2.33,M,48.8,M,,0000*73
$GPGSA,M,3,06,21,13,29,31,16,30,03,05,,,,2.4,1.1,2.1*37
$GPRMC,112942.000,A,5034.7549,N,00227.5167,W,0.50,101.91,161011,,,A*75
$GPGGA,112943.000,5034.7549,N,00227.5166,W,1,09,1.1,2.06,M,48.8,M,,0000*75
$GPGSA,M,3,06,21,13,29,31,16,30,03,05,,,,2.4,1.1,2.1*37
$GPRMC,112943.000,A,5034.7549,N,00227.5166,W,0.53,66.08,161011,,,A*46
$GPGGA,112944.000,5034.7550,N,00227.5164,W,1,09,1.1,1.68,M,48.8,M,,0000*73
$GPGSA,M,3,06,21,13,29,31,16,30,03,05,,,,2.4,1.1,2.1*37
$GPRMC,112944.000,A,5034.7550,N,00227.5164,W,0.67,59.21,161011,,,A*4B
$GPGGA,112945.000,5034.7550,N,00227.5161,W,1,09,1.1,1.48,M,48.8,M,,0000*75
$GPGSA,M,3,06,21,13,29,31,16,30,03,05,,,,2.4,1.1,2.1*37
$GPRMC,112945.000,A,5034.7550,N,00227.5161,W,0.80,78.56,161011,,,A*45
$GPGGA,112946.000,5034.7550,N,00227.5159,W,1,09,1.1,1.06,M,48.8,M,,0000*77
$GPGSA,M,3,06,21,13,29,31,16,30,03,05,,,,2.4,1.1,2.1*37
$GPGSV,3,1,12,21,61,137,41,30,53,136,44,16,42,299,33,06,37,259,34*75
$GPGSV,3,2,12,29,35,070,34,31,33,201,39,03,21,262,34,05,11,035,29*74
$GPGSV,3,3,12,13,10,315,32,25,06,124,47,23,06,291,31,18,05,135,36*7B
$GPRMC,112946.000,A,5034.7550,N,00227.5159,W,0.12,225.77,161011,,,A*7F
$GPGGA,112947.000,5034.7551,N,00227.5159,W,1,09,1.1,0.78,M,48.8,M,,0000*7F
$GPGSA,M,3,06,21,13,29,31,16,30,03,05,,,,2.4,1.1,2.1*37
$GPRMC,112947.000,A,5034.7551,N,00227.5159,W,0.29,59.68,161011,,,A*40
$GPGGA,112948.000,5034.7552,N,00227.5158,W,1,09,1.1,0.53,M,48.8,M,,0000*7B
$GPGSA,M,3,06,21,13,29,31,16,30,03,05,,,,2.4,1.1,2.1*37
$GPRMC,112948.000,A,5034.7552,N,00227.5158,W,0.24,18.35,161011,,,A*4D
$GPGGA,112949.000,5034.7552,N,00227.5158,W,1,09,1.1,0.24,M,48.8,M,,0000*7A
$GPGSA,M,3,06,21,13,29,31,16,30,03,05,,,,2.4,1.1,2.1*37
$GPRMC,112949.000,A,5034.7552,N,00227.5158,W,0.38,20.47,161011,,,A*4F
$GPGGA,112950.000,5034.7553,N,00227.5159,W,1,08,1.5,0.10,M,48.8,M,,0000*70
$GPGSA,M,3,06,21,13,29,31,30,03,05,,,,,3.3,1.5,3.0*32
$GPRMC,112950.000,A,5034.7553,N,00227.5159,W,0.14,344.61,161011,,,A*7C
$GPGGA,112951.000,5034.7554,N,00227.5161,W,1,09,1.1,0.01,M,48.8,M,,0000*78
$GPGSA,M,3,06,21,13,29,31,16,30,03,05,,,,2.4,1.1,2.1*37
$GPGSV,3,1,12,21,61,137,41,30,53,136,45,16,42,299,37,06,37,259,39*7D
$GPGSV,3,2,12,29,35,070,38,31,33,201,45,03,21,262,39,05,11,035,23*74
$GPGSV,3,3,12,13,10,315,34,25,06,124,41,23,06,291,28,18,05,135,42*70
$GPRMC,112951.000,A,5034.7554,N,00227.5161,W,0.46,289.59,161011,,,A*7D
$GPGGA,112952.000,5034.7557,N,00227.5162,W,1,09,1.1,0.40,M,48.8,M,,0000*7E
$GPGSA,M,3,06,21,13,29,31,16,30,03,05,,,,2.4,1.1,2.1*37
$GPRMC,112952.000,A,5034.7557,N,00227.5162,W,1.65,26.68,161011,,,A*4B
$GPGGA,112953.000,5034.7559,N,00227.5162,W,1,09,1.1,0.06,M,48.8,M,,0000*73
$GPGSA,M,3,06,21,13,29,31,16,30,03,05,,,,2.4,1.1,2.1*37
$GPRMC,112953.000,A,5034.7559,N,00227.5162,W,1.08,279.01,161011,,,A*78
$GPGGA,112954.000,5034.7560,N,00227.5166,W,1,09,1.1,-0.18,M,48.8,M,,0000*58
$GPGSA,M,3,06,21,13,29,31,16,30,03,05,,,,2.4,1.1,2.1*37
$GPRMC,112954.000,A,5034.7560,N,00227.5166,W,0.91,314.92,161011,,,A*70
$GPGGA,112955.000,5034.7563,N,00227.5171,W,1,09,1.1,-0.03,M,48.8,M,,0000*56
$GPGSA,M,3,06,21,13,29,31,16,30,03,05,,,,2.4,1.1,2.1*37
$GPRMC,112955.000,A,5034.7563,N,00227.5171,W,0.86,297.20,161011,,,A*71
$GPGGA,112956.000,5034.7565,N,00227.5176,W,1,09,1.1,0.45,M,48.8,M,,0000*7B
$GPGSA,M,3,06,21,13,29,31,16,30,03,05,,,,2.4,1.1,2.1*37
$GPGSV,3,1,12,21,61,137,41,30,53,136,39,16,42,299,39,06,37,259,40*76
$GPGSV,3,2,12,29,35,070,36,31,33,201,46,03,21,262,47,05,11,035,33*71
$GPGSV,3,3,12,13,10,315,36,25,06,124,43,23,06,291,37,18,05,135,36*7D
$GPRMC,112956.000,A,5034.7565,N,00227.5176,W,0.38,331.12,161011,,,A*7A
$GPGGA,112957.000,5034.7567,N,00227.5178,W,1,09,1.1,0.82,M,48.8,M,,0000*7D
$GPGSA,M,3,06,21,13,29,31,16,30,03,05,,,,2.4,1.1,2.1*37
$GPRMC,112957.000,A,5034.7567,N,00227.5178,W,0.37,321.82,161011,,,A*70
$GPGGA,112958.000,5034.7567,N,00227.5178,W,1,09,1.1,0.84,M,48.8,M,,0000*74
$GPGSA,M,3,06,21,13,29,31,16,30,03,05,,,,2.4,1.1,2.1*37
$GPRMC,112958.000,A,5034.7567,N,00227.5178,W,0.52,102.91,161011,,,A*7D
$GPGGA,112959.000,5034.7567,N,00227.5177,W,1,09,1.1,0.86,M,48.8,M,,0000*78
$GPGSA,M,3,06,21,13,29,31,16,30,03,05,,,,2.4,1.1,2.1*37
$GPRMC,112959.000,A,5034.7567,N,00227.5177,W,0.08,4.49,161011,,,A*7E
$GPGGA,113000.000,5034.7569,N,00227.5178,W,1,09,1.1,0.99,M,48.8,M,,0000*73
$GPGSA,M,3,06,21,13,29,31,16,30,03,05,,,,2.4,1.1,2.1*37
$GPRMC,113000.000,A,5034.7569,N,00227.5178,W,0.50,46.64,161011,,,A*4F
$GPGGA,113001.000,5034.7571,N,00227.5177,W,1,09,1.1,1.07,M,48.8,M,,0000*72
$GPGSA,M,3,06,21,13,29,31,16,30,03,05,,,,2.4,1.1,2.1*37
$GPGSV,3,1,12,21,61,137,42,30,53,136,43,16,42,299,41,06,37,259,44*73
$GPGSV,3,2,12,29,35,070,33,31,33,201,46,03,21,262,43,05,11,035,33*70
$GPGSV,3,3,12,13,10,315,33,25,06,124,37,23,06,291,44,18,05,135,30*79
$GPRMC,113001.000,A,5034.7571,N,00227.5177,W,0.38,38.75,161011,,,A*4F
$GPGGA,113002.000,5034.7572,N,00227.5176,W,1,09,1.1,1.28,M,48.8,M,,0000*7E
$GPGSA,M,3,06,21,13,29,31,16,30,03,05,,,,2.4,1.1,2.1*37
$GPRMC,113002.000,A,5034.7572,N,00227.5176,W,0.77,55.04,161011,,,A*48
$GPGGA,113003.000,5034.7574,N,00227.5174,W,1,09,1.1,1.36,M,48.8,M,,0000*74
$GPGSA,M,3,06,21,13,29,31,16,30,03,05,,,,2.4,1.1,2.1*37
$GPRMC,113003.000,A,5034.7574,N,00227.5174,W,0.92,63.03,161011,,,A*44
$GPGGA,113004.000,5034.7576,N,00227.5171,W,1,09,1.1,1.39,M,48.8,M,,0000*7B
$GPGSA,M,3,06,21,13,29,31,16,30,03,05,,,,2.4,1.1,2.1*37
$GPRMC,113004.000,A,5034.7576,N,00227.5171,W,1.03,60.26,161011,,,A*49
$GPGGA,113005.000,5034.7577,N,00227.5167,W,1,09,1.1,1.36,M,48.8,M,,0000*73
$GPGSA,M,3,06,21,13,29,31,16,30,03,05,,,,2.4,1.1,2.1*37
$GPRMC,113005.000,A,5034.7577,N,00227.5167,W,1.32,73.95,161011,,,A*46
$GPGGA,113006.000,5034.7579,N,00227.5162,W,1,09,1.1,1.35,M,48.8,M,,0000*78
$GPGSA,M,3,06,21,13,29,31,16,30,03,05,,,,2.4,1.1,2.1*37
$GPGSV,3,1,12,21,61,137,40,30,53,136,42,16,42,299,43,06,37,259,46*70
$GPGSV,3,2,12,29,35,070,26,31,33,201,39,03,21,262,44,05,11,035,34*7C
$GPGSV,3,3,12,13,10,315,38,25,06,124,,23,06,291,45,18,05,135,27*71
$GPRMC,113006.000,A,5034.7579,N,00227.5162,W,1.31,78.79,161011,,,A*44
$GPGGA,113007.000,5034.7580,N,00227.5156,W,1,09,1.1,1.29,M,48.8,M,,0000*75
$GPGSA,M,3,06,21,13,29,31,16,30,03,05,,,,2.4,1.1,2.1*37
$GPRMC,113007.000,A,5034.7580,N,00227.5156,W,1.33,77.83,161011,,,A*4C
$GPGGA,113008.000,5034.7580,N,00227.5152,W,1,09,1.1,1.24,M,48.8,M,,0000*73
$GPGSA,M,3,06,21,13,29,31,16,30,03,05,,,,2.4,1.1,2.1*37
$GPRMC,113008.000,A,5034.7580,N,00227.5152,W,1.09,108.85,161011,,,A*71
$GPGGA,113009.000,5034.7578,N,00227.5148,W,1,09,1.1,1.15,M,48.8,M,,0000*7C
$GPGSA,M,3,06,21,13,29,31,16,30,03,05,,,,2.4,1.1,2.1*37
$GPRMC,113009.000,A,5034.7578,N,00227.5148,W,1.33,127.43,161011,,,A*72
$GPGGA,113010.000,5034.7576,N,00227.5145,W,1,09,1.1,1.26,M,48.8,M,,0000*77
$GPGSA,M,3,06,21,13,29,31,16,30,03,05,,,,2.4,1.1,2.1*37
$GPRMC,113010.000,A,5034.7576,N,00227.5145,W,1.40,153.50,161011,,,A*7C
$GPGGA,113011.000,5034.7570,N,00227.5145,W,1,09,1.1,1.57,M,48.8,M,,0000*76
$GPGSA,M,3,06,21,13,29,31,16,30,03,05,,,,2.4,1.1,2.1*37
$GPGSV,3,1,12,21,61,137,38,30,53,136,33,16,42,299,44,06,37,259,46*7E
$GPGSV,3,2,12,29,35,070,36,31,33,201,37,03,21,262,43,05,11,035,31*71
$GPGSV,3,3,12,13,10,315,33,25,06,124,,23,06,291,46,18,05,135,35*7A
$GPRMC,113011.000,A,5034.7570,N,00227.5145,W,2.70,177.06,161011,,,A*7E
$GPGGA,113012.000,5034.7562,N,00227.5146,W,1,09,1.1,1.96,M,48.8,M,,0000*78
$GPGSA,M,3,06,21,13,29,31,16,30,03,05,,,,2.4,1.1,2.1*37
$GPRMC,113012.000,A,5034.7562,N,00227.5146,W,2.61,175.07,161011,,,A*7E
$GPGGA,113013.000,5034.7555,N,00227.5147,W,1,09,1.1,2.12,M,48.8,M,,0000*73
$GPGSA,M,3,06,21,13,29,31,16,30,03,05,,,,2.4,1.1,2.1*37
$GPRMC,113013.000,A,5034.7555,N,00227.5147,W,2.44,184.86,161011,,,A*7A
$GPGGA,113014.000,5034.7548,N,00227.5150,W,1,09,1.1,2.33,M,48.8,M,,0000*7D
$GPGSA,M,3,06,21,13,29,31,16,30,03,05,,,,2.3,1.1,2.1*30
$GPRMC,113014.000,A,5034.7548,N,00227.5150,W,1.98,187.37,161011,,,A*7C
$GPGGA,113015.000,5034.7543,N,00227.5152,W,1,09,1.1,2.29,M,48.8,M,,0000*7E
$GPGSA,M,3,06,21,13,29,31,16,30,03,05,,,,2.3,1.1,2.1*30
$GPRMC,113015.000,A,5034.7543,N,00227.5152,W,1.90,181.39,161011,,,A*74
$GPGGA,113016.000,5034.7537,N,00227.5153,W,1,09,1.1,2.27,M,48.8,M,,0000*71
$GPGSA,M,3,06,21,13,29,31,16,30,03,05,,,,2.3,1.1,2.1*30
$GPGSV,3,1,12,21,61,136,37,30,52,136,36,16,42,299,45,06,37,259,46*75
$GPGSV,3,2,12,29,35,070,36,31,33,201,42,03,21,262,45,05,11,035,28*7D
$GPGSV,3,3,12,13,10,315,42,23,06,291,45,25,05,124,36,18,05,135,31*7D
$GPRMC,113016.000,A,5034.7537,N,00227.5153,W,2.04,179.59,161011,,,A*7A
$GPGGA,113017.000,5034.7531,N,00227.5154,W,1,09,1.1,2.23,M,48.8,M,,0000*75
$GPGSA,M,3,06,21,13,29,31,16,30,03,05,,,,2.3,1.1,2.1*30
$GPRMC,113017.000,A,5034.7531,N,00227.5154,W,2.22,184.34,161011,,,A*77
$GPGGA,113018.000,5034.7523,N,00227.5156,W,1,09,1.1,2.15,M,48.8,M,,0000*7E
$GPGSA,M,3,06,21,13,29,31,16,30,03,05,,,,2.3,1.1,2.1*30
$GPRMC,113018.000,A,5034.7523,N,00227.5156,W,3.40,184.40,161011,,,A*7F
$GPGGA,113019.000,5034.7514,N,00227.5158,W,1,09,1.1,2.09,M,48.8,M,,0000*78
$GPGSA,M,3,06,21,13,29,31,16,30,03,05,,,,2.3,1.1,2.1*30
$GPRMC,113019.000,A,5034.7514,N,00227.5158,W,3.36,185.58,161011,,,A*7D
$GPGGA,113020.000,5034.7504,N,00227.5161,W,1,09,1.1,1.84,M,48.8,M,,0000*7F
$GPGSA,M,3,06,21,13,29,31,16,30,03,05,,,,2.3,1.1,2.1*30
$GPRMC,113020.000,A,5034.7504,N,00227.5161,W,3.75,190.81,161011,,,A*7B
$GPGGA,113021.000,5034.7493,N,00227.5166,W,1,09,1.1,1.75,M,48.8,M,,0000*78
$GPGSA,M,3,06,21,13,29,31,16,30,03,05,,,,2.3,1.1,2.1*30
$GPGSV,3,1,12,21,61,136,41,30,52,136,38,16,42,299,43,06,37,259,45*7F
$GPGSV,3,2,12,29,35,070,34,31,33,201,43,03,21,262,47,05,11,035,30*75
$GPGSV,3,3,12,13,10,315,43,23,06,291,40,25,05,124,29,18,05,135,25*72
$GPRMC,113021.000,A,5034.7493,N,00227.5166,W,4.44,197.76,161011,,,A*78
$GPGGA,113022.000,5034.7482,N,00227.5173,W,1,09,1.1,1.69,M,48.8,M,,0000*72
$GPGSA,M,3,06,21,13,29,31,16,30,03,05,,,,2.3,1.1,2.1*30
$GPRMC,113022.000,A,5034.7482,N,00227.5173,W,4.33,201.54,161011,,,A*73
$GPGGA,113023.000,5034.7471,N,00227.5179,W,1,08,1.1,1.62,M,48.8,M,,0000*7F
$GPGSA,M,3,06,13,29,31,16,30,03,05,,,,,2.5,1.1,2.3*37
$GPRMC,113023.000,A,5034.7471,N,00227.5179,W,3.94,194.34,161011,,,A*77
$GPGGA,113024.000,5034.7460,N,00227.5183,W,1,09,1.1,1.49,M,48.8,M,,0000*75
$GPGSA,M,3,06,13,29,31,16,21,30,03,05,,,,2.3,1.1,2.1*30
$GPRMC,113024.000,A,5034.7460,N,00227.5183,W,4.09,194.27,161011,,,A*74
$GPGGA,113025.000,5034.7448,N,00227.5188,W,1,09,1.1,1.33,M,48.8,M,,0000*78
$GPGSA,M,3,06,13,29,31,16,21,30,03,05,,,,2.3,1.1,2.1*30
$GPRMC,113025.000,A,5034.7448,N,00227.5188,W,4.96,194.10,161011,,,A*76
$GPGGA,113026.000,5034.7433,N,00227.5196,W,1,09,1.1,1.52,M,48.8,M,,0000*7F
$GPGSA,M,3,06,13,29,31,16,21,30,03,05,,,,2.3,1.1,2.1*30
$GPGSV,3,1,12,21,61,136,35,30,52,136,38,16,42,299,42,06,37,259,46*7E
$GPGSV,3,2,12,29,35,070,36,31,33,201,43,03,21,262,47,05,11,035,25*73
$GPGSV,3,3,12,13,10,315,43,23,06,291,45,25,05,124,33,18,05,135,24*7D
$GPRMC,113026.000,A,5034.7433,N,00227.5196,W,5.76,195.82,161011,,,A*73
$GPGGA,113027.000,5034.7417,N,00227.5203,W,1,09,1.1,1.60,M,48.8,M,,0000*76
$GPGSA,M,3,06,13,29,31,16,21,30,03,05,,,,2.3,1.1,2.1*30
$GPRMC,113027.000,A,5034.7417,N,00227.5203,W,6.19,192.48,161011,,,A*70
$GPGGA,113028.000,5034.7399,N,00227.5209,W,1,09,1.1,1.68,M,48.8,M,,0000*7A
$GPGSA,M,3,06,13,29,31,16,21,30,03,05,,,,2.3,1.1,2.1*30
$GPRMC,113028.000,A,5034.7399,N,00227.5209,W,6.69,190.99,161011,,,A*7D
$GPGGA,113029.000,5034.7381,N,00227.5216,W,1,09,1.1,1.76,M,48.8,M,,0000*73
$GPGSA,M,3,06,13,29,31,16,21,30,03,05,,,,2.3,1.1,2.1*30
$GPRMC,113029.000,A,5034.7381,N,00227.5216,W,6.60,190.16,161011,,,A*75
$GPGGA,113030.000,5034.7362,N,00227.5221,W,1,09,1.1,1.67,M,48.8,M,,0000*72
$GPGSA,M,3,06,13,29,31,16,21,30,03,05,,,,2.3,1.1,2.1*30
$GPRMC,113030.000,A,5034.7362,N,00227.5221,W,7.19,190.36,161011,,,A*79
$GPGGA,113031.000,5034.7342,N,00227.5228,W,1,09,1.1,1.45,M,48.8,M,,0000*78
$GPGSA,M,3,06,13,29,31,16,21,30,03,05,,,,2.3,1.1,2.1*30
$GPGSV,3,1,12,21,61,136,34,30,52,136,33,16,42,299,42,06,37,259,46*74
$GPGSV,3,2,12,29,35,070,30,31,33,201,45,03,21,262,47,05,11,035,26*70
$GPGSV,3,3,12,13,10,315,42,23,06,291,41,25,05,124,24,18,05,135,33*78
$GPRMC,113031.000,A,5034.7342,N,00227.5228,W,7.61,192.07,161011,,,A*7C
$GPGGA,113032.000,5034.7322,N,00227.5238,W,1,09,1.1,1.44,M,48.8,M,,0000*7D
$GPGSA,M,3,06,13,29,31,16,21,30,03,05,,,,2.3,1.1,2.1*30
$GPRMC,113032.000,A,5034.7322,N,00227.5238,W,7.72,201.11,161011,,,A*74
$GPGGA,113033.000,5034.7303,N,00227.5251,W,1,09,1.1,1.46,M,48.8,M,,0000*72
$GPGSA,M,3,06,13,29,31,16,21,30,03,05,,,,2.3,1.1,2.1*30
$GPRMC,113033.000,A,5034.7303,N,00227.5251,W,7.04,202.01,161011,,,A*7A
$GPGGA,113034.000,5034.7285,N,00227.5262,W,1,09,1.1,1.58,M,48.8,M,,0000*75
$GPGSA,M,3,06,13,29,31,16,21,30,03,05,,,,2.3,1.1,2.1*30
$GPRMC,113034.000,A,5034.7285,N,00227.5262,W,6.22,199.38,161011,,,A*7C
$GPGGA,113035.000,5034.7270,N,00227.5273,W,1,09,1.1,1.59,M,48.8,M,,0000*7F
$GPGSA,M,3,06,13,29,31,16,21,30,03,05,,,,2.3,1.1,2.1*30
$GPRMC,113035.000,A,5034.7270,N,00227.5273,W,5.55,204.85,161011,,,A*75
$GPGGA,113036.000,5034.7256,N,00227.5283,W,1,09,1.1,1.93,M,48.8,M,,0000*71
$GPGSA,M,3,06,13,29,31,16,21,30,03,05,,,,2.3,1.1,2.1*30
$GPGSV,3,1,12,21,61,136,37,30,52,136,34,16,42,299,42,06,37,259,45*73
$GPGSV,3,2,12,29,35,070,36,31,33,201,46,03,21,262,42,05,11,035,33*74
$GPGSV,3,3,12,13,10,315,38,23,06,291,41,25,05,124,35,18,05,135,36*70
$GPRMC,113036.000,A,5034.7256,N,00227.5283,W,4.83,197.36,161011,,,A*76
$GPGGA,113037.000,5034.7243,N,00227.5289,W,1,09,1.1,2.03,M,48.8,M,,0000*74
$GPGSA,M,3,06,13,29,31,16,21,30,03,05,,,,2.3,1.1,2.1*30
$GPRMC,113037.000,A,5034.7243,N,00227.5289,W,5.12,189.83,161011,,,A*71
$GPGGA,113038.000,5034.7228,N,00227.5294,W,1,09,1.1,2.17,M,48.8,M,,0000*7F
$GPGSA,M,3,06,13,29,31,16,21,30,03,05,,,,2.3,1.1,2.1*30
$GPRMC,113038.000,A,5034.7228,N,00227.5294,W,5.42,187.57,161011,,,A*7D
$GPGGA,113039.000,5034.7213,N,00227.5297,W,1,09,1.1,2.19,M,48.8,M,,0000*7B
$GPGSA,M,3,06,13,29,31,16,21,30,03,05,,,,2.3,1.1,2.1*30
$GPRMC,113039.000,A,5034.7213,N,00227.5297,W,5.74,178.42,161011,,,A*76
$GPGGA,113040.000,5034.7196,N,00227.5297,W,1,09,1.1,2.24,M,48.8,M,,0000*75
$GPGSA,M,3,06,13,29,31,16,21,30,03,05,,,,2.3,1.1,2.1*30
$GPRMC,113040.000,A,5034.7196,N,00227.5297,W,6.13,178.43,161011,,,A*75
$GPGGA,113041.000,5034.7178,N,00227.5297,W,1,09,1.1,2.09,M,48.8,M,,0000*7B
$GPGSA,M,3,06,13,29,31,16,21,30,03,05,,,,2.3,1.1,2.1*30
$GPGSV,3,1,12,21,61,136,35,30,52,136,36,16,42,299,43,06,37,259,44*73
$GPGSV,3,2,12,29,35,070,33,31,33,201,45,03,21,262,43,05,11,035,33*73
$GPGSV,3,3,12,13,10,315,41,23,06,291,41,25,05,124,31,18,05,135,29*74
$GPRMC,113041.000,A,5034.7178,N,00227.5297,W,6.91,180.00,161011,,,A*7E
$GPGGA,113042.000,5034.7158,N,00227.5298,W,1,09,1.1,2.08,M,48.8,M,,0000*74
$GPGSA,M,3,06,13,29,31,16,21,30,03,05,,,,2.3,1.1,2.1*30
$GPRMC,113042.000,A,5034.7158,N,00227.5298,W,7.64,180.29,161011,,,A*70
$GPGGA,113043.000,5034.7136,N,00227.5298,W,1,09,1.1,2.17,M,48.8,M,,0000*73
$GPGSA,M,3,06,13,29,31,16,21,30,03,05,,,,2.3,1.1,2.1*30
$GPRMC,113043.000,A,5034.7136,N,00227.5298,W,8.02,176.98,161011,,,A*75
$GPGGA,113044.000,5034.7113,N,00227.5297,W,1,09,1.1,2.26,M,48.8,M,,0000*7E
$GPGSA,M,3,06,13,29,31,16,21,30,03,05,,,,2.3,1.1,2.1*30
$GPRMC,113044.000,A,5034.7113,N,00227.5297,W,8.64,174.90,161011,,,A*70
$GPGGA,113045.000,5034.7088,N,00227.5298,W,1,09,1.1,2.25,M,48.8,M,,0000*70
$GPGSA,M,3,06,13,29,31,16,21,30,03,05,,,,2.3,1.1,2.1*30
$GPRMC,113045.000,A,5034.7088,N,00227.5298,W,9.08,183.10,161011,,,A*76
$GPGGA,113046.000,5034.7062,N,00227.5300,W,1,09,1.1,2.31,M,48.8,M,,0000*72
$GPGSA,M,3,06,13,29,31,16,21,30,03,05,,,,2.3,1.1,2.1*30
$GPGSV,3,1,12,21,61,136,35,30,52,136,39,16,43,299,42,06,37,260,45*77
$GPGSV,3,2,12,29,35,070,35,31,32,201,46,03,21,262,44,05,11,034,32*70
$GPGSV,3,3,12,13,10,315,40,23,05,290,41,18,05,135,34,25,05,124,38*72
$GPRMC,113046.000,A,5034.7062,N,00227.5300,W,9.34,181.79,161011,,,A*73
$GPGGA,113047.000,5034.7035,N,00227.5303,W,1,09,1.1,2.44,M,48.8,M,,0000*70
$GPGSA,M,3,06,13,29,31,16,21,30,03,05,,,,2.3,1.1,2.1*30
$GPRMC,113047.000,A,5034.7035,N,00227.5303,W,9.80,181.90,161011,,,A*7B
$GPGGA,113048.000,5034.7008,N,00227.5307,W,1,09,1.1,2.32,M,48.8,M,,0000*74
$GPGSA,M,3,06,13,29,31,16,21,30,03,05,,,,2.3,1.1,2.1*30
$GPRMC,113048.000,A,5034.7008,N,00227.5307,W,10.11,186.79,161011,,,A*4E
$GPGGA,113049.000,5034.6979,N,00227.5312,W,1,09,1.1,2.36,M,48.8,M,,0000*7B
$GPGSA,M,3,06,13,29,31,16,21,30,03,05,,,,2.3,1.1,2.1*30
$GPRMC,113049.000,A,5034.6979,N,00227.5312,W,10.36,186.25,161011,,,A*49
$GPGGA,113050.000,5034.6950,N,00227.5318,W,1,09,1.1,2.33,M,48.8,M,,0000*77
$GPGSA,M,3,06,13,29,31,16,21,30,03,05,,,,2.3,1.1,2.1*30
$GPRMC,113050.000,A,5034.6950,N,00227.5318,W,10.97,185.28,161011,,,A*45
$GPGGA,113051.000,5034.6918,N,00227.5321,W,1,09,1.1,2.39,M,48.8,M,,0000*7A
$GPGSA,M,3,06,13,29,31,16,21,30,03,05,,,,2.3,1.1,2.1*30
$GPGSV,3,1,12,21,61,136,31,30,52,136,36,16,43,299,42,06,37,260,45*7C
$GPGSV,3,2,12,29,35,070,36,31,32,201,47,03,21,262,44,05,11,034,33*73
$GPGSV,3,3,12,13,10,315,40,23,05,290,37,18,05,135,37,25,05,124,33*7B
$GPRMC,113051.000,A,5034.6918,N,00227.5321,W,11.81,181.12,161011,,,A*49
$GPGGA,113052.000,5034.6884,N,00227.5325,W,1,09,1.1,2.49,M,48.8,M,,0000*7E
$GPGSA,M,3,06,13,29,31,16,21,30,03,05,,,,2.3,1.1,2.1*30
$GPRMC,113052.000,A,5034.6884,N,00227.5325,W,12.28,185.46,161011,,,A*4F
$GPGGA,113053.000,5034.6850,N,00227.5331,W,1,09,1.1,2.68,M,48.8,M,,0000*70
$GPGSA,M,3,06,13,29,31,16,21,30,03,05,,,,2.3,1.1,2.1*30
$GPRMC,113053.000,A,5034.6850,N,00227.5331,W,12.26,185.89,161011,,,A*4F
$GPGGA,113054.000,5034.6816,N,00227.5338,W,1,09,1.1,2.83,M,48.8,M,,0000*79
$GPGSA,M,3,06,13,29,31,16,21,30,03,05,,,,2.3,1.1,2.1*30
$GPRMC,113054.000,A,5034.6816,N,00227.5338,W,12.44,185.37,161011,,,A*42
$GPGGA,113055.000,5034.6781,N,00227.5344,W,1,09,1.1,2.88,M,48.8,M,,0000*79
$GPGSA,M,3,06,13,29,31,16,21,30,03,05,,,,2.3,1.1,2.1*30
$GPRMC,113055.000,A,5034.6781,N,00227.5344,W,12.33,187.01,161011,,,A*4E
$GPGGA,113056.000,5034.6747,N,00227.5352,W,1,09,1.1,3.08,M,48.8,M,,0000*7E
$GPGSA,M,3,06,13,29,31,16,21,30,03,05,,,,2.3,1.1,2.1*30
$GPGSV,3,1,12,21,61,136,37,30,52,136,37,16,43,299,40,06,37,260,44*78
$GPGSV,3,2,12,29,35,070,37,31,32,201,47,03,21,262,44,05,11,034,33*72
$GPGSV,3,3,12,13,10,315,39,23,05,290,39,18,05,135,39,25,05,124,34*72
$GPRMC,113056.000,A,5034.6747,N,00227.5352,W,12.45,187.31,161011,,,A*42
$GPGGA,113057.000,5034.6713,N,00227.5360,W,1,09,1.1,3.34,M,48.8,M,,0000*70
$GPGSA,M,3,06,13,29,31,16,21,30,03,05,,,,2.3,1.1,2.1*30
$GPRMC,113057.000,A,5034.6713,N,00227.5360,W,12.19,188.42,161011,,,A*41
$GPGGA,113058.000,5034.6680,N,00227.5370,W,1,09,1.1,3.50,M,48.8,M,,0000*77
$GPGSA,M,3,06,13,29,31,16,21,30,03,05,,,,2.3,1.1,2.1*30
$GPRMC,113058.000,A,5034.6680,N,00227.5370,W,11.75,190.46,161011,,,A*40
$GPGGA,113059.000,5034.6648,N,00227.5381,W,1,09,1.1,3.70,M,48.8,M,,0000*7E
$GPGSA,M,3,06,13,29,31,16,21,30,03,05,,,,2.3,1.1,2.1*30
$GPRMC,113059.000,A,5034.6648,N,00227.5381,W,11.39,192.34,161011,,,A*44
$GPGGA,113100.000,5034.6617,N,00227.5391,W,1,09,1.1,3.80,M,48.8,M,,0000*77
$GPGSA,M,3,06,13,29,31,16,21,30,03,05,,,,2.3,1.1,2.1*30
$GPRMC,113100.000,A,5034.6617,N,00227.5391,W,11.08,189.34,161011,,,A*4A
$GPGGA,113101.000,5034.6587,N,00227.5397,W,1,09,1.1,3.97,M,48.8,M,,0000*7C
$GPGSA,M,3,06,13,29,31,16,21,30,03,05,,,,2.3,1.1,2.1*30
$GPGSV,3,1,12,21,61,136,36,30,52,136,38,16,43,299,40,06,37,260,45*77
$GPGSV,3,2,12,29,35,070,37,31,32,201,46,03,21,262,45,05,11,034,33*72
$GPGSV,3,3,12,13,10,315,39,23,05,290,34,18,05,135,31,25,05,124,33*70
$GPRMC,113101.000,A,5034.6587,N,00227.5397,W,10.88,180.91,161011,,,A*48
$GPGGA,113102.000,5034.6557,N,00227.5400,W,1,09,1.1,4.01,M,48.8,M,,0000*73
$GPGSA,M,3,06,13,29,31,16,21,30,03,05,,,,2.3,1.1,2.1*30
$GPRMC,113102.000,A,5034.6557,N,00227.5400,W,10.32,184.35,161011,,,A*44
$GPGGA,113103.000,5034.6530,N,00227.5404,W,1,09,1.1,4.09,M,48.8,M,,0000*7F
$GPGSA,M,3,06,13,29,31,16,21,30,03,05,,,,2.3,1.1,2.1*30
$GPRMC,113103.000,A,5034.6530,N,00227.5404,W,9.52,186.26,161011,,,A*7E
$GPGGA,113104.000,5034.6504,N,00227.5412,W,1,09,1.1,4.17,M,48.8,M,,0000*77
$GPGSA,M,3,06,13,29,31,16,21,30,03,05,,,,2.3,1.1,2.1*30
$GPRMC,113104.000,A,5034.6504,N,00227.5412,W,9.62,192.56,161011,,,A*78
$GPGGA,113105.000,5034.6477,N,00227.5420,W,1,09,1.1,4.08,M,48.8,M,,0000*7C
$GPGSA,M,3,06,13,29,31,16,21,30,03,05,,,,2.3,1.1,2.1*30
$GPRMC,113105.000,A,5034.6477,N,00227.5420,W,9.95,188.43,161011,,,A*7A
$GPGGA,113106.000,5034.6449,N,00227.5423,W,1,09,1.1,4.17,M,48.8,M,,0000*7F
$GPGSA,M,3,06,13,29,31,16,21,30,03,05,,,,2.3,1.1,2.1*30
$GPGSV,3,1,12,21,61,136,37,30,52,136,38,16,43,299,40,06,37,260,45*76
$GPGSV,3,2,12,29,35,070,32,31,32,201,46,03,21,262,45,05,11,034,34*70
$GPGSV,3,3,12,13,10,315,39,23,05,290,40,18,05,135,33,25,05,124,33*71
$GPRMC,113106.000,A,5034.6449,N,00227.5423,W,10.27,179.73,161011,,,A*4B
$GPGGA,113107.000,5034.6420,N,00227.5422,W,1,09,1.1,4.10,M,48.8,M,,0000*77
$GPGSA,M,3,06,13,29,31,16,21,30,03,05,,,,2.3,1.1,2.1*30
$GPRMC,113107.000,A,5034.6420,N,00227.5422,W,10.88,176.93,161011,,,A*40
$GPGGA,113108.000,5034.6390,N,00227.5426,W,1,09,1.1,4.02,M,48.8,M,,0000*73
$GPGSA,M,3,06,13,29,31,16,21,30,03,05,,,,2.3,1.1,2.1*30
$GPRMC,113108.000,A,5034.6390,N,00227.5426,W,11.13,191.62,161011,,,A*43
$GPGGA,113109.000,5034.6360,N,00227.5437,W,1,09,1.1,3.95,M,48.8,M,,0000*74
$GPGSA,M,3,06,13,29,31,16,21,30,03,05,,,,2.3,1.1,2.1*30
$GPRMC,113109.000,A,5034.6360,N,00227.5437,W,10.94,193.87,161011,,,A*4A
$GPGGA,113110.000,5034.6330,N,00227.5448,W,1,09,1.1,3.93,M,48.8,M,,0000*77
$GPGSA,M,3,06,13,29,31,16,21,30,03,05,,,,2.3,1.1,2.1*30
$GPRMC,113110.000,A,5034.6330,N,00227.5448,W,11.04,189.39,161011,,,A*49
$GPGGA,113111.000,5034.6300,N,00227.5456,W,1,09,1.1,3.94,M,48.8,M,,0000*7D
$GPGSA,M,3,06,13,29,31,16,21,30,03,05,,,,2.3,1.1,2.1*30
$GPGSV,3,1,12,21,61,136,36,30,52,136,38,16,43,299,41,06,37,260,44*77
$GPGSV,3,2,12,29,35,070,34,31,32,201,46,03,21,262,44,05,11,034,33*70
$GPGSV,3,3,12,13,10,315,39,23,05,290,39,18,05,135,33,25,05,124,33*7F
$GPRMC,113111.000,A,5034.6300,N,00227.5456,W,11.31,188.48,161011,,,A*45
$GPGGA,113112.000,5034.6269,N,00227.5463,W,1,09,1.1,3.72,M,48.8,M,,0000*7E
$GPGSA,M,3,06,13,29,31,16,21,30,03,05,,,,2.3,1.1,2.1*30
$GPRMC,113112.000,A,5034.6269,N,00227.5463,W,11.07,186.79,161011,,,A*47
$GPGGA,113113.000,5034.6239,N,00227.5470,W,1,09,1.1,3.64,M,48.8,M,,0000*7F
$GPGSA,M,3,06,13,29,31,16,21,30,03,05,,,,2.3,1.1,2.1*30
$GPRMC,113113.000,A,5034.6239,N,00227.5470,W,10.58,187.50,161011,,,A*40
$GPGGA,113114.000,5034.6210,N,00227.5475,W,1,09,1.1,3.53,M,48.8,M,,0000*72
$GPGSA,M,3,06,13,29,31,16,21,30,03,05,,,,2.3,1.1,2.1*30
$GPRMC,113114.000,A,5034.6210,N,00227.5475,W,10.62,185.17,161011,,,A*41
$GPGGA,113115.000,5034.6181,N,00227.5480,W,1,09,1.1,3.44,M,48.8,M,,0000*74
$GPGSA,M,3,06,13,29,31,16,21,30,03,05,,,,2.3,1.1,2.1*30
$GPRMC,113115.000,A,5034.6181,N,00227.5480,W,10.40,184.11,161011,,,A*46
$GPGGA,113116.000,5034.6153,N,00227.5484,W,1,09,1.1,3.41,M,48.8,M,,0000*79
$GPGSA,M,3,06,13,29,31,16,21,30,03,05,,,,2.3,1.1,2.1*30
$GPGSV,3,1,12,21,61,136,37,30,52,136,39,16,43,299,37,06,37,260,44*76
$GPGSV,3,2,12,29,34,070,34,31,32,201,46,03,21,262,45,05,11,034,33*70
$GPGSV,3,3,12,13,10,315,34,18,06,135,25,23,05,290,35,25,05,124,34*7D
$GPRMC,113116.000,A,5034.6153,N,00227.5484,W,10.11,185.53,161011,,,A*4D
$GPGGA,113117.000,5034.6127,N,00227.5494,W,1,09,1.1,3.19,M,48.8,M,,0000*77
$GPGSA,M,3,06,13,29,31,16,21,30,03,05,,,,2.3,1.1,2.1*30
$GPRMC,113117.000,A,5034.6127,N,00227.5494,W,9.37,201.22,161011,,,A*7B
$GPGGA,113118.000,5034.6104,N,00227.5511,W,1,09,1.1,3.18,M,48.8,M,,0000*74
$GPGSA,M,3,06,13,29,31,16,21,30,03,05,,,,2.3,1.1,2.1*30
$GPRMC,113118.000,A,5034.6104,N,00227.5511,W,8.69,204.69,161011,,,A*79
$GPGGA,113119.000,5034.6083,N,00227.5525,W,1,09,1.1,3.07,M,48.8,M,,0000*72
$GPGSA,M,3,06,13,29,31,16,21,30,03,05,,,,2.3,1.1,2.1*30
$GPRMC,113119.000,A,5034.6083,N,00227.5525,W,7.59,200.93,161011,,,A*7C
$GPGGA,113120.000,5034.6065,N,00227.5537,W,1,09,1.1,2.96,M,48.8,M,,0000*7A
$GPGSA,M,3,06,13,29,31,16,21,30,03,05,,,,2.3,1.1,2.1*30
$GPRMC,113120.000,A,5034.6065,N,00227.5537,W,6.82,205.43,161011,,,A*72
$GPGGA,113121.000,5034.6048,N,00227.5549,W,1,09,1.1,3.09,M,48.8,M,,0000*7A
$GPGSA,M,3,06,13,29,31,16,21,30,03,05,,,,2.3,1.1,2.0*31
$GPGSV,3,1,12,21,61,136,37,30,52,136,37,16,43,299,40,06,37,260,44*78
$GPGSV,3,2,12,29,34,070,34,31,32,201,46,03,21,262,45,05,11,034,33*70
$GPGSV,3,3,12,13,10,315,43,18,06,135,28,23,05,290,39,25,05,124,28*71
$GPRMC,113121.000,A,5034.6048,N,00227.5549,W,6.67,199.26,161011,,,A*7B
$GPGGA,113122.000,5034.6033,N,00227.5560,W,1,09,1.1,2.96,M,48.8,M,,0000*79
$GPGSA,M,3,06,13,29,31,16,21,30,03,05,,,,2.3,1.1,2.0*31
$GPRMC,113122.000,A,5034.6033,N,00227.5560,W,5.51,209.05,161011,,,A*72
$GPGGA,113123.000,5034.6020,N,00227.5572,W,1,09,1.1,3.09,M,48.8,M,,0000*7E
$GPGSA,M,3,06,13,29,31,16,21,30,03,05,,,,2.3,1.1,2.0*31
$GPRMC,113123.000,A,5034.6020,N,00227.5572,W,5.05,206.95,161011,,,A*75
$GPGGA,113124.000,5034.6008,N,00227.5582,W,1,09,1.1,3.08,M,48.8,M,,0000*7D
$GPGSA,M,3,06,13,29,31,16,21,30,03,05,,,,2.3,1.1,2.0*31
$GPRMC,113124.000,A,5034.6008,N,00227.5582,W,4.80,207.70,161011,,,A*71
$GPGGA,113125.000,5034.5996,N,00227.5593,W,1,09,1.1,2.94,M,48.8,M,,0000*75
$GPGSA,M,3,06,13,29,31,16,21,30,03,05,,,,2.3,1.1,2.0*31
$GPRMC,113125.000,A,5034.5996,N,00227.5593,W,5.23,206.57,161011,,,A*71
$GPGGA,113126.000,5034.5982,N,00227.5604,W,1,09,1.1,2.81,M,48.8,M,,0000*7A
$GPGSA,M,3,06,13,29,31,16,21,30,03,05,,,,2.3,1.1,2.0*31
$GPGSV,3,1,12,21,61,136,39,30,52,136,42,16,43,299,42,06,37,260,46*74
$GPGSV,3,2,12,29,34,070,35,31,32,201,43,03,21,262,46,05,11,034,29*7C
$GPGSV,3,3,12,13,10,315,44,18,06,135,34,23,05,290,41,25,05,124,34*79
$GPRMC,113126.000,A,5034.5982,N,00227.5604,W,5.95,201.60,161011,,,A*74
$GPGGA,113127.000,5034.5966,N,00227.5614,W,1,09,1.1,2.86,M,48.8,M,,0000*77
$GPGSA,M,3,06,13,29,31,16,21,30,03,05,,,,2.3,1.1,2.0*31
$GPRMC,113127.000,A,5034.5966,N,00227.5614,W,6.62,200.18,161011,,,A*7B
$GPGGA,113128.000,5034.5949,N,00227.5627,W,1,09,1.1,2.96,M,48.8,M,,0000*74
$GPGSA,M,3,06,13,29,31,16,21,30,03,05,,,,2.3,1.1,2.0*31
$GPRMC,113128.000,A,5034.5949,N,00227.5627,W,6.88,206.25,161011,,,A*75
$GPGGA,113129.000,5034.5932,N,00227.5641,W,1,09,1.1,2.96,M,48.8,M,,0000*79
$GPGSA,M,3,06,13,29,31,16,21,30,03,05,,,,2.3,1.1,2.0*31
$GPRMC,113129.000,A,5034.5932,N,00227.5641,W,6.78,206.76,161011,,,A*71
$GPGGA,113130.000,5034.5916,N,00227.5654,W,1,09,1.1,2.97,M,48.8,M,,0000*72
$GPGSA,M,3,06,13,29,31,16,21,30,03,05,,,,2.3,1.1,2.0*31
$GPRMC,113130.000,A,5034.5916,N,00227.5654,W,5.82,204.76,161011,,,A*7F
$GPGGA,113131.000,5034.5902,N,00227.5664,W,1,09,1.1,2.78,M,48.8,M,,0000*74
$GPGSA,M,3,06,13,29,31,16,21,30,03,05,,,,2.3,1.1,2.0*31
$GPGSV,3,1,12,21,61,136,36,30,52,136,40,16,43,299,42,06,37,260,45*7A
$GPGSV,3,2,12,29,34,070,30,31,32,201,45,03,21,262,44,05,11,034,34*71
$GPGSV,3,3,12,13,10,315,41,18,06,135,31,23,05,290,41,25,05,124,32*7F
$GPRMC,113131.000,A,5034.5902,N,00227.5664,W,5.13,200.25,161011,,,A*72
$GPGGA,113132.000,5034.5889,N,00227.5670,W,1,09,1.1,2.81,M,48.8,M,,0000*76
$GPGSA,M,3,06,13,29,31,16,21,30,03,05,,,,2.3,1.1,2.0*31
$GPRMC,113132.000,A,5034.5889,N,00227.5670,W,5.27,188.17,161011,,,A*73
$GPGGA,113133.000,5034.5873,N,00227.5673,W,1,09,1.1,2.84,M,48.8,M,,0000*74
$GPGSA,M,3,06,13,29,31,16,21,30,03,05,,,,2.3,1.1,2.0*31
$GPRMC,113133.000,A,5034.5873,N,00227.5673,W,6.29,183.22,161011,,,A*74
$GPGGA,113134.000,5034.5855,N,00227.5676,W,1,09,1.1,2.83,M,48.8,M,,0000*75
$GPGSA,M,3,06,13,29,31,16,21,30,03,05,,,,2.3,1.1,2.0*31
$GPRMC,113134.000,A,5034.5855,N,00227.5676,W,6.60,186.45,161011,,,A*7B
$GPGGA,113135.000,5034.5836,N,00227.5679,W,1,09,1.1,2.94,M,48.8,M,,0000*78
$GPGSA,M,3,06,13,29,31,16,21,30,03,05,,,,2.3,1.1,2.0*31
$GPRMC,113135.000,A,5034.5836,N,00227.5679,W,6.69,180.74,161011,,,A*7D
$GPGGA,113136.000,5034.5819,N,00227.5682,W,1,09,1.1,2.85,M,48.8,M,,0000*72
$GPGSA,M,3,06,13,29,31,16,21,30,03,05,,,,2.3,1.1,2.0*31
$GPGSV,3,1,12,21,61,136,36,30,52,136,35,16,43,299,42,06,37,260,45*78
$GPGSV,3,2,12,29,34,070,35,31,32,201,46,03,21,262,46,05,11,034,28*78
$GPGSV,3,3,12,13,10,315,42,18,06,135,26,23,05,290,42,25,05,124,34*7F
$GPRMC,113136.000,A,5034.5819,N,00227.5682,W,6.10,189.77,161011,,,A*73
$GPGGA,113137.000,5034.5803,N,00227.5690,W,1,09,1.1,2.85,M,48.8,M,,0000*7B
$GPGSA,M,3,06,13,29,31,16,21,30,03,05,,,,2.3,1.1,2.0*31
$GPRMC,113137.000,A,5034.5803,N,00227.5690,W,6.05,198.77,161011,,,A*7E
$GPGGA,113138.000,5034.5786,N,00227.5700,W,1,09,1.1,2.73,M,48.8,M,,0000*77
$GPGSA,M,3,06,13,29,31,16,21,30,03,05,,,,2.3,1.1,2.0*31
$GPRMC,113138.000,A,5034.5786,N,00227.5700,W,6.42,196.95,161011,,,A*7A
$GPGGA,113139.000,5034.5768,N,00227.5709,W,1,09,1.1,2.74,M,48.8,M,,0000*78
$GPGSA,M,3,06,13,29,31,16,21,30,03,05,,,,2.3,1.1,2.0*31
$GPRMC,113139.000,A,5034.5768,N,00227.5709,W,7.03,192.31,161011,,,A*7C
$GPGGA,113140.000,5034.5747,N,00227.5715,W,1,09,1.1,2.74,M,48.8,M,,0000*76
$GPGSA,M,3,06,13,29,31,16,21,30,03,05,,,,2.3,1.1,2.0*31
$GPRMC,113140.000,A,5034.5747,N,00227.5715,W,7.90,188.45,161011,,,A*70
$GPGGA,113141.000,5034.5725,N,00227.5720,W,1,09,1.1,2.80,M,48.8,M,,0000*7E
$GPGSA,M,3,06,13,29,31,16,21,30,03,05,,,,2.3,1.1,2.0*31
$GPGSV,3,1,12,21,62,135,35,30,52,136,36,16,43,299,43,06,37,260,44*78
$GPGSV,3,2,12,29,34,070,33,31,32,201,46,03,22,262,39,05,11,034,33*7F
$GPGSV,3,3,12,13,10,315,44,18,06,135,35,23,05,290,42,25,05,124,29*77
$GPRMC,113141.000,A,5034.5725,N,00227.5720,W,8.50,183.34,161011,,,A*7D
$GPGGA,113142.000,5034.5701,N,00227.5723,W,1,09,1.1,2.71,M,48.8,M,,0000*76
$GPGSA,M,3,06,13,29,31,16,21,30,03,05,,,,2.3,1.1,2.0*31
$GPRMC,113142.000,A,5034.5701,N,00227.5723,W,8.94,184.97,161011,,,A*7D
$GPGGA,113143.000,5034.5675,N,00227.5726,W,1,09,1.1,2.71,M,48.8,M,,0000*70
$GPGSA,M,3,06,13,29,31,16,21,30,03,05,,,,2.3,1.1,2.0*31
$GPRMC,113143.000,A,5034.5675,N,00227.5726,W,9.62,183.34,161011,,,A*7D
$GPGGA,113144.000,5034.5648,N,00227.5731,W,1,09,1.1,2.56,M,48.8,M,,0000*7A
$GPGSA,M,3,06,13,29,31,16,21,30,03,05,,,,2.3,1.1,2.0*31
$GPRMC,113144.000,A,5034.5648,N,00227.5731,W,10.29,187.66,161011,,,A*46
$GPGGA,113145.000,5034.5618,N,00227.5737,W,1,09,1.1,2.62,M,48.8,M,,0000*7F
$GPGSA,M,3,06,13,29,31,16,21,30,03,05,,,,2.3,1.1,2.0*31
$GPRMC,113145.000,A,5034.5618,N,00227.5737,W,11.08,185.59,161011,,,A*48
$GPGGA,113146.000,5034.5587,N,00227.5740,W,1,09,1.1,2.84,M,48.8,M,,0000*71
$GPGSA,M,3,06,13,29,31,16,21,30,03,05,,,,2.3,1.1,2.0*31
$GPGSV,3,1,12,21,62,135,35,30,52,136,36,16,43,300,42,06,37,260,44*78
$GPGSV,3,2,12,29,34,070,37,31,32,201,47,03,22,262,44,05,11,034,31*72
$GPGSV,3,3,12,13,10,315,43,18,06,135,35,23,05,290,42,25,05,124,35*7D
$GPRMC,113146.000,A,5034.5587,N,00227.5740,W,11.60,179.12,161011,,,A*4C
$GPGGA,113147.000,5034.5554,N,00227.5740,W,1,09,1.1,3.02,M,48.8,M,,0000*71
$GPGSA,M,3,06,13,29,31,16,21,30,03,05,,,,2.3,1.1,2.0*31
$GPRMC,113147.000,A,5034.5554,N,00227.5740,W,11.99,180.58,161011,,,A*4D
$GPGGA,113148.000,5034.5520,N,00227.5741,W,1,09,1.1,3.17,M,48.8,M,,0000*78
$GPGSA,M,3,06,13,29,31,16,21,30,03,05,,,,2.3,1.1,2.0*31
$GPRMC,113148.000,A,5034.5520,N,00227.5741,W,12.50,180.02,161011,,,A*49
$GPGGA,113149.000,5034.5484,N,00227.5741,W,1,09,1.1,3.04,M,48.8,M,,0000*74
$GPGSA,M,3,06,13,29,31,16,21,30,03,05,,,,2.3,1.1,2.0*31
$GPRMC,113149.000,A,5034.5484,N,00227.5741,W,12.77,180.01,161011,,,A*41
$GPGGA,113150.000,5034.5448,N,00227.5740,W,1,09,1.1,3.05,M,48.8,M,,0000*7C
$GPGSA,M,3,06,13,29,31,16,21,30,03,05,,,,2.3,1.1,2.0*31
$GPRMC,113150.000,A,5034.5448,N,00227.5740,W,13.52,176.27,161011,,,A*43
$GPGGA,113151.000,5034.5410,N,00227.5736,W,1,09,1.1,3.14,M,48.8,M,,0000*71
$GPGSA,M,3,06,13,29,31,16,21,30,03,05,,,,2.3,1.1,2.0*31
$GPGSV,3,1,12,21,62,135,36,30,52,136,40,16,43,300,41,06,37,260,44*79
$GPGSV,3,2,12,29,34,070,35,31,32,201,47,03,22,262,42,05,11,034,33*74
$GPGSV,3,3,12,13,10,315,36,18,06,135,35,23,05,290,41,25,05,124,37*7E
$GPRMC,113151.000,A,5034.5410,N,00227.5736,W,13.99,174.99,161011,,,A*4E
$GPGGA,113152.000,5034.5371,N,00227.5732,W,1,09,1.1,3.17,M,48.8,M,,0000*75
$GPGSA,M,3,06,13,29,31,16,21,30,03,05,,,,2.3,1.1,2.0*31
$GPRMC,113152.000,A,5034.5371,N,00227.5732,W,14.04,176.99,161011,,,A*48
$GPGGA,113153.000,5034.5332,N,00227.5733,W,1,09,1.1,3.36,M,48.8,M,,0000*71
$GPGSA,M,3,06,13,29,31,16,21,30,03,05,,,,2.3,1.1,2.0*31
$GPRMC,113153.000,A,5034.5332,N,00227.5733,W,13.94,182.43,161011,,,A*4D
$GPGGA,113154.000,5034.5293,N,00227.5734,W,1,09,1.1,3.34,M,48.8,M,,0000*79
$GPGSA,M,3,06,13,29,31,16,21,30,03,05,,,,2.3,1.1,2.0*31
$GPRMC,113154.000,A,5034.5293,N,00227.5734,W,13.70,180.40,161011,,,A*4C
$GPGGA,113155.000,5034.5256,N,00227.5736,W,1,09,1.1,3.33,M,48.8,M,,0000*74
$GPGSA,M,3,06,13,29,31,16,21,30,03,05,,,,2.3,1.1,2.0*31
$GPRMC,113155.000,A,5034.5256,N,00227.5736,W,12.75,183.78,161011,,,A*4A
$GPGGA,113156.000,5034.5221,N,00227.5738,W,1,09,1.1,3.46,M,48.8,M,,0000*7B
$GPGSA,M,3,06,13,29,31,16,21,30,03,05,,,,2.3,1.1,2.0*31
$GPGSV,3,1,12,21,62,135,40,30,52,136,41,16,43,300,37,06,37,260,44*78
$GPGSV,3,2,12,29,34,070,30,31,32,201,47,03,22,262,42,05,11,034,33*71
$GPGSV,3,3,12,13,10,315,36,18,06,135,36,23,05,290,36,25,05,124,39*73
$GPRMC,113156.000,A,5034.5221,N,00227.5738,W,12.46,179.09,161011,,,A*44
$GPGGA,113157.000,5034.5187,N,00227.5735,W,1,09,1.1,3.69,M,48.8,M,,0000*75
$GPGSA,M,3,06,13,29,31,16,21,30,03,05,,,,2.3,1.1,2.0*31
$GPRMC,113157.000,A,5034.5187,N,00227.5735,W,12.34,171.91,161011,,,A*4B
$GPGGA,113158.000,5034.5153,N,00227.5732,W,1,09,1.1,3.87,M,48.8,M,,0000*74
$GPGSA,M,3,06,13,29,31,16,21,30,03,05,,,,2.3,1.1,2.0*31
$GPRMC,113158.000,A,5034.5153,N,00227.5732,W,12.27,180.09,161011,,,A*47
$GPGGA,113159.000,5034.5118,N,00227.5736,W,1,09,1.1,3.94,M,48.8,M,,0000*7C
$GPGSA,M,3,06,13,29,31,16,21,30,03,05,,,,2.3,1.1,2.0*31
$GPRMC,113159.000,A,5034.5118,N,00227.5736,W,12.86,187.84,161011,,,A*44
$GPGGA,113200.000,5034.5082,N,00227.5743,W,1,09,1.1,4.07,M,48.8,M,,0000*7E
$GPGSA,M,3,06,13,29,31,16,21,30,03,05,,,,2.3,1.1,2.0*31
$GPRMC,113200.000,A,5034.5082,N,00227.5743,W,12.88,183.45,161011,,,A*4C
$GPGGA,113201.000,5034.5047,N,00227.5748,W,1,09,1.1,4.29,M,48.8,M,,0000*71
$GPGSA,M,3,06,13,29,31,16,21,30,03,05,,,,2.3,1.1,2.0*31
$GPGSV,3,1,12,21,62,135,35,30,52,136,40,16,43,300,38,06,37,260,44*74
$GPGSV,3,2,12,29,34,070,38,31,32,201,47,03,22,262,42,05,11,034,34*7E
$GPGSV,3,3,12,13,10,315,37,18,06,135,36,23,05,290,41,25,05,124,36*7D
$GPRMC,113201.000,A,5034.5047,N,00227.5748,W,12.79,184.79,161011,,,A*49
$GPGGA,113202.000,5034.5011,N,00227.5756,W,1,09,1.1,4.46,M,48.8,M,,0000*77
$GPGSA,M,3,06,13,29,31,16,21,30,03,05,,,,2.3,1.1,2.0*31
$GPRMC,113202.000,A,5034.5011,N,00227.5756,W,12.83,190.22,161011,,,A*48
$GPGGA,113203.000,5034.4976,N,00227.5768,W,1,09,1.1,4.57,M,48.8,M,,0000*72
$GPGSA,M,3,06,13,29,31,16,21,30,03,05,,,,2.3,1.1,2.0*31
$GPRMC,113203.000,A,5034.4976,N,00227.5768,W,13.02,191.42,161011,,,A*42
$GPGGA,113204.000,5034.4940,N,00227.5780,W,1,09,1.1,4.72,M,48.8,M,,0000*71
$GPGSA,M,3,06,13,29,31,16,21,30,03,05,,,,2.3,1.1,2.0*31
$GPRMC,113204.000,A,5034.4940,N,00227.5780,W,13.08,191.08,161011,,,A*42
$GPGGA,113205.000,5034.4905,N,00227.5792,W,1,09,1.1,4.83,M,48.8,M,,0000*7C
$GPGSA,M,3,06,13,29,31,16,21,30,03,05,,,,2.3,1.1,2.0*31
$GPRMC,113205.000,A,5034.4905,N,00227.5792,W,12.55,191.30,161011,,,A*43
$GPGGA,113206.000,5034.4872,N,00227.5803,W,1,09,1.1,4.87,M,48.8,M,,0000*7D
$GPGSA,M,3,06,13,29,31,16,21,30,03,05,,,,2.3,1.1,2.0*31
$GPGSV,3,1,12,21,62,135,35,30,52,136,39,16,43,300,39,06,37,260,43*7C
$GPGSV,3,2,12,29,34,070,37,31,32,201,47,03,22,262,42,05,11,034,35*70
$GPGSV,3,3,12,13,10,315,37,18,06,135,31,23,05,290,41,25,05,124,33*7F
$GPRMC,113206.000,A,5034.4872,N,00227.5803,W,12.13,190.93,161011,,,A*4C
$GPGGA,113207.000,5034.4839,N,00227.5816,W,1,09,1.1,4.94,M,48.8,M,,0000*75
$GPGSA,M,3,06,13,29,31,16,21,30,03,05,,,,2.3,1.1,2.0*31
$GPRMC,113207.000,A,5034.4839,N,00227.5816,W,12.05,194.28,161011,,,A*45
$GPGGA,113208.000,5034.4806,N,00227.5830,W,1,09,1.1,5.00,M,48.8,M,,0000*7E
$GPGSA,M,3,06,13,29,31,16,21,30,03,05,,,,2.3,1.1,2.0*31
$GPRMC,113208.000,A,5034.4806,N,00227.5830,W,12.11,194.43,161011,,,A*4A
$GPGGA,113209.000,5034.4775,N,00227.5845,W,1,09,1.1,5.03,M,48.8,M,,0000*75
$GPGSA,M,3,06,13,29,31,16,21,30,03,05,,,,2.3,1.1,2.0*31
$GPRMC,113209.000,A,5034.4775,N,00227.5845,W,11.80,196.94,161011,,,A*41
$GPGGA,113210.000,5034.4744,N,00227.5859,W,1,09,1.1,5.01,M,48.8,M,,0000*70
$GPGSA,M,3,06,13,29,31,16,21,30,03,05,,,,2.3,1.1,2.0*31
$GPRMC,113210.000,A,5034.4744,N,00227.5859,W,11.45,193.86,161011,,,A*49
$GPGGA,113211.000,5034.4713,N,00227.5870,W,1,09,1.1,5.11,M,48.8,M,,0000*79
$GPGSA,M,3,06,13,29,31,16,21,30,03,05,,,,2.3,1.1,2.0*31
$GPGSV,3,1,12,21,62,135,36,30,51,137,39,16,43,300,40,06,38,260,43*7C
$GPGSV,3,2,12,29,34,070,37,31,32,201,47,03,22,263,42,05,11,034,39*7D
$GPGSV,3,3,12,13,10,314,38,18,06,135,31,23,05,290,41,25,05,124,31*73
$GPRMC,113211.000,A,5034.4713,N,00227.5870,W,11.33,188.70,161011,,,A*43
$GPGGA,113212.000,5034.4681,N,00227.5879,W,1,09,1.1,5.13,M,48.8,M,,0000*7B
$GPGSA,M,3,06,13,29,31,16,21,30,03,05,,,,2.3,1.1,2.0*31
$GPRMC,113212.000,A,5034.4681,N,00227.5879,W,11.57,190.91,161011,,,A*47
$GPGGA,113213.000,5034.4649,N,00227.5893,W,1,09,1.1,5.02,M,48.8,M,,0000*7A
