$GPGGA,123641.000,5034.2880,N,00227.4173,W,1,10,0.9,10.08,M,48.8,M,,0000*4E
$GPGSA,M,3,22,16,07,29,30,18,06,21,03,19,,,1.4,0.9,1.1*3D
$GPGSV,3,1,11,16,71,281,37,06,64,279,39,21,59,074,39,03,48,278,44*73
$GPGSV,3,2,11,18,28,116,40,30,22,147,44,19,18,266,40,07,11,330,27*7D
$GPGSV,3,3,11,22,10,154,47,29,10,084,36,31,04,192,43*43
$GPRMC,123641.000,A,5034.2880,N,00227.4173,W,0.14,165.48,161011,,,A*74
$GPGGA,123642.000,5034.2880,N,00227.4173,W,1,10,0.9,10.11,M,48.8,M,,0000*45
$GPGSA,M,3,22,16,07,29,30,18,06,21,03,19,,,1.4,0.9,1.1*3D
$GPRMC,123642.000,A,5034.2880,N,00227.4173,W,0.25,145.48,161011,,,A*77
$GPGGA,123643.000,5034.2880,N,00227.4173,W,1,10,0.9,10.21,M,48.8,M,,0000*47
$GPGSA,M,3,22,16,07,29,30,18,06,21,03,19,,,1.4,0.9,1.1*3D
$GPRMC,123643.000,A,5034.2880,N,00227.4173,W,0.11,68.81,161011,,,A*4A
$GPGGA,123644.000,5034.2880,N,00227.4173,W,1,10,0.9,10.28,M,48.8,M,,0000*49
$GPGSA,M,3,22,16,07,29,30,18,06,21,03,19,,,1.4,0.9,1.1*3D
$GPRMC,123644.000,A,5034.2880,N,00227.4173,W,0.06,177.56,161011,,,A*7E
$GPGGA,123645.000,5034.2880,N,00227.4173,W,1,10,0.9,10.35,M,48.8,M,,0000*44
$GPGSA,M,3,22,16,07,29,30,18,06,21,03,19,,,1.4,0.9,1.1*3D
$GPRMC,123645.000,A,5034.2880,N,00227.4173,W,0.03,30.54,161011,,,A*4A
$GPGGA,123646.000,5034.2879,N,00227.4173,W,1,10,0.9,10.49,M,48.8,M,,0000*4A
$GPGSA,M,3,22,16,07,29,30,18,06,21,03,19,,,1.4,0.9,1.1*3D
$GPGSV,3,1,11,16,71,281,36,06,64,279,39,21,59,074,40,03,48,278,42*7A
$GPGSV,3,2,11,18,28,116,42,30,22,147,47,19,18,266,40,07,11,330,30*7A
$GPGSV,3,3,11,22,10,154,49,29,10,084,35,31,04,192,43*4E
$GPRMC,123646.000,A,5034.2879,N,00227.4173,W,0.20,109.01,161011,,,A*75
$GPGGA,123647.000,5034.2880,N,00227.4173,W,1,10,0.9,10.51,M,48.8,M,,0000*44
$GPGSA,M,3,22,16,07,29,30,18,06,21,03,19,,,1.4,0.9,1.1*3D
$GPRMC,123647.000,A,5034.2880,N,00227.4173,W,0.10,6.83,161011,,,A*75
$GPGGA,123648.000,5034.2880,N,00227.4173,W,1,10,0.9,10.58,M,48.8,M,,0000*42
$GPGSA,M,3,22,16,07,29,30,18,06,21,03,19,,,1.4,0.9,1.1*3D
$GPRMC,123648.000,A,5034.2880,N,00227.4173,W,0.30,77.13,161011,,,A*47
$GPGGA,123649.000,5034.2880,N,00227.4172,W,1,10,0.9,10.58,M,48.8,M,,0000*42
$GPGSA,M,3,22,16,07,29,30,18,06,21,03,19,,,1.4,0.9,1.1*3D
$GPRMC,123649.000,A,5034.2880,N,00227.4172,W,0.40,1.02,161011,,,A*71
$GPGGA,123650.000,5034.2881,N,00227.4171,W,1,10,0.9,10.57,M,48.8,M,,0000*47
$GPGSA,M,3,22,16,07,29,30,18,06,21,03,19,,,1.4,0.9,1.1*3D
$GPRMC,123650.000,A,5034.2881,N,00227.4171,W,0.58,70.29,161011,,,A*4D
$GPGGA,123651.000,5034.2881,N,00227.4170,W,1,10,0.9,10.67,M,48.8,M,,0000*44
$GPGSA,M,3,22,16,07,29,30,18,06,21,03,19,,,1.4,0.9,1.1*3D
$GPGSV,3,1,11,16,71,281,36,06,64,279,37,21,59,074,41,03,48,278,35*75
$GPGSV,3,2,11,18,28,116,48,30,22,147,42,19,18,266,30,07,11,330,30*72
$GPGSV,3,3,11,22,10,154,49,29,10,084,44,31,04,192,43*48
$GPRMC,123651.000,A,5034.2881,N,00227.4170,W,0.13,175.46,161011,,,A*7F
$GPGGA,123652.000,5034.2881,N,00227.4170,W,1,10,0.9,10.78,M,48.8,M,,0000*49
$GPGSA,M,3,22,16,07,29,30,18,06,21,03,19,,,1.4,0.9,1.1*3D
$GPRMC,123652.000,A,5034.2881,N,00227.4170,W,0.02,176.91,161011,,,A*75
$GPGGA,123653.000,5034.2881,N,00227.4170,W,1,10,0.9,10.79,M,48.8,M,,0000*49
$GPGSA,M,3,22,16,07,29,30,18,06,21,03,19,,,1.4,0.9,1.1*3D
$GPRMC,123653.000,A,5034.2881,N,00227.4170,W,0.05,112.54,161011,,,A*78
$GPGGA,123654.000,5034.2881,N,00227.4171,W,1,10,0.9,10.77,M,48.8,M,,0000*41
$GPGSA,M,3,22,16,07,29,30,18,06,21,03,19,,,1.4,0.9,1.1*3D
$GPRMC,123654.000,A,5034.2881,N,00227.4171,W,0.15,204.92,161011,,,A*71
$GPGGA,123655.000,5034.2880,N,00227.4171,W,1,10,0.9,10.76,M,48.8,M,,0000*40
$GPGSA,M,3,22,16,07,29,30,18,06,21,03,19,,,1.4,0.9,1.1*3D
$GPRMC,123655.000,A,5034.2880,N,00227.4171,W,0.04,16.26,161011,,,A*4F
$GPGGA,123656.000,5034.2881,N,00227.4171,W,1,10,0.9,10.71,M,48.8,M,,0000*45
$GPGSA,M,3,22,16,07,29,30,18,06,21,03,19,,,1.4,0.9,1.1*3D
$GPGSV,3,1,11,16,71,281,36,06,64,279,34,21,59,074,41,03,48,278,34*77
$GPGSV,3,2,11,18,28,116,48,30,22,147,42,19,18,266,38,07,11,330,31*7B
$GPGSV,3,3,11,22,10,154,50,29,10,084,44,31,04,192,43*40
$GPRMC,123656.000,A,5034.2881,N,00227.4171,W,0.03,347.20,161011,,,A*7B
$GPGGA,123657.000,5034.2881,N,00227.4171,W,1,10,0.9,10.69,M,48.8,M,,0000*4D
$GPGSA,M,3,22,16,07,29,30,18,06,21,03,19,,,1.4,0.9,1.1*3D
$GPRMC,123657.000,A,5034.2881,N,00227.4171,W,0.10,47.28,161011,,,A*43
$GPGGA,123658.000,5034.2881,N,00227.4171,W,1,10,0.9,10.68,M,48.8,M,,0000*43
$GPGSA,M,3,22,16,07,29,30,18,06,21,03,19,,,1.4,0.9,1.1*3D
$GPRMC,123658.000,A,5034.2881,N,00227.4171,W,0.07,69.66,161011,,,A*4C
$GPGGA,123659.000,5034.2881,N,00227.4171,W,1,10,0.9,10.68,M,48.8,M,,0000*42
$GPGSA,M,3,22,16,07,29,30,18,06,21,03,19,,,1.4,0.9,1.1*3D
$GPRMC,123659.000,A,5034.2881,N,00227.4171,W,0.42,31.50,161011,,,A*44
$GPGGA,123700.000,5034.2881,N,00227.4170,W,1,10,0.9,10.88,M,48.8,M,,0000*40
$GPGSA,M,3,22,16,07,29,30,18,06,21,03,19,,,1.4,0.9,1.1*3D
$GPRMC,123700.000,A,5034.2881,N,00227.4170,W,0.07,59.78,161011,,,A*4D
$GPGGA,123701.000,5034.2881,N,00227.4170,W,1,10,0.9,11.03,M,48.8,M,,0000*43
$GPGSA,M,3,22,16,07,29,30,18,06,21,03,19,,,1.4,0.9,1.1*3D
$GPGSV,3,1,11,16,71,281,36,06,64,279,35,21,59,074,45,03,48,278,31*77
$GPGSV,3,2,11,18,28,116,47,30,22,147,40,19,18,266,27,07,11,330,38*71
$GPGSV,3,3,11,22,10,154,50,29,10,084,44,31,04,192,43*40
$GPRMC,123701.000,A,5034.2881,N,00227.4170,W,0.09,54.31,161011,,,A*42
$GPGGA,123702.000,5034.2881,N,00227.4170,W,1,09,1.1,11.14,M,48.8,M,,0000*47
$GPGSA,M,3,22,16,07,29,30,18,06,21,03,,,,1.6,1.1,1.2*3D
$GPRMC,123702.000,A,5034.2881,N,00227.4170,W,0.09,86.65,161011,,,A*4F
$GPGGA,123703.000,5034.2880,N,00227.4169,W,1,09,1.1,11.22,M,48.8,M,,0000*4A
$GPGSA,M,3,22,16,07,29,30,18,06,21,03,,,,1.6,1.1,1.2*3D
$GPRMC,123703.000,A,5034.2880,N,00227.4169,W,0.04,190.11,161011,,,A*7F
$GPGGA,123704.000,5034.2880,N,00227.4169,W,1,10,0.9,11.22,M,48.8,M,,0000*4C
$GPGSA,M,3,22,16,07,29,30,18,06,21,03,19,,,1.4,0.9,1.1*3D
$GPRMC,123704.000,A,5034.2880,N,00227.4169,W,0.07,79.26,161011,,,A*49
$GPGGA,123705.000,5034.2880,N,00227.4170,W,1,10,0.9,11.11,M,48.8,M,,0000*45
$GPGSA,M,3,22,16,07,29,30,18,06,21,03,19,,,1.4,0.9,1.1*3D
$GPRMC,123705.000,A,5034.2880,N,00227.4170,W,0.10,200.92,161011,,,A*75
$GPGGA,123706.000,5034.2880,N,00227.4170,W,1,10,0.9,11.01,M,48.8,M,,0000*47
$GPGSA,M,3,22,16,07,29,30,18,06,21,03,19,,,1.4,0.9,1.1*3D
$GPGSV,3,1,11,16,71,281,36,06,64,279,32,21,59,074,41,03,48,278,42*70
$GPGSV,3,2,11,18,28,116,47,30,22,147,43,19,18,266,37,07,11,330,32*79
$GPGSV,3,3,11,22,10,154,50,29,10,084,44,31,04,192,43*40
$GPRMC,123706.000,A,5034.2880,N,00227.4170,W,0.13,30.53,161011,,,A*49
$GPGGA,123707.000,5034.2881,N,00227.4170,W,1,10,0.9,10.94,M,48.8,M,,0000*4A
$GPGSA,M,3,22,16,07,29,30,18,06,21,03,19,,,1.4,0.9,1.1*3D
$GPRMC,123707.000,A,5034.2881,N,00227.4170,W,0.05,59.40,161011,,,A*43
$GPGGA,123708.000,5034.2881,N,00227.4170,W,1,10,0.9,10.92,M,48.8,M,,0000*43
$GPGSA,M,3,22,16,07,29,30,18,06,21,03,19,,,1.4,0.9,1.1*3D
$GPRMC,123708.000,A,5034.2881,N,00227.4170,W,0.14,39.52,161011,,,A*49
$GPGGA,123709.000,5034.2881,N,00227.4170,W,1,10,0.9,10.84,M,48.8,M,,0000*45
$GPGSA,M,3,22,16,07,29,30,18,06,21,03,19,,,1.4,0.9,1.1*3D
$GPRMC,123709.000,A,5034.2881,N,00227.4170,W,0.06,3.43,161011,,,A*72
$GPGGA,123710.000,5034.2881,N,00227.4170,W,1,10,0.9,10.86,M,48.8,M,,0000*4F
$GPGSA,M,3,22,16,07,29,30,18,06,21,03,19,,,1.4,0.9,1.1*3D
$GPRMC,123710.000,A,5034.2881,N,00227.4170,W,0.13,70.20,161011,,,A*4F
$GPGGA,123711.000,5034.2881,N,00227.4169,W,1,10,0.9,10.93,M,48.8,M,,0000*42
$GPGSA,M,3,22,16,07,29,30,18,06,21,03,19,,,1.4,0.9,1.1*3D
$GPGSV,3,1,11,16,71,281,36,06,64,279,33,21,59,074,41,03,48,278,41*72
$GPGSV,3,2,11,18,28,116,47,30,22,147,45,19,18,266,38,07,11,330,28*7B
$GPGSV,3,3,11,22,10,154,50,29,10,084,44,31,04,192,43*40
$GPRMC,123711.000,A,5034.2881,N,00227.4169,W,0.08,108.94,161011,,,A*7D
$GPGGA,123712.000,5034.2881,N,00227.4169,W,1,10,0.9,11.05,M,48.8,M,,0000*4F
$GPGSA,M,3,22,16,07,29,30,18,06,21,03,19,,,1.4,0.9,1.1*3D
$GPRMC,123712.000,A,5034.2881,N,00227.4169,W,0.06,245.41,161011,,,A*72
$GPGGA,123713.000,5034.2881,N,00227.4169,W,1,10,0.9,11.15,M,48.8,M,,0000*4F
$GPGSA,M,3,22,16,07,29,30,18,06,21,03,19,,,1.4,0.9,1.1*3D
$GPRMC,123713.000,A,5034.2881,N,00227.4169,W,0.31,154.62,161011,,,A*75
$GPGGA,123714.000,5034.2880,N,00227.4169,W,1,10,0.9,11.26,M,48.8,M,,0000*49
$GPGSA,M,3,22,16,07,29,30,18,06,21,03,19,,,1.4,0.9,1.1*3D
$GPRMC,123714.000,A,5034.2880,N,00227.4169,W,0.18,91.49,161011,,,A*49
$GPGGA,123715.000,5034.2880,N,00227.4169,W,1,10,0.9,11.36,M,48.8,M,,0000*49
$GPGSA,M,3,22,16,07,29,30,18,06,21,03,19,,,1.4,0.9,1.1*3D
$GPRMC,123715.000,A,5034.2880,N,00227.4169,W,0.05,153.75,161011,,,A*74
$GPGGA,123716.000,5034.2880,N,00227.4169,W,1,10,0.9,11.46,M,48.8,M,,0000*4D
$GPGSA,M,3,22,16,07,29,30,18,06,21,03,19,,,1.4,0.9,1.1*3D
$GPGSV,3,1,11,16,71,280,37,06,65,280,39,21,59,074,41,03,49,278,39*71
$GPGSV,3,2,11,18,28,116,46,30,21,147,46,19,18,267,37,07,11,329,32*77
$GPGSV,3,3,11,22,10,154,49,29,09,084,37,31,04,192,43*44
$GPRMC,123716.000,A,5034.2880,N,00227.4169,W,0.09,77.93,161011,,,A*44
$GPGGA,123717.000,5034.2880,N,00227.4169,W,1,10,0.9,11.53,M,48.8,M,,0000*48
$GPGSA,M,3,22,16,07,29,30,18,06,21,03,19,,,1.4,0.9,1.1*3D
$GPRMC,123717.000,A,5034.2880,N,00227.4169,W,0.05,306.23,161011,,,A*77
$GPGGA,123718.000,5034.2880,N,00227.4169,W,1,10,0.9,11.60,M,48.8,M,,0000*47
$GPGSA,M,3,22,16,07,29,30,18,06,21,03,19,,,1.4,0.9,1.1*3D
$GPRMC,123718.000,A,5034.2880,N,00227.4169,W,0.14,60.64,161011,,,A*48
$GPGGA,123719.000,5034.2880,N,00227.4169,W,1,10,0.9,11.63,M,48.8,M,,0000*45
$GPGSA,M,3,22,16,07,29,30,18,06,21,03,19,,,1.4,0.9,1.1*3D
$GPRMC,123719.000,A,5034.2880,N,00227.4169,W,0.07,114.13,161011,,,A*79
$GPGGA,123720.000,5034.2880,N,00227.4170,W,1,10,0.9,11.68,M,48.8,M,,0000*4C
$GPGSA,M,3,22,16,07,29,30,18,06,21,03,19,,,1.4,0.9,1.1*3D
$GPRMC,123720.000,A,5034.2880,N,00227.4170,W,0.14,356.07,161011,,,A*78
$GPGGA,123721.000,5034.2881,N,00227.4171,W,1,10,0.9,11.65,M,48.8,M,,0000*40
$GPGSA,M,3,22,16,07,29,30,18,06,21,03,19,,,1.4,0.9,1.1*3D
$GPGSV,3,1,11,16,71,280,37,06,65,280,31,21,59,074,41,03,49,278,40*77
$GPGSV,3,2,11,18,28,116,46,30,21,147,47,19,18,267,35,07,11,329,33*75
$GPGSV,3,3,11,22,10,154,50,29,09,084,42,31,04,192,43*4E
$GPRMC,123721.000,A,5034.2881,N,00227.4171,W,0.21,249.56,161011,,,A*74
$GPGGA,123722.000,5034.2881,N,00227.4171,W,1,10,0.9,11.64,M,48.8,M,,0000*42
$GPGSA,M,3,22,16,07,29,30,18,06,21,03,19,,,1.4,0.9,1.1*3D
$GPRMC,123722.000,A,5034.2881,N,00227.4171,W,0.33,48.01,161011,,,A*45
$GPGGA,123723.000,5034.2882,N,00227.4171,W,1,10,0.9,11.64,M,48.8,M,,0000*40
$GPGSA,M,3,22,16,07,29,30,18,06,21,03,19,,,1.4,0.9,1.1*3D
$GPRMC,123723.000,A,5034.2882,N,00227.4171,W,0.26,17.44,161011,,,A*48
$GPGGA,123724.000,5034.2882,N,00227.4171,W,1,10,0.9,11.65,M,48.8,M,,0000*46
$GPGSA,M,3,22,16,07,29,30,18,06,21,03,19,,,1.4,0.9,1.1*3D
$GPRMC,123724.000,A,5034.2882,N,00227.4171,W,0.18,356.92,161011,,,A*7F
$GPGGA,123725.000,5034.2882,N,00227.4171,W,1,10,0.9,11.62,M,48.8,M,,0000*40
$GPGSA,M,3,22,16,07,29,30,18,06,21,03,19,,,1.4,0.9,1.1*3D
$GPRMC,123725.000,A,5034.2882,N,00227.4171,W,0.34,180.63,161011,,,A*77
$GPGGA,123726.000,5034.2881,N,00227.4172,W,1,10,0.9,11.63,M,48.8,M,,0000*42
$GPGSA,M,3,22,16,07,29,30,18,06,21,03,19,,,1.4,0.9,1.1*3D
$GPGSV,3,1,11,16,71,280,34,06,65,280,36,21,59,074,41,03,49,278,37*73
$GPGSV,3,2,11,18,28,116,47,30,21,147,46,19,18,267,40,07,11,329,35*71
$GPGSV,3,3,11,22,10,154,49,29,09,084,43,31,04,192,40*44
$GPRMC,123726.000,A,5034.2881,N,00227.4172,W,0.02,71.26,161011,,,A*4F
$GPGGA,123727.000,5034.2881,N,00227.4172,W,1,10,0.9,11.64,M,48.8,M,,0000*44
$GPGSA,M,3,22,16,07,29,30,18,06,21,03,19,,,1.4,0.9,1.1*3D
$GPRMC,123727.000,A,5034.2881,N,00227.4172,W,0.04,161.53,161011,,,A*7A
$GPGGA,123728.000,5034.2882,N,00227.4171,W,1,10,0.9,11.71,M,48.8,M,,0000*4F
$GPGSA,M,3,22,16,07,29,30,18,06,21,03,19,,,1.4,0.9,1.1*3D
$GPRMC,123728.000,A,5034.2882,N,00227.4171,W,0.63,25.96,161011,,,A*4C
$GPGGA,123729.000,5034.2882,N,00227.4171,W,1,10,0.9,11.67,M,48.8,M,,0000*49
$GPGSA,M,3,22,16,07,29,30,18,06,21,03,19,,,1.4,0.9,1.1*3D
$GPRMC,123729.000,A,5034.2882,N,00227.4171,W,0.42,201.20,161011,,,A*77
$GPGGA,123730.000,5034.2881,N,00227.4172,W,1,10,0.9,11.69,M,48.8,M,,0000*4F
$GPGSA,M,3,22,16,07,29,30,18,06,21,03,19,,,1.4,0.9,1.1*3D
$GPRMC,123730.000,A,5034.2881,N,00227.4172,W,0.07,183.88,161011,,,A*75
$GPGGA,123731.000,5034.2881,N,00227.4172,W,1,10,0.9,11.69,M,48.8,M,,0000*4E
$GPGSA,M,3,22,16,07,29,30,18,06,21,03,19,,,1.4,0.9,1.1*3D
$GPGSV,3,1,11,16,71,280,36,06,65,280,42,21,59,074,41,03,49,278,38*7D
$GPGSV,3,2,11,18,28,116,47,30,21,147,46,19,18,267,42,07,11,329,35*73
$GPGSV,3,3,11,22,10,154,48,29,09,084,30,31,04,192,41*40
$GPRMC,123731.000,A,5034.2881,N,00227.4172,W,0.15,61.63,161011,,,A*4F
$GPGGA,123732.000,5034.2881,N,00227.4172,W,1,10,0.9,11.71,M,48.8,M,,0000*44
$GPGSA,M,3,22,16,07,29,30,18,06,21,03,19,,,1.4,0.9,1.1*3D
$GPRMC,123732.000,A,5034.2881,N,00227.4172,W,0.05,72.70,161011,,,A*4D
$GPGGA,123733.000,5034.2881,N,00227.4172,W,1,10,0.9,11.75,M,48.8,M,,0000*41
$GPGSA,M,3,22,16,07,29,30,18,06,21,03,19,,,1.4,0.9,1.1*3D
$GPRMC,123733.000,A,5034.2881,N,00227.4172,W,0.04,76.90,161011,,,A*47
$GPGGA,123734.000,5034.2881,N,00227.4172,W,1,10,0.9,11.78,M,48.8,M,,0000*4B
$GPGSA,M,3,22,16,07,29,30,18,06,21,03,19,,,1.4,0.9,1.1*3D
$GPRMC,123734.000,A,5034.2881,N,00227.4172,W,0.09,54.04,161011,,,A*40
$GPGGA,123735.000,5034.2881,N,00227.4172,W,1,10,0.9,11.80,M,48.8,M,,0000*4D
$GPGSA,M,3,22,16,07,29,30,18,06,21,03,19,,,1.4,0.9,1.1*3D
$GPRMC,123735.000,A,5034.2881,N,00227.4172,W,0.07,67.52,161011,,,A*4C
$GPGGA,123736.000,5034.2881,N,00227.4172,W,1,10,0.9,11.83,M,48.8,M,,0000*4D
$GPGSA,M,3,22,16,07,29,30,18,06,21,03,19,,,1.4,0.9,1.1*3D
$GPGSV,3,1,11,16,71,280,37,06,65,280,34,21,59,074,42,03,49,278,39*7F
$GPGSV,3,2,11,18,28,116,46,30,21,147,47,19,18,267,42,07,11,329,35*73
$GPGSV,3,3,11,22,10,154,48,29,09,084,36,31,04,192,42*45
$GPRMC,123736.000,A,5034.2881,N,00227.4172,W,0.04,177.08,161011,,,A*73
$GPGGA,123737.000,5034.2882,N,00227.4171,W,1,10,0.9,11.93,M,48.8,M,,0000*4D
$GPGSA,M,3,22,16,07,29,30,18,06,21,03,19,,,1.4,0.9,1.1*3D
$GPRMC,123737.000,A,5034.2882,N,00227.4171,W,0.74,22.22,161011,,,A*4C
$GPGGA,123738.000,5034.2882,N,00227.4171,W,1,10,0.9,11.86,M,48.8,M,,0000*46
$GPGSA,M,3,22,16,07,29,30,18,06,21,03,19,,,1.4,0.9,1.1*3D
$GPRMC,123738.000,A,5034.2882,N,00227.4171,W,0.39,194.93,161011,,,A*7C
$GPGGA,123739.000,5034.2882,N,00227.4172,W,1,10,0.9,11.88,M,48.8,M,,0000*4A
$GPGSA,M,3,22,16,07,29,30,18,06,21,03,19,,,1.4,0.9,1.1*3D
$GPRMC,123739.000,A,5034.2882,N,00227.4172,W,0.03,211.21,161011,,,A*70
$GPGGA,123740.000,5034.2882,N,00227.4172,W,1,10,0.9,11.90,M,48.8,M,,0000*4D
$GPGSA,M,3,22,16,07,29,30,18,06,21,03,19,,,1.4,0.9,1.1*3D
$GPRMC,123740.000,A,5034.2882,N,00227.4172,W,0.11,69.66,161011,,,A*43
$GPGGA,123741.000,5034.2882,N,00227.4172,W,1,10,0.9,11.94,M,48.8,M,,0000*48
$GPGSA,M,3,22,16,07,29,30,18,06,21,03,19,,,1.4,0.9,1.1*3D
$GPGSV,3,1,11,16,71,280,38,06,65,280,34,21,59,074,42,03,49,278,38*71
$GPGSV,3,2,11,18,28,116,46,30,21,147,46,19,18,267,44,07,11,329,32*73
$GPGSV,3,3,11,22,10,154,48,29,09,084,39,31,04,192,42*4A
$GPRMC,123741.000,A,5034.2882,N,00227.4172,W,0.11,54.82,161011,,,A*46
$GPGGA,123742.000,5034.2882,N,00227.4173,W,1,10,0.9,11.97,M,48.8,M,,0000*49
$GPGSA,M,3,22,16,07,29,30,18,06,21,03,19,,,1.4,0.9,1.1*3D
$GPRMC,123742.000,A,5034.2882,N,00227.4173,W,0.12,47.19,161011,,,A*47
$GPGGA,123743.000,5034.2882,N,00227.4173,W,1,10,0.9,11.99,M,48.8,M,,0000*46
$GPGSA,M,3,22,16,07,29,30,18,06,21,03,19,,,1.4,0.9,1.1*3D
$GPRMC,123743.000,A,5034.2882,N,00227.4173,W,0.07,75.10,161011,,,A*4A
$GPGGA,123744.000,5034.2882,N,00227.4173,W,1,10,0.9,11.97,M,48.8,M,,0000*4F
$GPGSA,M,3,22,16,07,29,30,18,06,21,03,19,,,1.4,0.9,1.1*3D
$GPRMC,123744.000,A,5034.2882,N,00227.4173,W,0.01,349.53,161011,,,A*70
$GPGGA,123745.000,5034.2882,N,00227.4173,W,1,10,0.9,11.99,M,48.8,M,,0000*40
$GPGSA,M,3,22,16,07,29,30,18,06,21,03,19,,,1.4,0.9,1.1*3D
$GPRMC,123745.000,A,5034.2882,N,00227.4173,W,0.14,23.63,161011,,,A*49
$GPGGA,123746.000,5034.2883,N,00227.4173,W,1,10,0.9,12.01,M,48.8,M,,0000*40
$GPGSA,M,3,22,16,07,29,30,18,06,21,03,19,,,1.4,0.9,1.1*3D
$GPGSV,3,1,11,16,71,280,38,06,65,280,34,21,59,074,42,03,49,278,38*71
$GPGSV,3,2,11,18,28,116,46,30,21,147,47,19,18,267,38,07,11,329,32*79
$GPGSV,3,3,11,22,10,154,48,29,09,084,41,31,04,192,42*45
$GPRMC,123746.000,A,5034.2883,N,00227.4173,W,0.45,44.97,161011,,,A*45
$GPGGA,123747.000,5034.2884,N,00227.4172,W,1,10,0.9,12.09,M,48.8,M,,0000*4F
$GPGSA,M,3,22,16,07,29,30,18,06,21,03,19,,,1.4,0.9,1.1*3D
$GPRMC,123747.000,A,5034.2884,N,00227.4172,W,0.78,1.42,161011,,,A*75
$GPGGA,123748.000,5034.2884,N,00227.4172,W,1,10,0.9,12.14,M,48.8,M,,0000*4C
$GPGSA,M,3,22,16,07,29,30,18,06,21,03,19,,,1.4,0.9,1.1*3D
$GPRMC,123748.000,A,5034.2884,N,00227.4172,W,0.49,145.69,161011,,,A*70
$GPGGA,123749.000,5034.2883,N,00227.4171,W,1,10,0.9,12.23,M,48.8,M,,0000*4D
$GPGSA,M,3,22,16,07,29,30,18,06,21,03,19,,,1.4,0.9,1.1*3D
$GPRMC,123749.000,A,5034.2883,N,00227.4171,W,0.03,104.65,161011,,,A*72
$GPGGA,123750.000,5034.2883,N,00227.4171,W,1,10,0.9,12.31,M,48.8,M,,0000*46
$GPGSA,M,3,22,16,07,29,30,18,06,21,03,19,,,1.4,0.9,1.1*3D
$GPRMC,123750.000,A,5034.2883,N,00227.4171,W,0.03,63.87,161011,,,A*46
$GPGGA,123751.000,5034.2883,N,00227.4171,W,1,10,0.9,12.40,M,48.8,M,,0000*41
$GPGSA,M,3,22,16,07,29,30,18,06,21,03,19,,,1.4,0.9,1.1*3D
$GPGSV,3,1,11,16,71,280,37,06,65,280,34,21,59,074,43,03,49,278,31*76
$GPGSV,3,2,11,18,28,116,48,30,21,147,43,19,18,267,34,07,11,329,36*7B
$GPGSV,3,3,11,22,10,154,48,29,09,084,41,31,04,192,39*49
$GPRMC,123751.000,A,5034.2883,N,00227.4171,W,0.04,210.51,161011,,,A*7D
$GPGGA,123752.000,5034.2882,N,00227.4171,W,1,10,0.9,12.49,M,48.8,M,,0000*4A
$GPGSA,M,3,22,16,07,29,30,18,06,21,03,19,,,1.4,0.9,1.1*3D
$GPRMC,123752.000,A,5034.2882,N,00227.4171,W,0.09,37.62,161011,,,A*45
$GPGGA,123753.000,5034.2882,N,00227.4171,W,1,10,0.9,12.59,M,48.8,M,,0000*4A
$GPGSA,M,3,22,16,07,29,30,18,06,21,03,19,,,1.4,0.9,1.1*3D
$GPRMC,123753.000,A,5034.2882,N,00227.4171,W,0.14,34.25,161011,,,A*48
$GPGGA,123754.000,5034.2882,N,00227.4170,W,1,10,0.9,12.68,M,48.8,M,,0000*4E
$GPGSA,M,3,22,16,07,29,30,18,06,21,03,19,,,1.4,0.9,1.1*3D
$GPRMC,123754.000,A,5034.2882,N,00227.4170,W,0.05,90.15,161011,,,A*43
$GPGGA,123755.000,5034.2882,N,00227.4170,W,1,09,1.1,12.86,M,48.8,M,,0000*4E
$GPGSA,M,3,22,16,07,30,18,06,21,03,19,,,,1.6,1.1,1.2*3E
$GPRMC,123755.000,A,5034.2882,N,00227.4170,W,0.10,27.79,161011,,,A*40
$GPGGA,123756.000,5034.2881,N,00227.4171,W,1,09,1.1,12.99,M,48.8,M,,0000*41
$GPGSA,M,3,22,16,07,30,18,06,21,03,19,,,,1.6,1.1,1.2*3E
$GPGSV,3,1,11,16,71,280,34,06,65,280,34,21,59,074,43,03,49,278,34*70
$GPGSV,3,2,11,18,28,116,47,30,21,147,47,19,18,267,29,07,11,329,35*7F
$GPGSV,3,3,11,22,10,154,49,29,09,084,41,31,04,192,41*47
$GPRMC,123756.000,A,5034.2881,N,00227.4171,W,0.20,201.55,161011,,,A*7A
$GPGGA,123757.000,5034.2880,N,00227.4172,W,1,09,1.1,13.09,M,48.8,M,,0000*4A
$GPGSA,M,3,22,16,07,30,18,06,21,03,19,,,,1.6,1.1,1.2*3E
$GPRMC,123757.000,A,5034.2880,N,00227.4172,W,0.45,227.18,161011,,,A*77
$GPGGA,123758.000,5034.2880,N,00227.4173,W,1,09,1.1,13.16,M,48.8,M,,0000*4A
$GPGSA,M,3,22,16,07,30,18,06,21,03,19,,,,1.6,1.1,1.2*3E
$GPRMC,123758.000,A,5034.2880,N,00227.4173,W,0.14,235.79,161011,,,A*79
$GPGGA,123759.000,5034.2879,N,00227.4173,W,1,09,1.1,13.27,M,48.8,M,,0000*4F
$GPGSA,M,3,22,16,07,30,18,06,21,03,19,,,,1.6,1.1,1.2*3E
$GPRMC,123759.000,A,5034.2879,N,00227.4173,W,0.25,88.43,161011,,,A*41
$GPGGA,123800.000,5034.2880,N,00227.4173,W,1,09,1.1,13.29,M,48.8,M,,0000*44
$GPGSA,M,3,22,16,07,30,18,06,21,03,19,,,,1.6,1.1,1.2*3E
$GPRMC,123800.000,A,5034.2880,N,00227.4173,W,0.03,5.45,161011,,,A*73
$GPGGA,123801.000,5034.2879,N,00227.4174,W,1,09,1.1,13.29,M,48.8,M,,0000*44
$GPGSA,M,3,22,16,07,30,18,06,21,03,19,,,,1.6,1.1,1.2*3E
$GPGSV,3,1,11,16,71,280,35,06,65,280,40,21,59,074,38,03,49,278,38*72
$GPGSV,3,2,11,18,28,116,45,30,21,147,46,19,18,267,42,07,11,329,28*7D
$GPGSV,3,3,11,22,10,154,48,29,09,084,33,31,04,192,42*40
$GPRMC,123801.000,A,5034.2879,N,00227.4174,W,0.20,229.35,161011,,,A*79
$GPGGA,123802.000,5034.2879,N,00227.4174,W,1,09,1.1,13.35,M,48.8,M,,0000*4A
$GPGSA,M,3,22,16,07,30,18,06,21,03,19,,,,1.6,1.1,1.2*3E
$GPRMC,123802.000,A,5034.2879,N,00227.4174,W,0.37,60.66,161011,,,A*45
$GPGGA,123803.000,5034.2879,N,00227.4174,W,1,09,1.1,13.45,M,48.8,M,,0000*4C
$GPGSA,M,3,22,16,07,30,18,06,21,03,19,,,,1.6,1.1,1.2*3E
$GPRMC,123803.000,A,5034.2879,N,00227.4174,W,0.20,182.33,161011,,,A*7F
$GPGGA,123804.000,5034.2879,N,00227.4175,W,1,09,1.1,13.45,M,48.8,M,,0000*4A
$GPGSA,M,3,22,16,07,30,18,06,21,03,19,,,,1.6,1.1,1.2*3E
$GPRMC,123804.000,A,5034.2879,N,00227.4175,W,0.07,196.29,161011,,,A*72
$GPGGA,123805.000,5034.2879,N,00227.4175,W,1,09,1.1,13.44,M,48.8,M,,0000*4A
$GPGSA,M,3,22,16,07,30,18,06,21,03,19,,,,1.6,1.1,1.2*3E
$GPRMC,123805.000,A,5034.2879,N,00227.4175,W,0.08,90.16,161011,,,A*47
$GPGGA,123806.000,5034.2879,N,00227.4175,W,1,09,1.1,13.43,M,48.8,M,,0000*4E
$GPGSA,M,3,22,16,07,30,18,06,21,03,19,,,,1.6,1.1,1.2*3E
$GPGSV,3,1,11,16,71,280,35,06,65,280,38,21,59,074,41,03,49,278,39*72
$GPGSV,3,2,11,18,28,116,46,30,21,147,48,19,18,267,38,07,11,329,28*7D
$GPGSV,3,3,11,22,10,154,48,29,09,084,38,31,04,192,42*4B
$GPRMC,123806.000,A,5034.2879,N,00227.4175,W,0.07,127.08,161011,,,A*79
$GPGGA,123807.000,5034.2879,N,00227.4175,W,1,09,1.1,13.39,M,48.8,M,,0000*42
$GPGSA,M,3,22,16,07,30,18,06,21,03,19,,,,1.6,1.1,1.2*3E
$GPRMC,123807.000,A,5034.2879,N,00227.4175,W,0.06,150.26,161011,,,A*75
$GPGGA,123808.000,5034.2879,N,00227.4175,W,1,09,1.1,13.35,M,48.8,M,,0000*41
$GPGSA,M,3,22,16,07,30,18,06,21,03,19,,,,1.6,1.1,1.2*3E
$GPRMC,123808.000,A,5034.2879,N,00227.4175,W,0.08,144.44,161011,,,A*75
$GPGGA,123809.000,5034.2879,N,00227.4176,W,1,09,1.1,13.30,M,48.8,M,,0000*46
$GPGSA,M,3,22,16,07,30,18,06,21,03,19,,,,1.6,1.1,1.2*3E
$GPRMC,123809.000,A,5034.2879,N,00227.4176,W,0.06,193.95,161011,,,A*7F
$GPGGA,123810.000,5034.2879,N,00227.4176,W,1,09,1.1,13.27,M,48.8,M,,0000*48
$GPGSA,M,3,22,16,07,30,18,06,21,03,19,,,,1.6,1.1,1.2*3E
$GPRMC,123810.000,A,5034.2879,N,00227.4176,W,0.08,59.84,161011,,,A*4E
$GPGGA,123811.000,5034.2879,N,00227.4176,W,1,09,1.1,13.24,M,48.8,M,,0000*4A
$GPGSA,M,3,22,16,07,30,18,06,21,03,19,,,,1.6,1.1,1.2*3E
$GPGSV,3,1,11,16,71,280,36,06,65,280,38,21,59,074,41,03,49,278,38*70
$GPGSV,3,2,11,18,28,116,46,30,21,147,48,19,18,267,40,07,11,329,29*73
$GPGSV,3,3,11,22,10,154,48,29,09,084,38,31,04,192,42*4B
$GPRMC,123811.000,A,5034.2879,N,00227.4176,W,0.16,67.64,161011,,,A*43
$GPGGA,123812.000,5034.2880,N,00227.4176,W,1,09,1.1,13.22,M,48.8,M,,0000*49
$GPGSA,M,3,22,16,07,30,18,06,21,03,19,,,,1.6,1.1,1.2*3E
$GPRMC,123812.000,A,5034.2880,N,00227.4176,W,0.12,31.89,161011,,,A*42
$GPGGA,123813.000,5034.2880,N,00227.4176,W,1,09,1.1,13.21,M,48.8,M,,0000*4B
$GPGSA,M,3,22,16,07,30,18,06,21,03,19,,,,1.6,1.1,1.2*3E
$GPRMC,123813.000,A,5034.2880,N,00227.4176,W,0.10,77.36,161011,,,A*47
$GPGGA,123814.000,5034.2880,N,00227.4176,W,1,09,1.1,13.17,M,48.8,M,,0000*49
$GPGSA,M,3,22,16,07,30,18,06,21,03,19,,,,1.6,1.1,1.2*3E
$GPRMC,123814.000,A,5034.2880,N,00227.4176,W,0.07,163.77,161011,,,A*77
$GPGGA,123815.000,5034.2880,N,00227.4176,W,1,08,2.3,13.18,M,48.8,M,,0000*47
$GPGSA,M,3,22,16,30,18,06,21,03,19,,,,,3.4,2.3,2.5*3C
$GPRMC,123815.000,A,5034.2880,N,00227.4176,W,0.12,197.96,161011,,,A*76
$GPGGA,123816.000,5034.2880,N,00227.4177,W,1,09,1.1,13.17,M,48.8,M,,0000*4A
$GPGSA,M,3,22,16,07,30,18,06,21,03,19,,,,1.6,1.1,1.2*3E
$GPGSV,3,1,11,16,71,279,35,06,65,280,37,21,58,073,42,03,49,278,39*7E
$GPGSV,3,2,11,18,28,116,46,30,21,147,48,19,18,267,39,07,11,329,30*75
$GPGSV,3,3,11,22,11,154,48,29,09,084,35,31,03,192,41*43
$GPRMC,123816.000,A,5034.2880,N,00227.4177,W,0.29,218.81,161011,,,A*7E
$GPGGA,123817.000,5034.2879,N,00227.4178,W,1,09,1.1,13.19,M,48.8,M,,0000*4C
$GPGSA,M,3,22,16,07,30,18,06,21,03,19,,,,1.6,1.1,1.2*3E
$GPRMC,123817.000,A,5034.2879,N,00227.4178,W,0.05,163.26,161011,,,A*7A
$GPGGA,123818.000,5034.2879,N,00227.4177,W,1,09,1.1,13.24,M,48.8,M,,0000*42
$GPGSA,M,3,22,16,07,30,18,06,21,03,19,,,,1.6,1.1,1.2*3E
$GPRMC,123818.000,A,5034.2879,N,00227.4177,W,0.30,67.95,161011,,,A*41
$GPGGA,123819.000,5034.2879,N,00227.4177,W,1,08,2.3,13.27,M,48.8,M,,0000*40
$GPGSA,M,3,22,16,30,18,06,21,03,19,,,,,3.4,2.3,2.5*3C
$GPRMC,123819.000,A,5034.2879,N,00227.4177,W,0.21,190.35,161011,,,A*73
$GPGGA,123820.000,5034.2879,N,00227.4177,W,1,08,2.3,13.31,M,48.8,M,,0000*4D
$GPGSA,M,3,22,16,30,18,06,21,03,19,,,,,3.4,2.3,2.5*3C
$GPRMC,123820.000,A,5034.2879,N,00227.4177,W,0.27,50.36,161011,,,A*41
$GPGGA,123821.000,5034.2880,N,00227.4177,W,1,09,1.1,13.29,M,48.8,M,,0000*43
$GPGSA,M,3,22,16,07,30,18,06,21,03,19,,,,1.6,1.1,1.2*3E
$GPGSV,3,1,11,16,71,279,36,06,65,280,37,21,58,073,35,03,49,278,39*7D
$GPGSV,3,2,11,18,28,116,45,30,21,147,48,19,18,267,41,07,11,329,38*71
$GPGSV,3,3,11,22,11,154,48,29,09,084,32,31,03,192,41*44
$GPRMC,123821.000,A,5034.2880,N,00227.4177,W,0.06,164.06,161011,,,A*70
$GPGGA,123822.000,5034.2880,N,00227.4177,W,1,09,1.1,13.14,M,48.8,M,,0000*4E
$GPGSA,M,3,22,16,07,30,18,06,21,03,19,,,,1.6,1.1,1.2*3E
$GPRMC,123822.000,A,5034.2880,N,00227.4177,W,0.31,205.29,161011,,,A*7E
$GPGGA,123823.000,5034.2880,N,00227.4177,W,1,09,1.1,13.10,M,48.8,M,,0000*4B
$GPGSA,M,3,22,16,07,30,18,06,21,03,19,,,,1.6,1.1,1.2*3E
$GPRMC,123823.000,A,5034.2880,N,00227.4177,W,0.13,36.94,161011,,,A*4B
$GPGGA,123824.000,5034.2880,N,00227.4177,W,1,09,1.1,13.09,M,48.8,M,,0000*44
$GPGSA,M,3,22,16,07,30,18,06,21,03,19,,,,1.6,1.1,1.2*3E
$GPRMC,123824.000,A,5034.2880,N,00227.4177,W,0.04,107.73,161011,,,A*70
$GPGGA,123825.000,5034.2880,N,00227.4177,W,1,09,1.1,13.11,M,48.8,M,,0000*4C
$GPGSA,M,3,22,16,07,30,18,06,21,03,19,,,,1.6,1.1,1.2*3E
$GPRMC,123825.000,A,5034.2880,N,00227.4177,W,0.05,130.91,161011,,,A*78
$GPGGA,123826.000,5034.2880,N,00227.4177,W,1,09,1.1,13.10,M,48.8,M,,0000*4E
$GPGSA,M,3,22,16,07,30,18,06,21,03,19,,,,1.6,1.1,1.2*3E
$GPGSV,3,1,11,16,71,279,35,06,65,280,37,21,58,073,41,03,49,278,39*7D
$GPGSV,3,2,11,18,28,116,46,30,21,147,48,19,18,267,40,07,11,329,29*73
$GPGSV,3,3,11,22,11,154,48,29,09,084,33,31,03,192,41*45
$GPRMC,123826.000,A,5034.2880,N,00227.4177,W,0.02,217.54,161011,,,A*73
$GPGGA,123827.000,5034.2880,N,00227.4177,W,1,09,1.1,13.10,M,48.8,M,,0000*4F
$GPGSA,M,3,22,16,07,30,18,06,21,03,19,,,,1.6,1.1,1.2*3E
$GPRMC,123827.000,A,5034.2880,N,00227.4177,W,0.07,125.70,161011,,,A*73
$GPGGA,123828.000,5034.2880,N,00227.4177,W,1,09,1.1,13.09,M,48.8,M,,0000*48
$GPGSA,M,3,22,16,07,30,18,06,21,03,19,,,,1.6,1.1,1.2*3E
$GPRMC,123828.000,A,5034.2880,N,00227.4177,W,0.20,42.04,161011,,,A*4A
$GPGGA,123829.000,5034.2881,N,00227.4177,W,1,09,1.1,13.09,M,48.8,M,,0000*48
$GPGSA,M,3,22,16,07,30,18,06,21,03,19,,,,1.6,1.1,1.2*3E
$GPRMC,123829.000,A,5034.2881,N,00227.4177,W,0.05,136.61,161011,,,A*7C
$GPGGA,123830.000,5034.2881,N,00227.4177,W,1,09,1.1,13.10,M,48.8,M,,0000*48
$GPGSA,M,3,22,16,07,30,18,06,21,03,19,,,,1.6,1.1,1.2*3E
$GPRMC,123830.000,A,5034.2881,N,00227.4177,W,0.10,166.06,161011,,,A*74
$GPGGA,123831.000,5034.2881,N,00227.4177,W,1,09,1.1,13.16,M,48.8,M,,0000*4F
$GPGSA,M,3,22,16,07,30,18,06,21,03,19,,,,1.6,1.1,1.2*3E
$GPGSV,3,1,11,16,71,279,34,06,65,280,36,21,58,073,42,03,49,278,36*71
$GPGSV,3,2,11,18,28,116,46,30,21,147,49,19,18,267,39,07,11,329,33*77
$GPGSV,3,3,11,22,11,154,49,29,09,084,34,31,03,192,40*42
$GPRMC,123831.000,A,5034.2881,N,00227.4177,W,0.27,31.80,161011,,,A*4C
$GPGGA,123832.000,5034.2881,N,00227.4177,W,1,08,2.3,13.34,M,48.8,M,,0000*4C
$GPGSA,M,3,22,16,30,18,06,21,03,19,,,,,3.4,2.3,2.5*3C
$GPRMC,123832.000,A,5034.2881,N,00227.4177,W,0.07,255.87,161011,,,A*7A
$GPGGA,123833.000,5034.2881,N,00227.4177,W,1,09,1.1,13.38,M,48.8,M,,0000*41
$GPGSA,M,3,22,16,07,30,18,06,21,03,19,,,,1.6,1.1,1.2*3E
$GPRMC,123833.000,A,5034.2881,N,00227.4177,W,0.09,146.02,161011,,,A*79
$GPGGA,123834.000,5034.2880,N,00227.4178,W,1,09,1.1,13.45,M,48.8,M,,0000*42
$GPGSA,M,3,22,16,07,30,18,06,21,03,19,,,,1.6,1.1,1.2*3E
$GPRMC,123834.000,A,5034.2880,N,00227.4178,W,0.13,205.85,161011,,,A*70
$GPGGA,123835.000,5034.2880,N,00227.4179,W,1,09,1.1,13.47,M,48.8,M,,0000*40
$GPGSA,M,3,22,16,07,30,18,06,21,03,19,,,,1.6,1.1,1.2*3E
$GPRMC,123835.000,A,5034.2880,N,00227.4179,W,0.39,218.63,161011,,,A*7C
$GPGGA,123836.000,5034.2880,N,00227.4179,W,1,09,1.1,13.43,M,48.8,M,,0000*47
$GPGSA,M,3,22,16,07,30,18,06,21,03,19,,,,1.6,1.1,1.2*3E
$GPGSV,3,1,11,16,71,279,39,06,65,280,33,21,58,073,43,03,49,278,36*78
$GPGSV,3,2,11,18,28,116,46,30,21,147,48,19,18,267,45,07,11,329,36*78
$GPGSV,3,3,11,22,11,154,48,29,09,084,,31,03,192,39*4A
$GPRMC,123836.000,A,5034.2880,N,00227.4179,W,0.40,51.88,161011,,,A*4B
$GPGGA,123837.000,5034.2881,N,00227.4179,W,1,09,1.1,13.33,M,48.8,M,,0000*40
$GPGSA,M,3,22,16,07,30,18,06,21,03,19,,,,1.6,1.1,1.2*3E
$GPRMC,123837.000,A,5034.2881,N,00227.4179,W,0.20,201.43,161011,,,A*7D
$GPGGA,123838.000,5034.2880,N,00227.4180,W,1,09,1.1,13.48,M,48.8,M,,0000*44
$GPGSA,M,3,22,16,07,30,18,06,21,03,19,,,,1.6,1.1,1.2*3E
$GPRMC,123838.000,A,5034.2880,N,00227.4180,W,0.02,200.95,161011,,,A*7F
$GPGGA,123839.000,5034.2880,N,00227.4180,W,1,09,1.1,13.60,M,48.8,M,,0000*4F
$GPGSA,M,3,22,16,07,30,18,06,21,03,19,,,,1.6,1.1,1.2*3E
$GPRMC,123839.000,A,5034.2880,N,00227.4180,W,0.37,41.33,161011,,,A*43
$GPGGA,123840.000,5034.2881,N,00227.4179,W,1,09,1.1,13.67,M,48.8,M,,0000*41
$GPGSA,M,3,22,16,07,30,18,06,21,03,19,,,,1.6,1.1,1.2*3E
$GPRMC,123840.000,A,5034.2881,N,00227.4179,W,0.04,66.30,161011,,,A*4C
$GPGGA,123841.000,5034.2881,N,00227.4180,W,1,09,1.1,13.66,M,48.8,M,,0000*47
$GPGSA,M,3,22,16,07,30,18,06,21,03,19,,,,1.6,1.1,1.2*3E
$GPGSV,3,1,11,16,71,279,37,06,65,280,34,21,58,073,40,03,49,278,31*75
$GPGSV,3,2,11,18,28,116,46,30,21,147,48,19,18,267,36,07,11,329,36*7C
$GPGSV,3,3,11,22,11,154,48,29,09,084,33,31,03,192,39*4A
$GPRMC,123841.000,A,5034.2881,N,00227.4180,W,0.26,210.88,161011,,,A*7B
$GPGGA,123842.000,5034.2880,N,00227.4180,W,1,09,1.1,13.76,M,48.8,M,,0000*44
$GPGSA,M,3,22,16,07,30,18,06,21,03,19,,,,1.6,1.1,1.2*3E
$GPRMC,123842.000,A,5034.2880,N,00227.4180,W,0.05,128.05,161011,,,A*75
$GPGGA,123843.000,5034.2880,N,00227.4180,W,1,09,1.1,13.84,M,48.8,M,,0000*48
$GPGSA,M,3,22,16,07,30,18,06,21,03,19,,,,1.6,1.1,1.2*3E
$GPRMC,123843.000,A,5034.2880,N,00227.4180,W,0.04,89.06,161011,,,A*4C
$GPGGA,123844.000,5034.2879,N,00227.4181,W,1,09,1.1,13.94,M,48.8,M,,0000*49
$GPGSA,M,3,22,16,07,30,18,06,21,03,19,,,,1.6,1.1,1.2*3E
$GPRMC,123844.000,A,5034.2879,N,00227.4181,W,0.05,81.31,161011,,,A*41
$GPGGA,123845.000,5034.2879,N,00227.4180,W,1,09,1.1,14.00,M,48.8,M,,0000*43
$GPGSA,M,3,22,16,07,30,18,06,21,03,19,,,,1.6,1.1,1.2*3E
$GPRMC,123845.000,A,5034.2879,N,00227.4180,W,0.05,139.68,161011,,,A*7F
$GPGGA,123846.000,5034.2879,N,00227.4180,W,1,08,2.3,14.08,M,48.8,M,,0000*48
$GPGSA,M,3,22,16,30,18,06,21,03,19,,,,,3.4,2.3,2.5*3C
$GPGSV,3,1,11,16,71,279,38,06,65,280,32,21,58,073,45,03,49,279,40*7E
$GPGSV,3,2,11,18,28,116,46,30,21,147,48,19,19,267,40,07,12,329,*7A
$GPGSV,3,3,11,22,11,154,48,29,09,084,30,31,03,192,39*49
$GPRMC,123846.000,A,5034.2879,N,00227.4180,W,0.09,181.67,161011,,,A*7C
$GPGGA,123847.000,5034.2879,N,00227.4181,W,1,09,1.1,14.18,M,48.8,M,,0000*49
$GPGSA,M,3,22,16,07,30,18,06,21,03,19,,,,1.6,1.1,1.2*3E
$GPRMC,123847.000,A,5034.2879,N,00227.4181,W,0.09,172.86,161011,,,A*7F
$GPGGA,123848.000,5034.2878,N,00227.4180,W,1,09,1.1,14.29,M,48.8,M,,0000*44
$GPGSA,M,3,22,16,07,30,18,06,21,03,19,,,,1.6,1.1,1.2*3E
$GPRMC,123848.000,A,5034.2878,N,00227.4180,W,0.04,25.91,161011,,,A*48
$GPGGA,123849.000,5034.2878,N,00227.4180,W,1,09,1.1,14.42,M,48.8,M,,0000*48
$GPGSA,M,3,22,16,07,30,18,06,21,03,19,,,,1.6,1.1,1.2*3E
$GPRMC,123849.000,A,5034.2878,N,00227.4180,W,0.12,162.45,161011,,,A*75
$GPGGA,123850.000,5034.2877,N,00227.4180,W,1,09,1.1,14.65,M,48.8,M,,0000*4A
$GPGSA,M,3,22,16,07,30,18,06,21,03,19,,,,1.6,1.1,1.2*3E
$GPRMC,123850.000,A,5034.2877,N,00227.4180,W,0.10,76.32,161011,,,A*44
$GPGGA,123851.000,5034.2876,N,00227.4180,W,1,09,1.1,14.88,M,48.8,M,,0000*49
$GPGSA,M,3,22,16,07,30,18,06,21,03,19,,,,1.6,1.1,1.2*3E
$GPGSV,3,1,11,16,71,279,39,06,65,280,42,21,58,073,44,03,49,279,27*78
$GPGSV,3,2,11,18,28,116,47,30,21,147,48,19,19,267,41,07,12,329,36*7F
$GPGSV,3,3,11,22,11,154,48,29,09,084,38,31,03,192,39*41
$GPRMC,123851.000,A,5034.2876,N,00227.4180,W,0.03,143.71,161011,,,A*76
$GPGGA,123852.000,5034.2875,N,00227.4179,W,1,09,1.1,15.04,M,48.8,M,,0000*4A
$GPGSA,M,3,22,16,07,30,18,06,21,03,19,,,,1.6,1.1,1.2*3E
$GPRMC,123852.000,A,5034.2875,N,00227.4179,W,0.07,74.10,161011,,,A*46
$GPGGA,123853.000,5034.2874,N,00227.4179,W,1,09,1.1,15.11,M,48.8,M,,0000*4E
$GPGSA,M,3,22,16,07,30,18,06,21,03,19,,,,1.6,1.1,1.2*3E
$GPRMC,123853.000,A,5034.2874,N,00227.4179,W,0.01,353.67,161011,,,A*76
$GPGGA,123854.000,5034.2874,N,00227.4178,W,1,09,1.1,15.21,M,48.8,M,,0000*4B
$GPGSA,M,3,22,16,07,30,18,06,21,03,19,,,,1.6,1.1,1.2*3E
$GPRMC,123854.000,A,5034.2874,N,00227.4178,W,0.18,56.97,161011,,,A*41
$GPGGA,123855.000,5034.2875,N,00227.4177,W,1,09,1.1,15.17,M,48.8,M,,0000*41
$GPGSA,M,3,22,16,07,30,18,06,21,03,19,,,,1.6,1.1,1.2*3E
$GPRMC,123855.000,A,5034.2875,N,00227.4177,W,0.15,52.30,161011,,,A*4A
$GPGGA,123856.000,5034.2875,N,00227.4177,W,1,09,1.1,14.90,M,48.8,M,,0000*4C
$GPGSA,M,3,22,16,07,30,18,06,21,03,19,,,,1.6,1.1,1.2*3E
$GPGSV,3,1,11,16,71,279,39,06,65,280,35,21,58,073,38,03,49,279,36*73
$GPGSV,3,2,11,18,28,116,47,30,21,147,48,19,19,267,40,07,12,329,36*7E
$GPGSV,3,3,11,22,11,154,47,29,09,084,27,31,03,192,39*40
$GPRMC,123856.000,A,5034.2875,N,00227.4177,W,0.28,229.13,161011,,,A*78
$GPGGA,123857.000,5034.2875,N,00227.4177,W,1,09,1.1,14.84,M,48.8,M,,0000*48
$GPGSA,M,3,22,16,07,30,18,06,21,03,19,,,,1.6,1.1,1.2*3E
$GPRMC,123857.000,A,5034.2875,N,00227.4177,W,0.04,117.06,161011,,,A*7D
$GPGGA,123858.000,5034.2875,N,00227.4177,W,1,09,1.1,14.85,M,48.8,M,,0000*46
$GPGSA,M,3,22,16,07,30,18,06,21,03,19,,,,1.6,1.1,1.2*3E
$GPRMC,123858.000,A,5034.2875,N,00227.4177,W,0.06,84.01,161011,,,A*4C
$GPGGA,123859.000,5034.2875,N,00227.4176,W,1,09,1.1,14.90,M,48.8,M,,0000*42
$GPGSA,M,3,22,16,07,30,18,06,21,03,19,,,,1.6,1.1,1.2*3E
$GPRMC,123859.000,A,5034.2875,N,00227.4176,W,0.06,74.42,161011,,,A*44
$GPGGA,123900.000,5034.2874,N,00227.4176,W,1,09,1.1,14.96,M,48.8,M,,0000*48
$GPGSA,M,3,22,16,07,30,18,06,21,03,19,,,,1.6,1.1,1.2*3E
$GPRMC,123900.000,A,5034.2874,N,00227.4176,W,0.03,97.77,161011,,,A*46
$GPGGA,123901.000,5034.2874,N,00227.4176,W,1,09,1.1,15.06,M,48.8,M,,0000*41
$GPGSA,M,3,22,16,07,30,18,06,21,03,19,,,,1.6,1.1,1.2*3E
$GPGSV,3,1,11,16,71,279,40,06,65,280,36,21,58,073,42,03,49,279,37*72
$GPGSV,3,2,11,18,28,116,46,30,21,147,48,19,19,267,42,07,12,329,36*7D
$GPGSV,3,3,11,22,11,154,47,29,09,084,27,31,03,192,39*40
$GPRMC,123901.000,A,5034.2874,N,00227.4176,W,0.21,60.96,161011,,,A*40
$GPGGA,123902.000,5034.2874,N,00227.4175,W,1,09,1.1,15.03,M,48.8,M,,0000*44
$GPGSA,M,3,22,16,07,30,18,06,21,03,19,,,,1.6,1.1,1.2*3E
$GPRMC,123902.000,A,5034.2874,N,00227.4175,W,0.14,44.14,161011,,,A*4A
$GPGGA,123903.000,5034.2875,N,00227.4175,W,1,09,1.1,15.01,M,48.8,M,,0000*46
$GPGSA,M,3,22,16,07,30,18,06,21,03,19,,,,1.6,1.1,1.2*3E
$GPRMC,123903.000,A,5034.2875,N,00227.4175,W,0.04,78.33,161011,,,A*41
$GPGGA,123904.000,5034.2875,N,00227.4175,W,1,09,1.1,14.98,M,48.8,M,,0000*40
$GPGSA,M,3,22,16,07,30,18,06,21,03,19,,,,1.6,1.1,1.2*3E
$GPRMC,123904.000,A,5034.2875,N,00227.4175,W,0.09,240.41,161011,,,A*77
$GPGGA,123905.000,5034.2874,N,00227.4175,W,1,09,1.1,14.97,M,48.8,M,,0000*4F
$GPGSA,M,3,22,16,07,30,18,06,21,03,19,,,,1.6,1.1,1.2*3E
$GPRMC,123905.000,A,5034.2874,N,00227.4175,W,0.01,83.11,161011,,,A*47
$GPGGA,123906.000,5034.2874,N,00227.4175,W,1,09,1.1,14.96,M,48.8,M,,0000*4D
$GPGSA,M,3,22,16,07,30,18,06,21,03,19,,,,1.6,1.1,1.2*3E
$GPGSV,3,1,11,16,71,279,34,06,65,280,36,21,58,073,42,03,49,279,39*7F
$GPGSV,3,2,11,18,28,116,46,30,21,147,48,19,19,267,41,07,12,329,31*79
$GPGSV,3,3,11,22,11,154,48,29,09,084,23,31,03,192,39*4B
$GPRMC,123906.000,A,5034.2874,N,00227.4175,W,0.05,105.49,161011,,,A*72
$GPGGA,123907.000,5034.2874,N,00227.4175,W,1,09,1.1,14.96,M,48.8,M,,0000*4C
$GPGSA,M,3,22,16,07,30,18,06,21,03,19,,,,1.6,1.1,1.2*3E
$GPRMC,123907.000,A,5034.2874,N,00227.4175,W,0.15,84.99,161011,,,A*47
$GPGGA,123908.000,5034.2874,N,00227.4175,W,1,09,1.1,15.23,M,48.8,M,,0000*4C
$GPGSA,M,3,22,16,07,30,18,06,21,03,19,,,,1.6,1.1,1.2*3E
$GPRMC,123908.000,A,5034.2874,N,00227.4175,W,0.47,19.70,161011,,,A*4C
$GPGGA,123909.000,5034.2875,N,00227.4174,W,1,09,1.1,15.30,M,48.8,M,,0000*4F
$GPGSA,M,3,22,16,07,30,18,06,21,03,19,,,,1.6,1.1,1.2*3E
$GPRMC,123909.000,A,5034.2875,N,00227.4174,W,0.07,218.96,161011,,,A*72
$GPGGA,123910.000,5034.2874,N,00227.4174,W,1,09,1.1,15.49,M,48.8,M,,0000*48
$GPGSA,M,3,22,16,07,30,18,06,21,03,19,,,,1.6,1.1,1.2*3E
$GPRMC,123910.000,A,5034.2874,N,00227.4174,W,0.15,141.86,161011,,,A*76
$GPGGA,123911.000,5034.2873,N,00227.4174,W,1,09,1.1,15.52,M,48.8,M,,0000*44
$GPGSA,M,3,22,16,07,30,18,06,21,03,19,,,,1.6,1.1,1.2*3E
$GPGSV,3,1,11,16,71,279,35,06,65,280,36,21,58,073,43,03,49,279,34*72
$GPGSV,3,2,11,18,28,116,46,30,21,147,46,19,19,267,36,07,12,329,38*7E
$GPGSV,3,3,11,22,11,154,47,29,09,084,36,31,03,192,37*4E
$GPRMC,123911.000,A,5034.2873,N,00227.4174,W,0.29,169.10,161011,,,A*7A
$GPGGA,123912.000,5034.2873,N,00227.4174,W,1,09,1.1,15.57,M,48.8,M,,0000*42
$GPGSA,M,3,22,16,07,30,18,06,21,03,19,,,,1.6,1.1,1.2*3E
$GPRMC,123912.000,A,5034.2873,N,00227.4174,W,0.02,273.38,161011,,,A*72
$GPGGA,123913.000,5034.2873,N,00227.4173,W,1,09,1.1,15.57,M,48.8,M,,0000*44
$GPGSA,M,3,22,16,07,30,18,06,21,03,19,,,,1.6,1.1,1.2*3E
$GPRMC,123913.000,A,5034.2873,N,00227.4173,W,0.04,106.34,161011,,,A*7F
$GPGGA,123914.000,5034.2873,N,00227.4172,W,1,09,1.1,15.52,M,48.8,M,,0000*47
$GPGSA,M,3,22,16,07,30,18,06,21,03,19,,,,1.6,1.1,1.2*3E
$GPRMC,123914.000,A,5034.2873,N,00227.4172,W,0.05,148.11,161011,,,A*75
$GPGGA,123915.000,5034.2873,N,00227.4171,W,1,09,1.1,15.48,M,48.8,M,,0000*4E
$GPGSA,M,3,22,16,07,30,18,06,21,03,19,,,,1.6,1.1,1.2*3E
$GPRMC,123915.000,A,5034.2873,N,00227.4171,W,0.04,135.47,161011,,,A*7F
$GPGGA,123916.000,5034.2873,N,00227.4170,W,1,09,1.1,15.46,M,48.8,M,,0000*42
$GPGSA,M,3,22,16,07,30,18,06,21,03,19,,,,1.6,1.1,1.2*3E
$GPGSV,3,1,11,16,72,278,31,06,66,280,37,21,58,073,43,03,50,279,36*7C
$GPGSV,3,2,11,18,28,115,45,30,21,147,49,19,19,267,29,07,12,329,37*70
$GPGSV,3,3,11,22,11,153,48,29,09,085,37,31,03,192,38*49
$GPRMC,123916.000,A,5034.2873,N,00227.4170,W,0.19,347.48,161011,,,A*79
$GPGGA,123917.000,5034.2873,N,00227.4170,W,1,09,1.1,15.48,M,48.8,M,,0000*4D
$GPGSA,M,3,22,16,07,30,18,06,21,03,19,,,,1.6,1.1,1.2*3E
$GPRMC,123917.000,A,5034.2873,N,00227.4170,W,0.10,146.04,161011,,,A*7A
$GPGGA,123918.000,5034.2873,N,00227.4169,W,1,09,1.1,15.49,M,48.8,M,,0000*4B
$GPGSA,M,3,22,16,07,30,18,06,21,03,19,,,,1.6,1.1,1.2*3E
$GPRMC,123918.000,A,5034.2873,N,00227.4169,W,0.10,100.94,161011,,,A*76
$GPGGA,123919.000,5034.2873,N,00227.4169,W,1,09,1.1,15.49,M,48.8,M,,0000*4A
$GPGSA,M,3,22,16,07,30,18,06,21,03,19,,,,1.6,1.1,1.2*3E
$GPRMC,123919.000,A,5034.2873,N,00227.4169,W,0.02,143.47,161011,,,A*7D
$GPGGA,123920.000,5034.2873,N,00227.4168,W,1,09,1.1,15.51,M,48.8,M,,0000*48
$GPGSA,M,3,22,16,07,30,18,06,21,03,19,,,,1.6,1.1,1.2*3E
$GPRMC,123920.000,A,5034.2873,N,00227.4168,W,0.18,45.84,161011,,,A*45
$GPGGA,123921.000,5034.2874,N,00227.4168,W,1,09,1.1,15.52,M,48.8,M,,0000*4D
$GPGSA,M,3,22,16,07,30,18,06,21,03,19,,,,1.6,1.1,1.2*3E
$GPGSV,3,1,11,16,72,278,27,06,66,280,37,21,58,073,43,03,50,279,30*7D
$GPGSV,3,2,11,18,28,115,45,30,21,147,49,19,19,267,34,07,12,329,37*7C
$GPGSV,3,3,11,22,11,153,48,29,09,085,37,31,03,192,35*44
$GPRMC,123921.000,A,5034.2874,N,00227.4168,W,0.12,16.12,161011,,,A*40
$GPGGA,123922.000,5034.2873,N,00227.4167,W,1,09,1.1,15.50,M,48.8,M,,0000*44
$GPGSA,M,3,22,16,07,30,18,06,21,03,19,,,,1.6,1.1,1.2*3E
$GPRMC,123922.000,A,5034.2873,N,00227.4167,W,0.26,145.66,161011,,,A*78
$GPGGA,123923.000,5034.2873,N,00227.4167,W,1,09,1.1,15.47,M,48.8,M,,0000*43
$GPGSA,M,3,22,16,07,30,18,06,21,03,19,,,,1.6,1.1,1.2*3E
$GPRMC,123923.000,A,5034.2873,N,00227.4167,W,0.04,198.80,161011,,,A*71
$GPGGA,123924.000,5034.2873,N,00227.4167,W,1,09,1.1,15.43,M,48.8,M,,0000*40
$GPGSA,M,3,22,16,07,30,18,06,21,03,19,,,,1.6,1.1,1.2*3E
$GPRMC,123924.000,A,5034.2873,N,00227.4167,W,0.11,53.43,161011,,,A*4B
$GPGGA,123925.000,5034.2874,N,00227.4166,W,1,09,1.1,15.21,M,48.8,M,,0000*43
$GPGSA,M,3,22,16,07,30,18,06,21,03,19,,,,1.6,1.1,1.2*3E
$GPRMC,123925.000,A,5034.2874,N,00227.4166,W,0.37,27.14,161011,,,A*49
$GPGGA,123926.000,5034.2875,N,00227.4166,W,1,09,1.1,15.03,M,48.8,M,,0000*41
$GPGSA,M,3,22,16,07,30,18,06,21,03,19,,,,1.6,1.1,1.2*3E
$GPGSV,3,1,11,16,72,278,34,06,66,280,37,21,58,073,44,03,50,279,29*70
$GPGSV,3,2,11,18,28,115,46,30,21,147,49,19,19,267,38,07,12,329,38*7C
$GPGSV,3,3,11,22,11,153,47,29,09,085,35,31,03,192,27*4A
$GPRMC,123926.000,A,5034.2875,N,00227.4166,W,0.10,148.85,161011,,,A*7E
$GPGGA,123927.000,5034.2876,N,00227.4166,W,1,09,1.1,14.85,M,48.8,M,,0000*4C
$GPGSA,M,3,22,16,07,30,18,06,21,03,19,,,,1.6,1.1,1.2*3E
$GPRMC,123927.000,A,5034.2876,N,00227.4166,W,0.11,215.40,161011,,,A*7F
$GPGGA,123928.000,5034.2877,N,00227.4166,W,1,09,1.1,14.68,M,48.8,M,,0000*41
$GPGSA,M,3,22,16,07,30,18,06,21,03,19,,,,1.6,1.1,1.2*3E
$GPRMC,123928.000,A,5034.2877,N,00227.4166,W,0.40,328.60,161011,,,A*78
$GPGGA,123929.000,5034.2878,N,00227.4167,W,1,09,1.1,14.59,M,48.8,M,,0000*4C
$GPGSA,M,3,22,16,07,30,18,06,21,03,19,,,,1.6,1.1,1.2*3E
$GPRMC,123929.000,A,5034.2878,N,00227.4167,W,0.48,312.69,161011,,,A*7F
$GPGGA,123930.000,5034.2879,N,00227.4168,W,1,09,1.1,14.51,M,48.8,M,,0000*42
$GPGSA,M,3,22,16,07,30,18,06,21,03,19,,,,1.6,1.1,1.2*3E
$GPRMC,123930.000,A,5034.2879,N,00227.4168,W,0.36,341.14,161011,,,A*7C
$GPGGA,123931.000,5034.2879,N,00227.4169,W,1,09,1.1,14.44,M,48.8,M,,0000*46
$GPGSA,M,3,22,16,07,30,18,06,21,03,19,,,,1.6,1.1,1.2*3E
$GPGSV,3,1,11,16,72,278,34,06,66,280,37,21,58,073,44,03,50,279,32*7A
$GPGSV,3,2,11,18,28,115,46,30,21,147,49,19,19,267,36,07,12,329,29*72
$GPGSV,3,3,11,22,11,153,48,29,09,085,36,31,03,192,38*48
$GPRMC,123931.000,A,5034.2879,N,00227.4169,W,0.14,248.19,161011,,,A*79
$GPGGA,123932.000,5034.2879,N,00227.4169,W,1,09,1.1,14.40,M,48.8,M,,0000*41
$GPGSA,M,3,22,16,07,30,18,06,21,03,19,,,,1.6,1.1,1.2*3E
$GPRMC,123932.000,A,5034.2879,N,00227.4169,W,0.03,221.25,161011,,,A*7C
$GPGGA,123933.000,5034.2879,N,00227.4168,W,1,08,2.3,14.35,M,48.8,M,,0000*43
$GPGSA,M,3,22,16,30,18,06,21,03,19,,,,,3.3,2.3,2.5*3B
$GPRMC,123933.000,A,5034.2879,N,00227.4168,W,0.13,67.28,161011,,,A*40
$GPGGA,123934.000,5034.2879,N,00227.4168,W,1,09,1.1,14.42,M,48.8,M,,0000*44
$GPGSA,M,3,22,16,07,30,18,06,21,03,19,,,,1.6,1.1,1.2*3E
$GPRMC,123934.000,A,5034.2879,N,00227.4168,W,0.32,27.90,161011,,,A*43
$GPGGA,123935.000,5034.2881,N,00227.4167,W,1,09,1.1,14.31,M,48.8,M,,0000*49
$GPGSA,M,3,22,16,07,30,18,06,21,03,19,,,,1.6,1.1,1.2*3E
$GPRMC,123935.000,A,5034.2881,N,00227.4167,W,0.52,338.14,161011,,,A*7D
$GPGGA,123936.000,5034.2881,N,00227.4169,W,1,09,1.1,14.30,M,48.8,M,,0000*45
$GPGSA,M,3,22,16,07,30,18,06,21,03,19,,,,1.6,1.1,1.2*3E
$GPGSV,3,1,11,16,72,278,35,06,66,280,36,21,58,073,43,03,50,279,36*79
$GPGSV,3,2,11,18,28,115,45,30,21,147,49,19,19,267,38,07,12,329,28*7E
$GPGSV,3,3,11,22,11,153,48,29,09,085,41,31,03,192,38*48
$GPRMC,123936.000,A,5034.2881,N,00227.4169,W,0.46,257.15,161011,,,A*7C
$GPGGA,123937.000,5034.2881,N,00227.4170,W,1,08,2.3,14.33,M,48.8,M,,0000*4F
$GPGSA,M,3,22,16,30,18,06,21,03,19,,,,,3.3,2.3,2.5*3B
$GPRMC,123937.000,A,5034.2881,N,00227.4170,W,0.10,133.20,161011,,,A*71
$GPGGA,123938.000,5034.2881,N,00227.4170,W,1,09,1.1,14.26,M,48.8,M,,0000*44
$GPGSA,M,3,22,16,07,30,18,06,21,03,19,,,,1.6,1.1,1.2*3E
$GPRMC,123938.000,A,5034.2881,N,00227.4170,W,0.09,247.62,161011,,,A*70
$GPGGA,123939.000,5034.2881,N,00227.4170,W,1,09,1.1,14.21,M,48.8,M,,0000*42
$GPGSA,M,3,22,16,07,30,18,06,21,03,19,,,,1.6,1.1,1.2*3E
$GPRMC,123939.000,A,5034.2881,N,00227.4170,W,0.18,52.36,161011,,,A*46
$GPGGA,123940.000,5034.2881,N,00227.4170,W,1,09,1.1,14.18,M,48.8,M,,0000*46
$GPGSA,M,3,22,16,07,30,18,06,21,03,19,,,,1.6,1.1,1.2*3E
$GPRMC,123940.000,A,5034.2881,N,00227.4170,W,0.11,269.84,161011,,,A*72
$GPGGA,123941.000,5034.2881,N,00227.4170,W,1,09,1.1,13.94,M,48.8,M,,0000*44
$GPGSA,M,3,22,16,07,30,18,06,21,03,19,,,,1.6,1.1,1.2*3E
$GPGSV,3,1,11,16,72,278,37,06,66,280,41,21,58,073,37,03,50,279,42*7B
$GPGSV,3,2,11,18,28,115,38,30,21,147,47,19,19,267,44,07,12,329,24*7D
$GPGSV,3,3,11,22,11,153,49,29,09,085,33,31,03,192,37*43
$GPRMC,123941.000,A,5034.2881,N,00227.4170,W,0.12,62.59,161011,,,A*49
$GPGGA,123942.000,5034.2882,N,00227.4170,W,1,09,1.1,13.88,M,48.8,M,,0000*49
$GPGSA,M,3,22,16,07,30,18,06,21,03,19,,,,1.6,1.1,1.2*3E
$GPRMC,123942.000,A,5034.2882,N,00227.4170,W,0.22,44.18,161011,,,A*4B
$GPGGA,123943.000,5034.2883,N,00227.4169,W,1,09,1.1,13.60,M,48.8,M,,0000*47
$GPGSA,M,3,22,16,07,30,18,06,21,03,19,,,,1.6,1.1,1.2*3E
$GPRMC,123943.000,A,5034.2883,N,00227.4169,W,0.28,95.42,161011,,,A*4A
$GPGGA,123944.000,5034.2882,N,00227.4168,W,1,09,1.1,13.64,M,48.8,M,,0000*44
$GPGSA,M,3,22,16,07,30,18,06,21,03,19,,,,1.6,1.1,1.2*3E
$GPRMC,123944.000,A,5034.2882,N,00227.4168,W,0.09,121.60,161011,,,A*70
$GPGGA,123945.000,5034.2882,N,00227.4168,W,1,09,1.1,13.63,M,48.8,M,,0000*42
$GPGSA,M,3,22,16,07,30,18,06,21,03,19,,,,1.6,1.1,1.2*3E
$GPRMC,123945.000,A,5034.2882,N,00227.4168,W,0.12,56.59,161011,,,A*40
$GPGGA,123946.000,5034.2882,N,00227.4168,W,1,09,1.1,13.62,M,48.8,M,,0000*40
$GPGSA,M,3,22,16,07,30,18,06,21,03,19,,,,1.6,1.1,1.2*3E
$GPGSV,3,1,11,16,72,278,32,06,66,281,41,21,58,072,38,03,50,279,42*71
$GPGSV,3,2,11,18,29,115,39,30,20,147,45,19,19,267,44,07,12,329,25*7F
$GPGSV,3,3,11,22,11,153,48,29,08,085,43,31,03,192,37*44
$GPRMC,123946.000,A,5034.2882,N,00227.4168,W,0.06,133.77,161011,,,A*78
$GPGGA,123947.000,5034.2882,N,00227.4169,W,1,09,1.1,13.59,M,48.8,M,,0000*48
$GPGSA,M,3,22,16,07,30,18,06,21,03,19,,,,1.6,1.1,1.2*3E
$GPRMC,123947.000,A,5034.2882,N,00227.4169,W,0.10,78.28,161011,,,A*4B
$GPGGA,123948.000,5034.2882,N,00227.4169,W,1,09,1.1,13.54,M,48.8,M,,0000*4A
$GPGSA,M,3,22,16,07,30,18,06,21,03,19,,,,1.6,1.1,1.2*3E
$GPRMC,123948.000,A,5034.2882,N,00227.4169,W,0.17,46.40,161011,,,A*40
$GPGGA,123949.000,5034.2881,N,00227.4169,W,1,09,1.1,13.61,M,48.8,M,,0000*4E
$GPGSA,M,3,22,16,07,30,18,06,21,03,19,,,,1.6,1.1,1.2*3E
$GPRMC,123949.000,A,5034.2881,N,00227.4169,W,0.10,184.34,161011,,,A*79
$GPGGA,123950.000,5034.2880,N,00227.4171,W,1,09,1.1,13.85,M,48.8,M,,0000*44
$GPGSA,M,3,22,16,07,30,18,06,21,03,19,,,,1.6,1.1,1.2*3E
$GPRMC,123950.000,A,5034.2880,N,00227.4171,W,0.40,244.19,161011,,,A*7C
$GPGGA,123951.000,5034.2879,N,00227.4172,W,1,09,1.1,13.96,M,48.8,M,,0000*42
$GPGSA,M,3,22,16,07,30,18,06,21,03,19,,,,1.6,1.1,1.2*3E
$GPGSV,3,1,11,16,72,278,42,06,66,281,40,21,58,072,39,03,50,279,42*76
$GPGSV,3,2,11,18,29,115,40,30,20,147,45,19,19,267,44,07,12,329,34*71
$GPGSV,3,3,11,22,11,153,48,29,08,085,41,31,03,192,37*46
$GPRMC,123951.000,A,5034.2879,N,00227.4172,W,0.02,175.14,161011,,,A*72
$GPGGA,123952.000,5034.2879,N,00227.4173,W,1,09,1.1,14.04,M,48.8,M,,0000*4C
$GPGSA,M,3,22,16,07,30,18,06,21,03,19,,,,1.6,1.1,1.2*3E
$GPRMC,123952.000,A,5034.2879,N,00227.4173,W,0.20,227.39,161011,,,A*7B
$GPGGA,123953.000,5034.2879,N,00227.4174,W,1,09,1.1,14.08,M,48.8,M,,0000*46
$GPGSA,M,3,22,16,07,30,18,06,21,03,19,,,,1.6,1.1,1.2*3E
$GPRMC,123953.000,A,5034.2879,N,00227.4174,W,0.15,74.70,161011,,,A*42
$GPGGA,123954.000,5034.2878,N,00227.4174,W,1,09,1.1,14.15,M,48.8,M,,0000*4C
$GPGSA,M,3,22,16,07,30,18,06,21,03,19,,,,1.6,1.1,1.2*3E
$GPRMC,123954.000,A,5034.2878,N,00227.4174,W,0.08,96.35,161011,,,A*45
$GPGGA,123955.000,5034.2878,N,00227.4174,W,1,09,1.1,14.21,M,48.8,M,,0000*4A
$GPGSA,M,3,22,16,07,30,18,06,21,03,19,,,,1.6,1.1,1.2*3E
$GPRMC,123955.000,A,5034.2878,N,00227.4174,W,0.07,100.01,161011,,,A*72
$GPGGA,123956.000,5034.2878,N,00227.4174,W,1,09,1.1,14.26,M,48.8,M,,0000*4E
$GPGSA,M,3,22,16,07,30,18,06,21,03,19,,,,1.6,1.1,1.2*3E
$GPGSV,3,1,11,16,72,278,41,06,66,281,39,21,58,072,38,03,50,279,42*7A
$GPGSV,3,2,11,18,29,115,40,30,20,147,44,19,19,267,46,07,12,329,24*73
$GPGSV,3,3,11,22,11,153,48,29,08,085,39,31,03,192,33*4D
$GPRMC,123956.000,A,5034.2878,N,00227.4174,W,0.31,59.09,161011,,,A*41
$GPGGA,123957.000,5034.2878,N,00227.4173,W,1,09,1.1,14.33,M,48.8,M,,0000*4C
$GPGSA,M,3,22,16,07,30,18,06,21,03,19,,,,1.6,1.1,1.2*3E
$GPRMC,123957.000,A,5034.2878,N,00227.4173,W,0.22,107.78,161011,,,A*79
$GPGGA,123958.000,5034.2877,N,00227.4174,W,1,09,1.1,14.42,M,48.8,M,,0000*4D
$GPGSA,M,3,22,16,07,30,18,06,21,03,19,,,,1.6,1.1,1.2*3E
$GPRMC,123958.000,A,5034.2877,N,00227.4174,W,0.11,179.76,161011,,,A*79
$GPGGA,123959.000,5034.2877,N,00227.4174,W,1,09,1.1,14.46,M,48.8,M,,0000*48
$GPGSA,M,3,22,16,07,30,18,06,21,03,19,,,,1.6,1.1,1.2*3E
$GPRMC,123959.000,A,5034.2877,N,00227.4174,W,0.12,45.59,161011,,,A*48
$GPGGA,124000.000,5034.2877,N,00227.4174,W,1,09,1.1,14.48,M,48.8,M,,0000*44
$GPGSA,M,3,22,16,07,30,18,06,21,03,19,,,,1.6,1.1,1.2*3E
$GPRMC,124000.000,A,5034.2877,N,00227.4174,W,0.22,48.13,161011,,,A*4A
$GPGGA,124001.000,5034.2877,N,00227.4174,W,1,09,1.1,14.47,M,48.8,M,,0000*4A
$GPGSA,M,3,22,16,07,30,18,06,21,03,19,,,,1.6,1.1,1.2*3E
$GPGSV,3,1,11,16,72,278,39,06,66,281,39,21,58,072,44,03,50,279,26*7C
$GPGSV,3,2,11,18,29,115,43,30,20,147,46,19,19,267,40,07,12,329,20*70
$GPGSV,3,3,11,22,11,153,48,29,08,085,40,31,03,192,35*45
$GPRMC,124001.000,A,5034.2877,N,00227.4174,W,0.12,218.29,161011,,,A*76
$GPGGA,124002.000,5034.2877,N,00227.4174,W,1,09,1.1,14.40,M,48.8,M,,0000*4E
$GPGSA,M,3,22,16,07,30,18,06,21,03,19,,,,1.6,1.1,1.2*3E
$GPRMC,124002.000,A,5034.2877,N,00227.4174,W,0.20,259.06,161011,,,A*7C
$GPGGA,124003.000,5034.2877,N,00227.4175,W,1,09,1.1,14.40,M,48.8,M,,0000*4E
$GPGSA,M,3,22,16,07,30,18,06,21,03,19,,,,1.6,1.1,1.2*3E
$GPRMC,124003.000,A,5034.2877,N,00227.4175,W,0.08,82.01,161011,,,A*45
$GPGGA,124004.000,5034.2877,N,00227.4175,W,1,09,1.1,14.39,M,48.8,M,,0000*47
$GPGSA,M,3,22,16,07,30,18,06,21,03,19,,,,1.6,1.1,1.2*3E
$GPRMC,124004.000,A,5034.2877,N,00227.4175,W,0.06,53.98,161011,,,A*40
$GPGGA,124005.000,5034.2877,N,00227.4175,W,1,09,1.1,14.36,M,48.8,M,,0000*49
$GPGSA,M,3,22,16,07,30,18,06,21,03,19,,,,1.6,1.1,1.2*3E
$GPRMC,124005.000,A,5034.2877,N,00227.4175,W,0.06,170.86,161011,,,A*7E
$GPGGA,124006.000,5034.2877,N,00227.4174,W,1,09,1.1,14.37,M,48.8,M,,0000*4A
$GPGSA,M,3,22,16,07,30,18,06,21,03,19,,,,1.6,1.1,1.2*3E
$GPGSV,3,1,11,16,72,278,40,06,66,281,40,21,58,072,37,03,50,279,41*79
$GPGSV,3,2,11,18,29,115,42,30,20,147,45,19,19,267,47,07,12,329,28*7D
$GPGSV,3,3,11,22,11,153,48,29,08,085,39,31,03,192,35*4B
$GPRMC,124006.000,A,5034.2877,N,00227.4174,W,0.07,40.77,161011,,,A*41
$GPGGA,124007.000,5034.2877,N,00227.4174,W,1,09,1.1,14.36,M,48.8,M,,0000*4A
$GPGSA,M,3,22,16,07,30,18,06,21,03,19,,,,1.6,1.1,1.2*3E
$GPRMC,124007.000,A,5034.2877,N,00227.4174,W,0.10,79.62,161011,,,A*48
$GPGGA,124008.000,5034.2877,N,00227.4174,W,1,09,1.1,14.42,M,48.8,M,,0000*46
$GPGSA,M,3,22,16,07,30,18,06,21,03,19,,,,1.6,1.1,1.2*3E
$GPRMC,124008.000,A,5034.2877,N,00227.4174,W,0.15,72.34,161011,,,A*4A
$GPGGA,124009.000,5034.2877,N,00227.4173,W,1,09,1.1,14.42,M,48.8,M,,0000*40
$GPGSA,M,3,22,16,07,30,18,06,21,03,19,,,,1.6,1.1,1.2*3E
$GPRMC,124009.000,A,5034.2877,N,00227.4173,W,0.18,46.34,161011,,,A*46
$GPGGA,124010.000,5034.2878,N,00227.4172,W,1,09,1.1,14.38,M,48.8,M,,0000*4B
$GPGSA,M,3,22,16,07,30,18,06,21,03,19,,,,1.6,1.1,1.2*3E
$GPRMC,124010.000,A,5034.2878,N,00227.4172,W,0.38,64.75,161011,,,A*47
$GPGGA,124011.000,5034.2878,N,00227.4172,W,1,09,1.1,14.36,M,48.8,M,,0000*44
$GPGSA,M,3,22,16,07,30,18,06,21,03,19,,,,1.6,1.1,1.2*3E
$GPGSV,3,1,11,16,72,278,41,06,66,281,41,21,58,072,35,03,50,279,40*7A
$GPGSV,3,2,11,18,29,115,38,30,20,147,44,19,19,267,46,07,12,329,30*79
$GPGSV,3,3,11,22,11,153,48,29,08,085,40,31,03,192,35*45
$GPRMC,124011.000,A,5034.2878,N,00227.4172,W,0.01,319.10,161011,,,A*76
$GPGGA,124012.000,5034.2878,N,00227.4172,W,1,09,1.1,14.29,M,48.8,M,,0000*49
$GPGSA,M,3,22,16,07,30,18,06,21,03,19,,,,1.6,1.1,1.2*3E
$GPRMC,124012.000,A,5034.2878,N,00227.4172,W,0.12,5.35,161011,,,A*7E
$GPGGA,124013.000,5034.2878,N,00227.4172,W,1,09,1.1,14.26,M,48.8,M,,0000*47
$GPGSA,M,3,22,16,07,30,18,06,21,03,19,,,,1.6,1.1,1.2*3E
$GPRMC,124013.000,A,5034.2878,N,00227.4172,W,0.18,62.72,161011,,,A*47
$GPGGA,124014.000,5034.2878,N,00227.4173,W,1,09,1.1,14.22,M,48.8,M,,0000*45
$GPGSA,M,3,22,16,07,30,18,06,21,03,19,,,,1.6,1.1,1.2*3E
$GPRMC,124014.000,A,5034.2878,N,00227.4173,W,0.12,258.06,161011,,,A*73
$GPGGA,124015.000,5034.2877,N,00227.4172,W,1,09,1.1,14.25,M,48.8,M,,0000*4D
$GPGSA,M,3,22,16,07,30,18,06,21,03,19,,,,1.6,1.1,1.2*3E
$GPRMC,124015.000,A,5034.2877,N,00227.4172,W,0.89,112.69,161011,,,A*7A
$GPGGA,124016.000,5034.2877,N,00227.4169,W,1,09,1.1,14.24,M,48.8,M,,0000*45
$GPGSA,M,3,22,16,07,30,18,06,21,03,19,,,,1.6,1.1,1.2*3E
$GPGSV,3,1,11,16,72,277,41,06,66,281,40,21,58,072,36,03,50,279,41*76
$GPGSV,3,2,11,18,29,115,36,30,20,148,43,19,19,267,47,07,12,328,29*77
$GPGSV,3,3,11,22,11,153,47,29,08,085,40,31,02,192,34*4A
$GPRMC,124016.000,A,5034.2877,N,00227.4169,W,0.52,63.17,161011,,,A*4B
$GPGGA,124017.000,5034.2877,N,00227.4168,W,1,09,1.1,14.19,M,48.8,M,,0000*4B
$GPGSA,M,3,22,16,07,30,18,06,21,03,19,,,,1.6,1.1,1.2*3E
$GPRMC,124017.000,A,5034.2877,N,00227.4168,W,0.37,143.55,161011,,,A*7D
$GPGGA,124018.000,5034.2877,N,00227.4165,W,1,09,1.1,14.12,M,48.8,M,,0000*42
$GPGSA,M,3,22,16,07,30,18,06,21,03,19,,,,1.6,1.1,1.2*3E
$GPRMC,124018.000,A,5034.2877,N,00227.4165,W,1.03,94.26,161011,,,A*46
$GPGGA,124019.000,5034.2877,N,00227.4159,W,1,09,1.1,13.96,M,48.8,M,,0000*47
$GPGSA,M,3,22,16,07,30,18,06,21,03,19,,,,1.6,1.1,1.2*3E
$GPRMC,124019.000,A,5034.2877,N,00227.4159,W,1.67,95.60,161011,,,A*49
$GPGGA,124020.000,5034.2878,N,00227.4152,W,1,09,1.1,13.78,M,48.8,M,,0000*49
$GPGSA,M,3,22,16,07,30,18,06,21,03,19,,,,1.6,1.1,1.2*3E
$GPRMC,124020.000,A,5034.2878,N,00227.4152,W,2.03,74.93,161011,,,A*45
$GPGGA,124021.000,5034.2882,N,00227.4146,W,1,09,1.1,13.75,M,48.8,M,,0000*45
$GPGSA,M,3,22,16,07,30,18,06,21,03,19,,,,1.6,1.1,1.2*3E
$GPGSV,3,1,11,16,72,277,41,06,66,281,41,21,58,072,41,03,50,279,39*78
$GPGSV,3,2,11,18,29,115,43,30,20,148,45,19,19,267,45,07,12,328,26*7E
$GPGSV,3,3,11,22,11,153,42,29,08,085,42,31,02,192,32*4B
$GPRMC,124021.000,A,5034.2882,N,00227.4146,W,2.01,23.01,161011,,,A*4F
$GPGGA,124022.000,5034.2884,N,00227.4144,W,1,09,1.1,13.76,M,48.8,M,,0000*41
$GPGSA,M,3,22,16,07,30,18,06,21,03,19,,,,1.6,1.1,1.2*3E
$GPRMC,124022.000,A,5034.2884,N,00227.4144,W,0.65,54.91,161011,,,A*41
$GPGGA,124023.000,5034.2885,N,00227.4144,W,1,09,1.1,13.79,M,48.8,M,,0000*4E
$GPGSA,M,3,22,16,07,30,18,06,21,03,19,,,,1.6,1.1,1.2*3E
$GPRMC,124023.000,A,5034.2885,N,00227.4144,W,0.13,61.50,161011,,,A*4B
$GPGGA,124024.000,5034.2885,N,00227.4144,W,1,09,1.1,13.80,M,48.8,M,,0000*4F
$GPGSA,M,3,22,16,07,30,18,06,21,03,19,,,,1.6,1.1,1.2*3E
$GPRMC,124024.000,A,5034.2885,N,00227.4144,W,0.44,323.68,161011,,,A*70
$GPGGA,124025.000,5034.2885,N,00227.4145,W,1,09,1.1,13.76,M,48.8,M,,0000*46
$GPGSA,M,3,22,16,07,30,18,06,21,03,19,,,,1.6,1.1,1.2*3E
$GPRMC,124025.000,A,5034.2885,N,00227.4145,W,0.40,147.12,161011,,,A*79
$GPGGA,124026.000,5034.2885,N,00227.4145,W,1,09,1.1,13.76,M,48.8,M,,0000*45
$GPGSA,M,3,22,16,07,30,18,06,21,03,19,,,,1.6,1.1,1.2*3E
$GPGSV,3,1,11,16,72,277,34,06,66,281,35,21,58,072,42,03,50,279,31*72
$GPGSV,3,2,11,18,29,115,46,30,20,148,45,19,19,267,34,07,12,328,33*79
$GPGSV,3,3,11,22,11,153,41,29,08,085,49,31,02,192,29*49
$GPRMC,124026.000,A,5034.2885,N,00227.4145,W,0.19,160.75,161011,,,A*72
$GPGGA,124027.000,5034.2884,N,00227.4145,W,1,09,1.1,13.85,M,48.8,M,,0000*49
$GPGSA,M,3,22,16,07,30,18,06,21,03,19,,,,1.6,1.1,1.2*3E
$GPRMC,124027.000,A,5034.2884,N,00227.4145,W,0.07,59.16,161011,,,A*43
$GPGGA,124028.000,5034.2884,N,00227.4145,W,1,09,1.1,13.95,M,48.8,M,,0000*47
$GPGSA,M,3,22,16,07,30,18,06,21,03,19,,,,1.6,1.1,1.2*3E
$GPRMC,124028.000,A,5034.2884,N,00227.4145,W,0.09,45.60,161011,,,A*4E
$GPGGA,124029.000,5034.2884,N,00227.4145,W,1,08,1.3,14.08,M,48.8,M,,0000*46
$GPGSA,M,3,22,16,07,30,18,06,21,03,,,,,1.8,1.3,1.3*3B
$GPRMC,124029.000,A,5034.2884,N,00227.4145,W,0.32,346.15,161011,,,A*75
$GPGGA,124030.000,5034.2885,N,00227.4146,W,1,08,1.3,14.05,M,48.8,M,,0000*41
$GPGSA,M,3,22,16,07,30,18,06,21,03,,,,,1.8,1.3,1.3*3B
$GPRMC,124030.000,A,5034.2885,N,00227.4146,W,0.32,297.70,161011,,,A*71
$GPGGA,124031.000,5034.2885,N,00227.4146,W,1,08,1.3,14.01,M,48.8,M,,0000*44
$GPGSA,M,3,22,16,07,30,18,06,21,03,,,,,1.8,1.3,1.3*3B
$GPGSV,3,1,11,16,72,277,35,06,66,281,35,21,58,072,43,03,50,279,38*7B
$GPGSV,3,2,11,18,29,115,43,30,20,148,36,19,19,267,,07,12,328,37*7B
$GPGSV,3,3,11,22,11,153,37,29,08,085,50,31,02,192,24*4D
$GPRMC,124031.000,A,5034.2885,N,00227.4146,W,0.48,135.86,161011,,,A*7F
$GPGGA,124032.000,5034.2884,N,00227.4145,W,1,08,1.3,14.05,M,48.8,M,,0000*41
$GPGSA,M,3,22,16,07,30,18,06,21,03,,,,,1.8,1.3,1.3*3B
$GPRMC,124032.000,A,5034.2884,N,00227.4145,W,0.13,126.84,161011,,,A*70
$GPGGA,124033.000,5034.2884,N,00227.4145,W,1,08,1.3,14.29,M,48.8,M,,0000*4E
$GPGSA,M,3,22,16,07,30,18,06,21,03,,,,,1.8,1.3,1.3*3B
$GPRMC,124033.000,A,5034.2884,N,00227.4145,W,0.25,116.51,161011,,,A*7F
$GPGGA,124034.000,5034.2883,N,00227.4144,W,1,08,1.3,14.52,M,48.8,M,,0000*43
$GPGSA,M,3,22,16,07,30,18,06,21,03,,,,,1.8,1.3,1.3*3B
$GPRMC,124034.000,A,5034.2883,N,00227.4144,W,0.14,122.15,161011,,,A*7B
$GPGGA,124035.000,5034.2883,N,00227.4144,W,1,08,1.3,14.61,M,48.8,M,,0000*42
$GPGSA,M,3,22,16,07,30,18,06,21,03,,,,,1.8,1.3,1.3*3B
$GPRMC,124035.000,A,5034.2883,N,00227.4144,W,0.07,175.80,161011,,,A*76
$GPGGA,124036.000,5034.2882,N,00227.4143,W,1,09,1.1,15.01,M,48.8,M,,0000*43
$GPGSA,M,3,22,16,07,30,18,06,21,03,19,,,,1.6,1.1,1.2*3E
$GPGSV,3,1,11,16,72,277,34,06,66,281,34,21,58,072,43,03,50,279,30*73
$GPGSV,3,2,11,18,29,115,47,30,20,148,46,19,19,267,30,07,12,328,26*7B
$GPGSV,3,3,11,22,11,153,43,29,08,085,50,31,02,192,31*4A
$GPRMC,124036.000,A,5034.2882,N,00227.4143,W,0.19,101.99,161011,,,A*77
$GPGGA,124037.000,5034.2882,N,00227.4143,W,1,09,1.1,14.94,M,48.8,M,,0000*4F
$GPGSA,M,3,22,16,07,30,18,06,21,03,19,,,,1.6,1.1,1.2*3E
$GPRMC,124037.000,A,5034.2882,N,00227.4143,W,0.54,145.57,161011,,,A*7D
$GPGGA,124038.000,5034.2883,N,00227.4143,W,1,09,1.1,14.94,M,48.8,M,,0000*41
$GPGSA,M,3,22,16,07,30,18,06,21,03,19,,,,1.6,1.1,1.2*3E
$GPRMC,124038.000,A,5034.2883,N,00227.4143,W,1.48,353.49,161011,,,A*75
$GPGGA,124039.000,5034.2885,N,00227.4144,W,1,09,1.1,14.69,M,48.8,M,,0000*43
$GPGSA,M,3,22,16,07,30,18,06,21,03,19,,,,1.6,1.1,1.2*3E
$GPRMC,124039.000,A,5034.2885,N,00227.4144,W,0.78,160.64,161011,,,A*7A
$GPGGA,124040.000,5034.2885,N,00227.4144,W,1,09,1.1,14.55,M,48.8,M,,0000*42
$GPGSA,M,3,22,16,07,30,18,06,21,03,19,,,,1.6,1.1,1.2*3E
$GPRMC,124040.000,A,5034.2885,N,00227.4144,W,0.34,331.68,161011,,,A*76
$GPGGA,124041.000,5034.2886,N,00227.4145,W,1,09,1.1,14.34,M,48.8,M,,0000*46
$GPGSA,M,3,22,16,07,30,18,06,21,03,19,,,,1.6,1.1,1.2*3E
$GPGSV,3,1,11,16,72,277,40,06,66,281,38,21,58,072,44,03,50,279,39*72
$GPGSV,3,2,11,18,29,115,47,30,20,148,39,19,19,267,36,07,12,328,38*7A
$GPGSV,3,3,11,22,11,153,36,29,08,085,51,31,02,192,23*4A
$GPRMC,124041.000,A,5034.2886,N,00227.4145,W,0.29,156.90,161011,,,A*7D
$GPGGA,124042.000,5034.2885,N,00227.4144,W,1,09,1.1,14.38,M,48.8,M,,0000*4B
$GPGSA,M,3,22,16,07,30,18,06,21,03,19,,,,1.6,1.1,1.2*3E
$GPRMC,124042.000,A,5034.2885,N,00227.4144,W,0.39,79.52,161011,,,A*4F
$GPGGA,124043.000,5034.2884,N,00227.4144,W,1,09,1.1,14.59,M,48.8,M,,0000*4C
$GPGSA,M,3,22,16,07,30,18,06,21,03,19,,,,1.6,1.1,1.2*3E
$GPRMC,124043.000,A,5034.2884,N,00227.4144,W,0.49,199.67,161011,,,A*71
$GPGGA,124044.000,5034.2882,N,00227.4144,W,1,09,1.1,14.65,M,48.8,M,,0000*42
$GPGSA,M,3,22,16,07,30,18,06,21,03,19,,,,1.6,1.1,1.2*3E
$GPRMC,124044.000,A,5034.2882,N,00227.4144,W,0.55,160.69,161011,,,A*75
$GPGGA,124045.000,5034.2883,N,00227.4144,W,1,08,1.2,14.62,M,48.8,M,,0000*47
