$GPGGA,134517.000,5034.6331,N,00227.7569,W,1,09,1.3,7.44,M,48.8,M,,0000*7C
$GPGSA,M,3,16,06,18,07,08,19,21,03,22,,,,2.1,1.3,1.7*36
$GPRMC,134517.000,A,5034.6331,N,00227.7569,W,1.57,1.69,161011,,,A*7D
$GPGGA,134518.000,5034.6336,N,00227.7570,W,1,09,1.3,7.38,M,48.8,M,,0000*77
$GPGSA,M,3,16,06,18,07,08,19,21,03,22,,,,2.1,1.3,1.7*36
$GPRMC,134518.000,A,5034.6336,N,00227.7570,W,2.26,345.64,161011,,,A*76
$GPGGA,134519.000,5034.6344,N,00227.7573,W,1,09,1.3,7.37,M,48.8,M,,0000*7F
$GPGSA,M,3,16,06,18,07,08,19,21,03,22,,,,2.1,1.3,1.7*36
$GPRMC,134519.000,A,5034.6344,N,00227.7573,W,3.09,346.69,161011,,,A*73
$GPGGA,134520.000,5034.6352,N,00227.7577,W,1,09,1.3,7.36,M,48.8,M,,0000*77
$GPGSA,M,3,16,06,18,07,08,19,21,03,22,,,,2.1,1.3,1.7*36
$GPRMC,134520.000,A,5034.6352,N,00227.7577,W,3.02,344.85,161011,,,A*71
$GPGGA,134521.000,5034.6360,N,00227.7582,W,1,09,1.3,7.29,M,48.8,M,,0000*73
$GPGSA,M,3,16,06,18,07,08,19,21,03,22,,,,2.1,1.3,1.7*36
$GPGSV,3,1,12,06,84,079,41,03,79,291,41,16,62,192,45,19,44,283,38*79
$GPGSV,3,2,12,18,40,084,44,22,36,138,47,21,33,060,44,07,21,304,33*70
$GPGSV,3,3,12,08,12,332,33,15,04,045,30,11,03,245,39,26,03,012,31*7D
$GPRMC,134521.000,A,5034.6360,N,00227.7582,W,3.26,337.91,161011,,,A*7C
$GPGGA,134522.000,5034.6369,N,00227.7588,W,1,09,1.3,7.26,M,48.8,M,,0000*7C
$GPGSA,M,3,16,06,18,07,08,19,21,03,22,,,,2.1,1.3,1.7*36
$GPRMC,134522.000,A,5034.6369,N,00227.7588,W,3.62,330.12,161011,,,A*70
$GPGGA,134523.000,5034.6377,N,00227.7598,W,1,09,1.3,7.13,M,48.8,M,,0000*75
$GPGSA,M,3,16,06,18,07,08,19,21,03,22,,,,2.1,1.3,1.7*36
$GPRMC,134523.000,A,5034.6377,N,00227.7598,W,3.71,321.39,161011,,,A*74
$GPGGA,134524.000,5034.6385,N,00227.7609,W,1,09,1.3,7.08,M,48.8,M,,0000*7E
$GPGSA,M,3,16,06,18,07,08,19,21,03,22,,,,2.1,1.3,1.7*36
$GPRMC,134524.000,A,5034.6385,N,00227.7609,W,4.02,322.00,161011,,,A*7F
$GPGGA,134525.000,5034.6394,N,00227.7619,W,1,09,1.3,6.97,M,48.8,M,,0000*79
$GPGSA,M,3,16,06,18,07,08,19,21,03,22,,,,2.1,1.3,1.7*36
$GPRMC,134525.000,A,5034.6394,N,00227.7619,W,4.09,326.78,161011,,,A*7F
$GPGGA,134526.000,5034.6404,N,00227.7628,W,1,09,1.3,6.94,M,48.8,M,,0000*75
$GPGSA,M,3,16,06,18,07,08,19,21,03,22,,,,2.1,1.3,1.7*36
$GPGSV,3,1,12,06,84,079,41,03,79,291,40,16,62,192,39,19,44,283,38*73
$GPGSV,3,2,12,18,40,084,44,22,36,138,47,21,33,060,40,07,21,304,27*71
$GPGSV,3,3,12,08,12,332,26,15,04,045,38,11,03,245,25,26,03,012,25*79
$GPRMC,134526.000,A,5034.6404,N,00227.7628,W,4.14,333.19,161011,,,A*7F
$GPGGA,134527.000,5034.6415,N,00227.7636,W,1,09,1.3,6.98,M,48.8,M,,0000*77
$GPGSA,M,3,16,06,18,07,08,19,21,03,22,,,,2.1,1.3,1.7*36
$GPRMC,134527.000,A,5034.6415,N,00227.7636,W,4.08,337.68,161011,,,A*7E
$GPGGA,134528.000,5034.6425,N,00227.7642,W,1,09,1.3,6.99,M,48.8,M,,0000*79
$GPGSA,M,3,16,06,18,07,08,19,21,03,22,,,,2.1,1.3,1.7*36
$GPRMC,134528.000,A,5034.6425,N,00227.7642,W,3.87,339.49,161011,,,A*7C
$GPGGA,134529.000,5034.6435,N,00227.7649,W,1,09,1.3,6.99,M,48.8,M,,0000*72
$GPGSA,M,3,16,06,18,07,08,19,21,03,22,,,,2.1,1.3,1.7*36
$GPRMC,134529.000,A,5034.6435,N,00227.7649,W,3.89,337.22,161011,,,A*7A
$GPGGA,134530.000,5034.6445,N,00227.7655,W,1,09,1.3,7.01,M,48.8,M,,0000*70
$GPGSA,M,3,16,06,18,07,08,19,21,03,22,,,,2.1,1.3,1.7*36
$GPRMC,134530.000,A,5034.6445,N,00227.7655,W,3.89,339.45,161011,,,A*77
$GPGGA,134531.000,5034.6455,N,00227.7661,W,1,09,1.3,7.01,M,48.8,M,,0000*77
$GPGSA,M,3,16,06,18,07,08,19,21,03,22,,,,2.1,1.3,1.7*36
$GPGSV,3,1,12,06,84,079,41,03,79,291,40,16,62,192,44,19,44,283,33*72
$GPGSV,3,2,12,18,40,084,44,22,36,138,46,21,33,060,33,07,21,304,32*70
$GPGSV,3,3,12,08,12,332,32,15,04,045,33,11,03,245,34,26,03,012,20*72
$GPRMC,134531.000,A,5034.6455,N,00227.7661,W,3.85,338.79,161011,,,A*72
$GPGGA,134532.000,5034.6464,N,00227.7667,W,1,09,1.3,6.95,M,48.8,M,,0000*7C
$GPGSA,M,3,16,06,18,07,08,19,21,03,22,,,,2.1,1.3,1.7*36
$GPRMC,134532.000,A,5034.6464,N,00227.7667,W,3.71,338.74,161011,,,A*73
$GPGGA,134533.000,5034.6473,N,00227.7673,W,1,09,1.3,6.94,M,48.8,M,,0000*7F
$GPGSA,M,3,16,06,18,07,08,19,21,03,22,,,,2.1,1.3,1.7*36
$GPRMC,134533.000,A,5034.6473,N,00227.7673,W,3.46,339.72,161011,,,A*72
$GPGGA,134534.000,5034.6482,N,00227.7678,W,1,09,1.3,7.12,M,48.8,M,,0000*72
$GPGSA,M,3,16,06,18,07,08,19,21,03,22,,,,2.1,1.3,1.7*36
$GPRMC,134534.000,A,5034.6482,N,00227.7678,W,3.47,340.93,161011,,,A*70
$GPGGA,134535.000,5034.6491,N,00227.7682,W,1,09,1.3,7.23,M,48.8,M,,0000*76
$GPGSA,M,3,16,06,18,07,08,19,21,03,22,,,,2.1,1.3,1.7*36
$GPRMC,134535.000,A,5034.6491,N,00227.7682,W,3.55,341.34,161011,,,A*79
$GPGGA,134536.000,5034.6501,N,00227.7688,W,1,09,1.3,7.35,M,48.8,M,,0000*70
$GPGSA,M,3,16,06,18,07,08,19,21,03,22,,,,2.1,1.3,1.7*36
$GPGSV,3,1,12,06,84,079,41,03,79,291,40,16,62,192,45,19,44,283,35*75
$GPGSV,3,2,12,18,40,084,44,22,36,138,47,21,33,060,39,07,21,304,30*79
$GPGSV,3,3,12,08,12,332,37,15,04,045,34,11,03,245,35,26,03,012,27*76
$GPRMC,134536.000,A,5034.6501,N,00227.7688,W,3.64,336.83,161011,,,A*76
$GPGGA,134537.000,5034.6510,N,00227.7694,W,1,09,1.3,7.42,M,48.8,M,,0000*7C
$GPGSA,M,3,16,06,18,07,08,19,21,03,22,,,,2.1,1.3,1.7*36
$GPRMC,134537.000,A,5034.6510,N,00227.7694,W,3.84,338.13,161011,,,A*73
$GPGGA,134538.000,5034.6520,N,00227.7701,W,1,09,1.3,7.43,M,48.8,M,,0000*7C
$GPGSA,M,3,16,06,18,07,08,19,21,03,22,,,,2.1,1.3,1.7*36
$GPRMC,134538.000,A,5034.6520,N,00227.7701,W,3.89,335.04,161011,,,A*74
$GPGGA,134539.000,5034.6529,N,00227.7708,W,1,09,1.3,7.41,M,48.8,M,,0000*7F
$GPGSA,M,3,16,06,18,07,08,19,21,03,22,,,,2.1,1.3,1.7*36
$GPRMC,134539.000,A,5034.6529,N,00227.7708,W,3.87,335.65,161011,,,A*7C
$GPGGA,134540.000,5034.6539,N,00227.7715,W,1,09,1.3,7.45,M,48.8,M,,0000*78
$GPGSA,M,3,16,06,18,07,08,19,21,03,22,,,,2.1,1.3,1.7*36
$GPRMC,134540.000,A,5034.6539,N,00227.7715,W,3.75,334.15,161011,,,A*74
$GPGGA,134541.000,5034.6547,N,00227.7723,W,1,09,1.3,7.34,M,48.8,M,,0000*73
$GPGSA,M,3,16,06,18,07,08,19,21,03,22,,,,2.1,1.3,1.7*36
$GPGSV,3,1,12,06,84,079,41,03,79,291,40,16,62,192,45,19,44,283,35*75
$GPGSV,3,2,12,18,40,084,44,22,36,138,47,21,33,060,39,07,21,304,32*7B
$GPGSV,3,3,12,08,12,332,30,15,04,045,31,11,03,245,,26,03,012,27*72
$GPRMC,134541.000,A,5034.6547,N,00227.7723,W,3.46,327.81,161011,,,A*76
$GPGGA,134542.000,5034.6556,N,00227.7731,W,1,08,1.3,7.28,M,48.8,M,,0000*7F
$GPGSA,M,3,16,06,18,08,19,21,03,22,,,,,2.3,1.3,1.8*3C
$GPRMC,134542.000,A,5034.6556,N,00227.7731,W,3.70,333.67,161011,,,A*7E
$GPGGA,134543.000,5034.6564,N,00227.7738,W,1,08,1.3,7.34,M,48.8,M,,0000*7B
$GPGSA,M,3,16,06,18,08,19,21,03,22,,,,,2.3,1.3,1.8*3C
$GPRMC,134543.000,A,5034.6564,N,00227.7738,W,3.56,335.83,161011,,,A*7F
$GPGGA,134544.000,5034.6573,N,00227.7746,W,1,08,1.3,7.27,M,48.8,M,,0000*71
$GPGSA,M,3,16,06,18,08,19,21,03,22,,,,,2.3,1.3,1.8*3C
$GPRMC,134544.000,A,5034.6573,N,00227.7746,W,3.55,334.29,161011,,,A*75
$GPGGA,134545.000,5034.6582,N,00227.7753,W,1,09,1.3,7.23,M,48.8,M,,0000*7F
$GPGSA,M,3,16,06,18,07,08,19,21,03,22,,,,2.1,1.3,1.7*36
$GPRMC,134545.000,A,5034.6582,N,00227.7753,W,3.74,331.77,161011,,,A*73
$GPGGA,134546.000,5034.6592,N,00227.7761,W,1,09,1.3,7.20,M,48.8,M,,0000*7F
$GPGSA,M,3,16,06,18,07,08,19,21,03,22,,,,2.1,1.3,1.7*36
$GPGSV,3,1,12,06,84,079,41,03,79,291,41,16,62,192,45,19,44,283,36*77
$GPGSV,3,2,12,18,40,084,42,22,36,138,47,21,33,060,38,07,21,304,26*79
$GPGSV,3,3,12,08,12,332,30,15,04,045,34,11,03,245,32,26,03,012,28*79
$GPRMC,134546.000,A,5034.6592,N,00227.7761,W,3.91,334.68,161011,,,A*70
$GPGGA,134547.000,5034.6601,N,00227.7769,W,1,09,1.3,7.11,M,48.8,M,,0000*7D
$GPGSA,M,3,16,06,18,07,08,19,21,03,22,,,,2.1,1.3,1.7*36
$GPRMC,134547.000,A,5034.6601,N,00227.7769,W,3.69,332.48,161011,,,A*73
$GPGGA,134548.000,5034.6610,N,00227.7777,W,1,09,1.3,6.98,M,48.8,M,,0000*7D
$GPGSA,M,3,16,06,18,07,08,19,21,03,22,,,,2.1,1.3,1.7*36
$GPRMC,134548.000,A,5034.6610,N,00227.7777,W,3.61,330.26,161011,,,A*71
$GPGGA,134549.000,5034.6619,N,00227.7784,W,1,09,1.3,7.05,M,48.8,M,,0000*7C
$GPGSA,M,3,16,06,18,07,08,19,21,03,22,,,,2.1,1.3,1.7*36
$GPRMC,134549.000,A,5034.6619,N,00227.7784,W,3.82,335.19,161011,,,A*71
$GPGGA,134550.000,5034.6628,N,00227.7791,W,1,09,1.3,7.13,M,48.8,M,,0000*75
$GPGSA,M,3,16,06,18,07,08,19,21,03,22,,,,2.1,1.3,1.7*36
$GPRMC,134550.000,A,5034.6628,N,00227.7791,W,3.90,333.85,161011,,,A*7F
$GPGGA,134551.000,5034.6638,N,00227.7799,W,1,09,1.3,7.21,M,48.8,M,,0000*7C
$GPGSA,M,3,16,06,18,07,08,19,21,03,22,,,,2.1,1.3,1.7*36
$GPGSV,3,1,12,06,84,079,41,03,79,291,39,16,62,192,45,19,44,283,35*7B
$GPGSV,3,2,12,18,40,084,38,22,36,138,47,21,33,060,29,07,21,304,31*72
$GPGSV,3,3,12,08,12,332,37,15,04,045,34,11,03,245,33,26,03,012,28*7F
$GPRMC,134551.000,A,5034.6638,N,00227.7799,W,4.08,336.27,161011,,,A*7C
$GPGGA,134552.000,5034.6648,N,00227.7806,W,1,09,1.3,7.27,M,48.8,M,,0000*77
$GPGSA,M,3,16,06,18,07,08,19,21,03,22,,,,2.1,1.3,1.7*36
$GPRMC,134552.000,A,5034.6648,N,00227.7806,W,3.94,332.73,161011,,,A*76
$GPGGA,134553.000,5034.6657,N,00227.7816,W,1,09,1.3,6.99,M,48.8,M,,0000*7D
$GPGSA,M,3,16,06,18,07,08,19,21,03,22,,,,2.1,1.3,1.7*36
$GPRMC,134553.000,A,5034.6657,N,00227.7816,W,3.87,332.05,161011,,,A*7B
$GPGGA,134554.000,5034.6667,N,00227.7824,W,1,09,1.3,6.92,M,48.8,M,,0000*73
$GPGSA,M,3,16,06,18,07,08,19,21,03,22,,,,2.1,1.3,1.7*36
$GPRMC,134554.000,A,5034.6667,N,00227.7824,W,4.19,333.04,161011,,,A*7E
$GPGGA,134555.000,5034.6677,N,00227.7832,W,1,09,1.3,6.78,M,48.8,M,,0000*70
$GPGSA,M,3,16,06,18,07,08,19,21,03,22,,,,2.1,1.3,1.7*36
$GPRMC,134555.000,A,5034.6677,N,00227.7832,W,3.56,340.21,161011,,,A*76
$GPGGA,134556.000,5034.6686,N,00227.7838,W,1,09,1.3,6.72,M,48.8,M,,0000*7D
$GPGSA,M,3,16,06,18,07,08,19,21,03,22,,,,2.1,1.3,1.7*36
$GPGSV,3,1,12,06,84,079,40,03,79,291,41,16,62,192,46,19,44,283,37*74
$GPGSV,3,2,12,18,40,084,41,22,36,138,46,21,33,060,41,07,21,304,37*75
$GPGSV,3,3,12,08,12,332,27,15,04,045,34,11,03,245,33,26,03,012,28*7E
$GPRMC,134556.000,A,5034.6686,N,00227.7838,W,3.36,333.10,161011,,,A*71
$GPGGA,134557.000,5034.6694,N,00227.7844,W,1,08,1.3,6.76,M,48.8,M,,0000*71
$GPGSA,M,3,16,06,18,07,19,21,03,22,,,,,2.3,1.3,1.9*32
$GPRMC,134557.000,A,5034.6694,N,00227.7844,W,3.05,336.85,161011,,,A*71
$GPGGA,134558.000,5034.6700,N,00227.7850,W,1,08,1.3,6.71,M,48.8,M,,0000*70
$GPGSA,M,3,16,06,18,07,19,21,03,22,,,,,2.3,1.3,1.9*32
$GPRMC,134558.000,A,5034.6700,N,00227.7850,W,2.24,328.01,161011,,,A*76
$GPGGA,134559.000,5034.6705,N,00227.7854,W,1,08,1.3,6.71,M,48.8,M,,0000*70
$GPGSA,M,3,16,06,18,07,19,21,03,22,,,,,2.3,1.3,1.9*32
$GPRMC,134559.000,A,5034.6705,N,00227.7854,W,2.09,340.60,161011,,,A*70
$GPGGA,134600.000,5034.6711,N,00227.7858,W,1,09,1.3,6.63,M,48.8,M,,0000*74
$GPGSA,M,3,16,06,18,07,08,19,21,03,22,,,,2.1,1.3,1.7*36
$GPRMC,134600.000,A,5034.6711,N,00227.7858,W,2.23,328.77,161011,,,A*76
$GPGGA,134601.000,5034.6717,N,00227.7863,W,1,09,1.3,6.62,M,48.8,M,,0000*7A
$GPGSA,M,3,16,06,18,07,08,19,21,03,22,,,,2.1,1.3,1.7*36
$GPGSV,3,1,12,06,84,079,41,03,79,291,42,16,62,192,47,19,44,283,36*76
$GPGSV,3,2,12,18,40,084,45,22,36,138,45,21,33,060,39,07,21,304,28*73
$GPGSV,3,3,12,08,12,332,29,15,04,045,37,11,03,245,36,26,03,012,28*76
$GPRMC,134601.000,A,5034.6717,N,00227.7863,W,2.95,341.04,161011,,,A*7F
$GPGGA,134602.000,5034.6724,N,00227.7866,W,1,09,1.3,6.72,M,48.8,M,,0000*7D
$GPGSA,M,3,16,06,18,07,08,19,21,03,22,,,,2.1,1.3,1.7*36
$GPRMC,134602.000,A,5034.6724,N,00227.7866,W,2.39,343.51,161011,,,A*7D
$GPGGA,134603.000,5034.6729,N,00227.7870,W,1,09,1.3,6.71,M,48.8,M,,0000*75
$GPGSA,M,3,16,06,18,07,08,19,21,03,22,,,,2.1,1.3,1.7*36
$GPRMC,134603.000,A,5034.6729,N,00227.7870,W,2.11,324.10,161011,,,A*78
$GPGGA,134604.000,5034.6735,N,00227.7876,W,1,09,1.3,6.71,M,48.8,M,,0000*79
$GPGSA,M,3,16,06,18,07,08,19,21,03,22,,,,2.1,1.3,1.7*36
$GPRMC,134604.000,A,5034.6735,N,00227.7876,W,2.57,328.90,161011,,,A*72
$GPGGA,134605.000,5034.6741,N,00227.7882,W,1,09,1.3,6.78,M,48.8,M,,0000*79
$GPGSA,M,3,16,06,18,07,08,19,21,03,22,,,,2.1,1.3,1.7*36
$GPRMC,134605.000,A,5034.6741,N,00227.7882,W,2.85,326.69,161011,,,A*7C
$GPGGA,134606.000,5034.6747,N,00227.7890,W,1,09,1.3,6.60,M,48.8,M,,0000*76
$GPGSA,M,3,16,06,18,07,08,19,21,03,22,,,,2.1,1.3,1.7*36
$GPGSV,3,1,12,06,84,079,42,03,79,291,41,16,62,192,46,19,44,283,40*76
$GPGSV,3,2,12,18,40,084,45,22,36,138,46,21,33,060,46,07,21,304,42*74
$GPGSV,3,3,12,08,12,332,33,15,04,045,38,11,03,245,36,26,03,012,28*72
$GPRMC,134606.000,A,5034.6747,N,00227.7890,W,2.89,317.37,161011,,,A*7F
$GPGGA,134607.000,5034.6753,N,00227.7898,W,1,09,1.3,6.68,M,48.8,M,,0000*72
$GPGSA,M,3,16,06,18,07,08,19,21,03,22,,,,2.1,1.3,1.7*36
$GPRMC,134607.000,A,5034.6753,N,00227.7898,W,3.30,323.16,161011,,,A*74
$GPGGA,134608.000,5034.6760,N,00227.7907,W,1,09,1.3,6.66,M,48.8,M,,0000*74
$GPGSA,M,3,16,06,18,07,08,19,21,03,22,,,,2.1,1.3,1.7*36
$GPRMC,134608.000,A,5034.6760,N,00227.7907,W,3.13,322.64,161011,,,A*79
$GPGGA,134609.000,5034.6767,N,00227.7915,W,1,09,1.3,6.70,M,48.8,M,,0000*76
$GPGSA,M,3,16,06,18,07,08,19,21,03,22,,,,2.1,1.3,1.7*36
$GPRMC,134609.000,A,5034.6767,N,00227.7915,W,3.24,320.19,161011,,,A*70
$GPGGA,134610.000,5034.6774,N,00227.7924,W,1,09,1.3,6.70,M,48.8,M,,0000*7E
$GPGSA,M,3,16,06,18,07,08,19,21,03,22,,,,2.1,1.3,1.7*36
$GPRMC,134610.000,A,5034.6774,N,00227.7924,W,3.38,324.80,161011,,,A*71
$GPGGA,134611.000,5034.6783,N,00227.7932,W,1,09,1.3,6.76,M,48.8,M,,0000*76
$GPGSA,M,3,16,06,18,07,08,19,21,03,22,,,,2.1,1.3,1.7*36
$GPGSV,3,1,12,06,83,086,42,03,81,291,41,16,61,191,46,19,46,284,37*73
$GPGSV,3,2,12,18,40,082,45,22,37,137,48,21,32,060,45,07,21,302,40*74
$GPGSV,3,3,12,08,12,331,33,15,05,044,39,11,05,246,34,26,03,011,29*75
$GPRMC,134611.000,A,5034.6783,N,00227.7932,W,3.58,329.55,161011,,,A*7C
$GPGGA,134612.000,5034.6791,N,00227.7939,W,1,09,1.3,6.76,M,48.8,M,,0000*7D
$GPGSA,M,3,16,06,18,07,08,19,21,03,22,,,,2.1,1.3,1.7*36
$GPRMC,134612.000,A,5034.6791,N,00227.7939,W,3.52,332.57,161011,,,A*75
$GPGGA,134613.000,5034.6800,N,00227.7946,W,1,09,1.3,6.79,M,48.8,M,,0000*7C
$GPGSA,M,3,16,06,18,07,08,19,21,03,22,,,,2.1,1.3,1.7*36
$GPRMC,134613.000,A,5034.6800,N,00227.7946,W,3.41,331.19,161011,,,A*70
$GPGGA,134614.000,5034.6808,N,00227.7953,W,1,09,1.3,6.78,M,48.8,M,,0000*76
$GPGSA,M,3,16,06,18,07,08,19,21,03,22,,,,2.1,1.3,1.7*36
$GPRMC,134614.000,A,5034.6808,N,00227.7953,W,3.38,331.01,161011,,,A*7C
$GPGGA,134615.000,5034.6816,N,00227.7959,W,1,09,1.3,6.71,M,48.8,M,,0000*7B
$GPGSA,M,3,16,06,18,07,08,19,21,03,22,,,,2.1,1.3,1.7*36
$GPRMC,134615.000,A,5034.6816,N,00227.7959,W,3.48,336.86,161011,,,A*77
$GPGGA,134616.000,5034.6825,N,00227.7966,W,1,09,1.3,6.70,M,48.8,M,,0000*75
$GPGSA,M,3,16,06,18,07,08,19,21,03,22,,,,2.1,1.3,1.7*36
$GPGSV,3,1,12,06,83,086,42,03,81,291,41,16,61,191,45,19,46,284,32*75
$GPGSV,3,2,12,18,40,082,44,22,37,137,48,21,32,060,44,07,21,302,30*73
$GPGSV,3,3,12,08,12,331,26,15,05,044,40,11,05,246,26,26,03,011,29*7C
$GPRMC,134616.000,A,5034.6825,N,00227.7966,W,3.62,332.64,161011,,,A*78
$GPGGA,134617.000,5034.6835,N,00227.7974,W,1,09,1.3,6.74,M,48.8,M,,0000*72
$GPGSA,M,3,16,06,18,07,08,19,21,03,22,,,,2.1,1.3,1.7*36
$GPRMC,134617.000,A,5034.6835,N,00227.7974,W,4.21,330.66,161011,,,A*7B
$GPGGA,134618.000,5034.6845,N,00227.7982,W,1,08,1.3,6.79,M,48.8,M,,0000*7F
$GPGSA,M,3,16,06,18,08,19,21,03,22,,,,,2.3,1.3,1.8*3C
$GPRMC,134618.000,A,5034.6845,N,00227.7982,W,4.01,330.44,161011,,,A*78
$GPGGA,134619.000,5034.6854,N,00227.7990,W,1,09,1.3,6.88,M,48.8,M,,0000*72
$GPGSA,M,3,16,06,18,07,08,19,21,03,22,,,,2.1,1.3,1.7*36
$GPRMC,134619.000,A,5034.6854,N,00227.7990,W,3.62,334.21,161011,,,A*7F
$GPGGA,134620.000,5034.6863,N,00227.7997,W,1,09,1.3,6.82,M,48.8,M,,0000*71
$GPGSA,M,3,16,06,18,07,08,19,21,03,22,,,,2.1,1.3,1.7*36
$GPRMC,134620.000,A,5034.6863,N,00227.7997,W,3.61,326.37,161011,,,A*71
$GPGGA,134621.000,5034.6872,N,00227.8007,W,1,09,1.3,6.82,M,48.8,M,,0000*7F
$GPGSA,M,3,16,06,18,07,08,19,21,03,22,,,,2.1,1.3,1.7*36
$GPGSV,3,1,12,06,83,086,41,03,81,291,41,16,61,191,45,19,46,284,35*71
$GPGSV,3,2,12,18,40,082,44,22,37,137,48,21,32,060,39,07,21,302,27*7F
$GPGSV,3,3,12,08,12,331,32,15,05,044,39,11,05,246,33,26,03,011,30*7B
$GPRMC,134621.000,A,5034.6872,N,00227.8007,W,4.15,325.48,161011,,,A*70
$GPGGA,134622.000,5034.6881,N,00227.8017,W,1,09,1.3,6.80,M,48.8,M,,0000*73
$GPGSA,M,3,16,06,18,07,08,19,21,03,22,,,,2.1,1.3,1.7*36
$GPRMC,134622.000,A,5034.6881,N,00227.8017,W,4.16,324.63,161011,,,A*75
$GPGGA,134623.000,5034.6890,N,00227.8028,W,1,09,1.3,6.83,M,48.8,M,,0000*7D
$GPGSA,M,3,16,06,18,07,08,19,21,03,22,,,,2.1,1.3,1.7*36
$GPRMC,134623.000,A,5034.6890,N,00227.8028,W,4.08,320.49,161011,,,A*7B
$GPGGA,134624.000,5034.6899,N,00227.8038,W,1,09,1.3,6.82,M,48.8,M,,0000*73
$GPGSA,M,3,16,06,18,07,08,19,21,03,22,,,,2.1,1.3,1.7*36
$GPRMC,134624.000,A,5034.6899,N,00227.8038,W,3.98,325.38,161011,,,A*79
$GPGGA,134625.000,5034.6908,N,00227.8049,W,1,09,1.3,6.83,M,48.8,M,,0000*7C
$GPGSA,M,3,16,06,18,07,08,19,21,03,22,,,,2.1,1.3,1.7*36
$GPRMC,134625.000,A,5034.6908,N,00227.8049,W,3.88,321.51,161011,,,A*7D
$GPGGA,134626.000,5034.6917,N,00227.8059,W,1,09,1.3,6.81,M,48.8,M,,0000*72
$GPGSA,M,3,16,06,18,07,08,19,21,03,22,,,,2.1,1.3,1.7*36
$GPGSV,3,1,12,06,83,086,41,03,81,291,41,16,61,191,44,19,46,284,35*70
$GPGSV,3,2,12,18,40,082,45,22,37,137,48,21,32,060,40,07,21,302,33*75
$GPGSV,3,3,12,08,12,331,30,15,05,044,39,11,05,246,31,26,03,011,29*73
$GPRMC,134626.000,A,5034.6917,N,00227.8059,W,4.21,325.30,161011,,,A*76
$GPGGA,134627.000,5034.6926,N,00227.8070,W,1,09,1.3,6.82,M,48.8,M,,0000*79
$GPGSA,M,3,16,06,18,07,08,19,21,03,22,,,,2.1,1.3,1.7*36
$GPRMC,134627.000,A,5034.6926,N,00227.8070,W,4.36,321.76,161011,,,A*7E
$GPGGA,134628.000,5034.6936,N,00227.8081,W,1,09,1.3,6.82,M,48.8,M,,0000*79
$GPGSA,M,3,16,06,18,07,08,19,21,03,22,,,,2.1,1.3,1.7*36
$GPRMC,134628.000,A,5034.6936,N,00227.8081,W,4.31,326.95,161011,,,A*73
$GPGGA,134629.000,5034.6945,N,00227.8092,W,1,09,1.3,6.75,M,48.8,M,,0000*76
$GPGSA,M,3,16,06,18,07,08,19,21,03,22,,,,2.1,1.3,1.7*36
$GPRMC,134629.000,A,5034.6945,N,00227.8092,W,4.12,323.49,161011,,,A*71
$GPGGA,134630.000,5034.6954,N,00227.8102,W,1,09,1.3,6.77,M,48.8,M,,0000*74
$GPGSA,M,3,16,06,18,07,08,19,21,03,22,,,,2.1,1.3,1.7*36
$GPRMC,134630.000,A,5034.6954,N,00227.8102,W,3.88,323.11,161011,,,A*78
$GPGGA,134631.000,5034.6962,N,00227.8113,W,1,09,1.3,6.74,M,48.8,M,,0000*73
$GPGSA,M,3,16,06,18,07,08,19,21,03,22,,,,2.1,1.3,1.7*36
$GPGSV,3,1,12,06,83,086,41,03,81,291,41,16,61,191,44,19,46,284,37*72
$GPGSV,3,2,12,18,40,082,44,22,37,137,48,21,32,060,36,07,21,302,28*7F
$GPGSV,3,3,12,08,12,331,30,15,05,044,39,11,05,246,38,26,03,011,29*7A
$GPRMC,134631.000,A,5034.6962,N,00227.8113,W,3.80,316.43,161011,,,A*75
$GPGGA,134632.000,5034.6970,N,00227.8124,W,1,09,1.3,6.80,M,48.8,M,,0000*7C
$GPGSA,M,3,16,06,18,07,08,19,21,03,22,,,,2.1,1.3,1.7*36
$GPRMC,134632.000,A,5034.6970,N,00227.8124,W,3.74,324.97,161011,,,A*72
$GPGGA,134633.000,5034.6979,N,00227.8131,W,1,09,1.3,6.79,M,48.8,M,,0000*76
$GPGSA,M,3,16,06,18,07,08,19,21,03,22,,,,2.1,1.3,1.7*36
$GPRMC,134633.000,A,5034.6979,N,00227.8131,W,3.62,335.80,161011,,,A*7F
$GPGGA,134634.000,5034.6987,N,00227.8138,W,1,09,1.3,6.79,M,48.8,M,,0000*79
$GPGSA,M,3,16,06,18,07,08,19,21,03,22,,,,2.1,1.3,1.7*36
$GPRMC,134634.000,A,5034.6987,N,00227.8138,W,2.98,330.30,161011,,,A*7A
$GPGGA,134635.000,5034.6995,N,00227.8144,W,1,09,1.3,6.85,M,48.8,M,,0000*73
$GPGSA,M,3,16,06,18,07,08,19,21,03,22,,,,2.1,1.3,1.7*36
$GPRMC,134635.000,A,5034.6995,N,00227.8144,W,3.29,335.20,161011,,,A*7C
$GPGGA,134636.000,5034.7003,N,00227.8150,W,1,09,1.3,6.99,M,48.8,M,,0000*7F
$GPGSA,M,3,16,06,18,07,08,19,21,03,22,,,,2.1,1.3,1.7*36
$GPGSV,3,1,12,06,83,086,42,03,81,291,42,16,61,191,46,19,46,284,38*7F
$GPGSV,3,2,12,18,40,082,44,22,37,137,46,21,32,060,34,07,21,302,32*78
$GPGSV,3,3,12,08,12,331,34,15,05,044,32,11,05,246,42,26,03,011,29*78
$GPRMC,134636.000,A,5034.7003,N,00227.8150,W,3.19,333.88,161011,,,A*7A
$GPGGA,134637.000,5034.7010,N,00227.8156,W,1,09,1.3,6.85,M,48.8,M,,0000*77
$GPGSA,M,3,16,06,18,07,08,19,21,03,22,,,,2.1,1.3,1.7*36
$GPRMC,134637.000,A,5034.7010,N,00227.8156,W,3.07,332.58,161011,,,A*7C
$GPGGA,134638.000,5034.7018,N,00227.8162,W,1,09,1.3,6.78,M,48.8,M,,0000*75
$GPGSA,M,3,16,06,18,07,08,19,21,03,22,,,,2.1,1.3,1.7*36
$GPRMC,134638.000,A,5034.7018,N,00227.8162,W,2.90,330.56,161011,,,A*7F
$GPGGA,134639.000,5034.7024,N,00227.8167,W,1,09,1.3,6.69,M,48.8,M,,0000*7E
$GPGSA,M,3,16,06,18,07,08,19,21,03,22,,,,2.1,1.3,1.7*36
$GPRMC,134639.000,A,5034.7024,N,00227.8167,W,2.25,335.55,161011,,,A*7C
$GPGGA,134640.000,5034.7029,N,00227.8171,W,1,09,1.3,6.65,M,48.8,M,,0000*76
$GPGSA,M,3,16,06,18,07,08,19,21,03,22,,,,2.1,1.3,1.7*36
$GPRMC,134640.000,A,5034.7029,N,00227.8171,W,1.70,341.10,161011,,,A*79
$GPGGA,134641.000,5034.7032,N,00227.8173,W,1,09,1.3,6.59,M,48.8,M,,0000*70
$GPGSA,M,3,16,06,18,07,08,19,21,03,22,,,,2.1,1.3,1.7*36
$GPGSV,3,1,12,06,83,086,41,03,81,291,36,16,61,191,43,19,46,284,36*74
$GPGSV,3,2,12,18,40,082,43,22,37,137,47,21,32,060,43,07,21,302,28*75
$GPGSV,3,3,12,08,12,331,31,15,05,044,33,11,05,246,37,26,03,011,35*73
$GPRMC,134641.000,A,5034.7032,N,00227.8173,W,1.26,324.43,161011,,,A*76
$GPGGA,134642.000,5034.7035,N,00227.8174,W,1,09,1.3,6.41,M,48.8,M,,0000*7A
$GPGSA,M,3,16,06,18,07,08,19,21,03,22,,,,2.1,1.3,1.7*36
$GPRMC,134642.000,A,5034.7035,N,00227.8174,W,1.15,15.91,161011,,,A*4B
$GPGGA,134643.000,5034.7038,N,00227.8173,W,1,09,1.3,6.12,M,48.8,M,,0000*77
$GPGSA,M,3,16,06,18,07,08,19,21,03,22,,,,2.1,1.3,1.7*36
$GPRMC,134643.000,A,5034.7038,N,00227.8173,W,1.15,10.41,161011,,,A*48
$GPGGA,134644.000,5034.7039,N,00227.8175,W,1,09,1.3,6.32,M,48.8,M,,0000*75
$GPGSA,M,3,16,06,18,07,08,19,21,03,22,,,,2.1,1.3,1.7*36
$GPRMC,134644.000,A,5034.7039,N,00227.8175,W,1.29,269.46,161011,,,A*7C
$GPGGA,134645.000,5034.7039,N,00227.8180,W,1,09,1.3,6.42,M,48.8,M,,0000*79
$GPGSA,M,3,16,06,18,07,08,19,21,03,22,,,,2.1,1.3,1.7*36
$GPRMC,134645.000,A,5034.7039,N,00227.8180,W,1.26,285.32,161011,,,A*79
$GPGGA,134646.000,5034.7040,N,00227.8185,W,1,09,1.3,6.49,M,48.8,M,,0000*7A
$GPGSA,M,3,16,06,18,07,08,19,21,03,22,,,,2.1,1.3,1.7*36
$GPGSV,3,1,12,06,83,086,42,03,81,291,41,16,61,191,43,19,46,284,35*74
$GPGSV,3,2,12,18,40,082,45,22,37,137,47,21,32,060,45,07,21,302,33*7F
$GPGSV,3,3,12,08,12,331,36,15,05,044,45,11,05,246,35,26,03,011,43*76
$GPRMC,134646.000,A,5034.7040,N,00227.8185,W,1.30,290.94,161011,,,A*7E
$GPGGA,134647.000,5034.7041,N,00227.8189,W,1,09,1.3,6.58,M,48.8,M,,0000*76
$GPGSA,M,3,16,06,18,07,08,19,21,03,22,,,,2.1,1.3,1.7*36
$GPRMC,134647.000,A,5034.7041,N,00227.8189,W,1.24,306.23,161011,,,A*75
$GPGGA,134648.000,5034.7042,N,00227.8194,W,1,09,1.3,6.69,M,48.8,M,,0000*74
$GPGSA,M,3,16,06,18,07,08,19,21,03,22,,,,2.1,1.3,1.7*36
$GPRMC,134648.000,A,5034.7042,N,00227.8194,W,1.13,294.60,161011,,,A*7C
$GPGGA,134649.000,5034.7043,N,00227.8198,W,1,09,1.3,6.80,M,48.8,M,,0000*7F
$GPGSA,M,3,16,06,18,07,08,19,21,03,22,,,,2.1,1.3,1.7*36
$GPRMC,134649.000,A,5034.7043,N,00227.8198,W,1.02,271.16,161011,,,A*7A
$GPGGA,134650.000,5034.7043,N,00227.8202,W,1,09,1.3,6.64,M,48.8,M,,0000*7D
$GPGSA,M,3,16,06,18,07,08,19,21,03,22,,,,2.1,1.3,1.7*36
$GPRMC,134650.000,A,5034.7043,N,00227.8202,W,0.60,319.58,161011,,,A*72
$GPGGA,134651.000,5034.7045,N,00227.8204,W,1,09,1.3,6.57,M,48.8,M,,0000*7C
$GPGSA,M,3,16,06,18,07,08,19,21,03,22,,,,2.1,1.3,1.7*36
$GPGSV,3,1,12,06,83,086,42,03,81,291,42,16,61,191,44,19,46,284,39*7C
$GPGSV,3,2,12,18,40,082,45,22,37,137,47,21,32,060,34,07,21,302,33*79
$GPGSV,3,3,12,08,12,331,29,15,05,044,34,11,05,246,44,26,03,011,32*7E
$GPRMC,134651.000,A,5034.7045,N,00227.8204,W,0.64,328.71,161011,,,A*7E
$GPGGA,134652.000,5034.7047,N,00227.8205,W,1,09,1.3,6.46,M,48.8,M,,0000*7C
$GPGSA,M,3,16,06,18,07,08,19,21,03,22,,,,2.1,1.3,1.7*36
$GPRMC,134652.000,A,5034.7047,N,00227.8205,W,1.06,359.01,161011,,,A*7A
$GPGGA,134653.000,5034.7050,N,00227.8204,W,1,09,1.3,6.41,M,48.8,M,,0000*7D
$GPGSA,M,3,16,06,18,07,08,19,21,03,22,,,,2.1,1.3,1.7*36
$GPRMC,134653.000,A,5034.7050,N,00227.8204,W,1.38,14.56,161011,,,A*49
$GPGGA,134654.000,5034.7054,N,00227.8204,W,1,09,1.3,6.39,M,48.8,M,,0000*71
$GPGSA,M,3,16,06,18,07,08,19,21,03,22,,,,2.1,1.3,1.7*36
$GPRMC,134654.000,A,5034.7054,N,00227.8204,W,1.53,0.70,161011,,,A*76
$GPGGA,134655.000,5034.7059,N,00227.8204,W,1,09,1.3,6.42,M,48.8,M,,0000*71
$GPGSA,M,3,16,06,18,07,08,19,21,03,22,,,,2.1,1.3,1.7*36
$GPRMC,134655.000,A,5034.7059,N,00227.8204,W,1.76,358.52,161011,,,A*73
$GPGGA,134656.000,5034.7064,N,00227.8207,W,1,09,1.3,6.37,M,48.8,M,,0000*7D
$GPGSA,M,3,16,06,18,07,08,19,21,03,22,,,,2.1,1.3,1.7*36
$GPGSV,3,1,12,06,83,086,43,03,81,291,43,16,61,191,46,19,46,284,41*71
$GPGSV,3,2,12,18,40,082,46,22,37,137,46,21,32,060,40,07,21,302,35*7E
$GPGSV,3,3,12,08,12,331,30,15,05,044,41,11,05,246,48,26,03,011,38*72
$GPRMC,134656.000,A,5034.7064,N,00227.8207,W,2.31,333.64,161011,,,A*75
$GPGGA,134657.000,5034.7071,N,00227.8213,W,1,09,1.3,6.35,M,48.8,M,,0000*7F
$GPGSA,M,3,16,06,18,07,08,19,21,03,22,,,,2.1,1.3,1.7*36
$GPRMC,134657.000,A,5034.7071,N,00227.8213,W,2.78,331.70,161011,,,A*7F
$GPGGA,134658.000,5034.7077,N,00227.8219,W,1,09,1.3,6.22,M,48.8,M,,0000*7A
$GPGSA,M,3,16,06,18,07,08,19,21,03,22,,,,2.1,1.3,1.7*36
$GPRMC,134658.000,A,5034.7077,N,00227.8219,W,2.59,329.08,161011,,,A*79
$GPGGA,134659.000,5034.7083,N,00227.8224,W,1,08,1.3,6.13,M,48.8,M,,0000*7D
$GPGSA,M,3,16,06,18,08,19,21,03,22,,,,,2.3,1.3,1.9*3D
$GPRMC,134659.000,A,5034.7083,N,00227.8224,W,2.22,326.46,161011,,,A*74
$GPGGA,134700.000,5034.7087,N,00227.8230,W,1,08,1.3,6.06,M,48.8,M,,0000*75
$GPGSA,M,3,16,06,18,08,19,21,03,22,,,,,2.3,1.3,1.9*3D
$GPRMC,134700.000,A,5034.7087,N,00227.8230,W,1.95,322.31,161011,,,A*73
$GPGGA,134701.000,5034.7091,N,00227.8235,W,1,09,1.3,5.99,M,48.8,M,,0000*72
$GPGSA,M,3,16,06,18,07,08,19,21,03,22,,,,2.1,1.3,1.7*36
$GPGSV,3,1,12,06,83,086,43,03,81,291,43,16,61,191,43,19,46,284,37*75
$GPGSV,3,2,12,18,40,082,46,22,37,137,47,21,32,060,45,07,21,302,33*7C
$GPGSV,3,3,12,08,12,331,30,15,05,044,44,11,05,246,40,26,03,011,40*70
$GPRMC,134701.000,A,5034.7091,N,00227.8235,W,1.69,321.61,161011,,,A*75
$GPGGA,134702.000,5034.7095,N,00227.8241,W,1,09,1.3,5.99,M,48.8,M,,0000*76
$GPGSA,M,3,16,06,18,07,08,19,21,03,22,,,,2.1,1.3,1.7*36
$GPRMC,134702.000,A,5034.7095,N,00227.8241,W,1.79,313.49,161011,,,A*7B
$GPGGA,134703.000,5034.7099,N,00227.8245,W,1,09,1.3,5.95,M,48.8,M,,0000*73
$GPGSA,M,3,16,06,18,07,08,19,21,03,22,,,,2.1,1.3,1.7*36
$GPRMC,134703.000,A,5034.7099,N,00227.8245,W,2.02,336.33,161011,,,A*77
$GPGGA,134704.000,5034.7104,N,00227.8249,W,1,09,1.3,5.93,M,48.8,M,,0000*7B
$GPGSA,M,3,16,06,18,07,08,19,21,03,22,,,,2.1,1.3,1.7*36
$GPRMC,134704.000,A,5034.7104,N,00227.8249,W,2.07,344.81,161011,,,A*70
$GPGGA,134705.000,5034.7110,N,00227.8251,W,1,08,1.3,5.92,M,48.8,M,,0000*76
$GPGSA,M,3,16,06,18,07,19,21,03,22,,,,,2.3,1.3,1.9*32
$GPRMC,134705.000,A,5034.7110,N,00227.8251,W,2.00,341.25,161011,,,A*71
$GPGGA,134706.000,5034.7114,N,00227.8254,W,1,08,1.3,5.87,M,48.8,M,,0000*70
$GPGSA,M,3,16,06,18,07,19,21,03,22,,,,,2.3,1.3,1.9*32
$GPGSV,3,1,12,06,83,087,43,03,81,291,43,16,60,191,44,19,46,284,37*72
$GPGSV,3,2,12,18,40,082,46,22,38,137,47,21,32,060,45,07,21,302,28*79
$GPGSV,3,3,12,08,12,330,,15,05,044,44,11,05,246,41,26,03,010,35*70
$GPRMC,134706.000,A,5034.7114,N,00227.8254,W,1.70,337.62,161011,,,A*75
$GPGGA,134707.000,5034.7119,N,00227.8257,W,1,09,1.3,5.77,M,48.8,M,,0000*71
$GPGSA,M,3,16,06,18,07,08,19,21,03,22,,,,2.2,1.3,1.7*35
$GPRMC,134707.000,A,5034.7119,N,00227.8257,W,1.66,344.94,161011,,,A*70
$GPGGA,134708.000,5034.7123,N,00227.8259,W,1,08,1.3,5.71,M,48.8,M,,0000*7E
$GPGSA,M,3,16,06,18,08,19,21,03,22,,,,,2.3,1.3,1.9*3D
$GPRMC,134708.000,A,5034.7123,N,00227.8259,W,1.69,358.05,161011,,,A*72
$GPGGA,134709.000,5034.7128,N,00227.8258,W,1,09,1.3,5.66,M,48.8,M,,0000*72
$GPGSA,M,3,16,06,18,07,08,19,21,03,22,,,,2.2,1.3,1.7*35
$GPRMC,134709.000,A,5034.7128,N,00227.8258,W,1.62,5.96,161011,,,A*73
$GPGGA,134710.000,5034.7131,N,00227.8258,W,1,09,1.3,5.63,M,48.8,M,,0000*77
$GPGSA,M,3,16,06,18,07,08,19,21,03,22,,,,2.2,1.3,1.7*35
$GPRMC,134710.000,A,5034.7131,N,00227.8258,W,0.92,9.45,161011,,,A*7F
$GPGGA,134711.000,5034.7134,N,00227.8257,W,1,09,1.3,5.66,M,48.8,M,,0000*79
$GPGSA,M,3,16,06,18,07,08,19,21,03,22,,,,2.2,1.3,1.7*35
$GPGSV,3,1,12,06,83,087,42,03,81,291,43,16,60,191,45,19,46,284,37*72
$GPGSV,3,2,12,18,40,082,46,22,38,137,46,21,32,060,44,07,21,302,29*78
$GPGSV,3,3,12,08,12,330,28,15,05,044,37,11,05,246,43,26,03,010,34*7D
$GPRMC,134711.000,A,5034.7134,N,00227.8257,W,0.85,21.80,161011,,,A*41
$GPGGA,134712.000,5034.7136,N,00227.8255,W,1,09,1.3,5.65,M,48.8,M,,0000*79
$GPGSA,M,3,16,06,18,07,08,19,21,03,22,,,,2.2,1.3,1.7*35
$GPRMC,134712.000,A,5034.7136,N,00227.8255,W,1.07,29.42,161011,,,A*4F
$GPGGA,134713.000,5034.7138,N,00227.8254,W,1,09,1.3,5.51,M,48.8,M,,0000*70
$GPGSA,M,3,16,06,18,07,08,19,21,03,22,,,,2.2,1.3,1.7*35
$GPRMC,134713.000,A,5034.7138,N,00227.8254,W,0.55,35.48,161011,,,A*40
$GPGGA,134714.000,5034.7138,N,00227.8253,W,1,09,1.3,5.50,M,48.8,M,,0000*71
$GPGSA,M,3,16,06,18,07,08,19,21,03,22,,,,2.2,1.3,1.7*35
$GPRMC,134714.000,A,5034.7138,N,00227.8253,W,0.11,183.15,161011,,,A*74
$GPGGA,134715.000,5034.7138,N,00227.8254,W,1,09,1.3,5.46,M,48.8,M,,0000*70
$GPGSA,M,3,16,06,18,07,08,19,21,03,22,,,,2.2,1.3,1.7*35
$GPRMC,134715.000,A,5034.7138,N,00227.8254,W,0.06,291.34,161011,,,A*77
$GPGGA,134716.000,5034.7139,N,00227.8253,W,1,09,1.3,5.47,M,48.8,M,,0000*74
$GPGSA,M,3,16,06,18,07,08,19,21,03,22,,,,2.2,1.3,1.7*35
$GPGSV,3,1,12,06,83,088,42,03,81,291,43,16,60,191,45,19,46,284,37*7D
$GPGSV,3,2,12,18,40,082,46,22,38,137,46,21,32,060,44,07,21,302,31*71
$GPGSV,3,3,12,08,12,330,33,11,05,246,42,15,05,044,41,26,03,010,35*76
$GPRMC,134716.000,A,5034.7139,N,00227.8253,W,0.99,21.07,161011,,,A*4D
$GPGGA,134717.000,5034.7141,N,00227.8252,W,1,09,1.3,5.40,M,48.8,M,,0000*7C
$GPGSA,M,3,16,06,18,07,08,19,21,03,22,,,,2.2,1.3,1.7*35
$GPRMC,134717.000,A,5034.7141,N,00227.8252,W,0.81,15.45,161011,,,A*4A
$GPGGA,134718.000,5034.7143,N,00227.8251,W,1,09,1.3,5.40,M,48.8,M,,0000*72
$GPGSA,M,3,16,06,18,07,08,19,21,03,22,,,,2.2,1.3,1.7*35
$GPRMC,134718.000,A,5034.7143,N,00227.8251,W,0.53,26.90,161011,,,A*43
$GPGGA,134719.000,5034.7145,N,00227.8252,W,1,09,1.3,5.35,M,48.8,M,,0000*74
$GPGSA,M,3,16,06,18,07,08,19,21,03,22,,,,2.2,1.3,1.7*35
$GPRMC,134719.000,A,5034.7145,N,00227.8252,W,0.91,331.61,161011,,,A*72
$GPGGA,134720.000,5034.7146,N,00227.8254,W,1,09,1.3,5.39,M,48.8,M,,0000*77
$GPGSA,M,3,16,06,18,07,08,19,21,03,22,,,,2.2,1.3,1.7*35
$GPRMC,134720.000,A,5034.7146,N,00227.8254,W,0.44,283.24,161011,,,A*7C
$GPGGA,134721.000,5034.7146,N,00227.8255,W,1,09,1.3,5.38,M,48.8,M,,0000*76
$GPGSA,M,3,16,06,18,07,08,19,21,03,22,,,,2.2,1.3,1.7*35
$GPGSV,3,1,12,06,83,088,42,03,81,291,43,16,60,191,45,19,46,284,37*7D
$GPGSV,3,2,12,18,40,082,46,22,38,137,47,21,32,060,45,07,21,302,39*79
$GPGSV,3,3,12,08,12,330,29,11,05,246,37,15,05,044,42,26,03,010,37*7E
$GPRMC,134721.000,A,5034.7146,N,00227.8255,W,0.04,349.12,161011,,,A*7A
$GPGGA,134722.000,5034.7146,N,00227.8255,W,1,09,1.3,5.38,M,48.8,M,,0000*75
$GPGSA,M,3,16,06,18,07,08,19,21,03,22,,,,2.2,1.3,1.7*35
$GPRMC,134722.000,A,5034.7146,N,00227.8255,W,0.42,327.40,161011,,,A*74
$GPGGA,134723.000,5034.7147,N,00227.8257,W,1,09,1.3,5.32,M,48.8,M,,0000*7D
$GPGSA,M,3,16,06,18,07,08,19,21,03,22,,,,2.2,1.3,1.7*35
$GPRMC,134723.000,A,5034.7147,N,00227.8257,W,0.42,312.80,161011,,,A*7C
$GPGGA,134724.000,5034.7147,N,00227.8258,W,1,09,1.3,5.31,M,48.8,M,,0000*76
$GPGSA,M,3,16,06,18,07,08,19,21,03,22,,,,2.2,1.3,1.7*35
$GPRMC,134724.000,A,5034.7147,N,00227.8258,W,0.21,309.31,161011,,,A*71
$GPGGA,134725.000,5034.7148,N,00227.8259,W,1,09,1.3,5.29,M,48.8,M,,0000*70
$GPGSA,M,3,16,06,18,07,08,19,21,03,22,,,,2.2,1.3,1.7*35
$GPRMC,134725.000,A,5034.7148,N,00227.8259,W,0.37,325.55,161011,,,A*75
$GPGGA,134726.000,5034.7148,N,00227.8261,W,1,09,1.3,5.29,M,48.8,M,,0000*78
$GPGSA,M,3,16,06,18,07,08,19,21,03,22,,,,2.2,1.3,1.7*35
$GPGSV,3,1,12,06,83,088,43,03,81,291,43,16,60,191,44,19,46,284,37*7D
$GPGSV,3,2,12,18,40,082,45,22,38,137,47,21,32,060,45,07,21,302,33*70
$GPGSV,3,3,12,08,12,330,26,11,05,246,39,15,05,044,42,26,03,010,37*7F
$GPRMC,134726.000,A,5034.7148,N,00227.8261,W,0.59,285.26,161011,,,A*7A
$GPGGA,134727.000,5034.7149,N,00227.8264,W,1,08,1.3,5.30,M,48.8,M,,0000*74
$GPGSA,M,3,16,06,18,07,19,21,03,22,,,,,2.3,1.3,1.9*32
$GPRMC,134727.000,A,5034.7149,N,00227.8264,W,0.92,287.50,161011,,,A*7B
$GPGGA,134728.000,5034.7151,N,00227.8268,W,1,08,1.3,5.26,M,48.8,M,,0000*79
$GPGSA,M,3,16,06,18,07,19,21,03,22,,,,,2.3,1.3,1.9*32
$GPRMC,134728.000,A,5034.7151,N,00227.8268,W,1.24,320.80,161011,,,A*7C
$GPGGA,134729.000,5034.7153,N,00227.8269,W,1,09,1.3,5.31,M,48.8,M,,0000*7C
$GPGSA,M,3,16,06,18,07,08,19,21,03,22,,,,2.2,1.3,1.7*35
$GPRMC,134729.000,A,5034.7153,N,00227.8269,W,0.99,13.50,161011,,,A*47
$GPGGA,134730.000,5034.7155,N,00227.8269,W,1,09,1.3,5.42,M,48.8,M,,0000*76
$GPGSA,M,3,16,06,18,07,08,19,21,03,22,,,,2.2,1.3,1.7*35
$GPRMC,134730.000,A,5034.7155,N,00227.8269,W,0.76,329.23,161011,,,A*76
$GPGGA,134731.000,5034.7157,N,00227.8271,W,1,09,1.3,5.47,M,48.8,M,,0000*79
$GPGSA,M,3,16,06,18,07,08,19,21,03,22,,,,2.2,1.3,1.7*35
$GPGSV,3,1,12,06,83,088,39,03,81,291,39,16,60,191,45,19,46,284,35*7E
$GPGSV,3,2,12,18,40,082,40,22,38,137,46,21,32,060,29,07,21,302,35*78
$GPGSV,3,3,12,08,12,330,29,11,05,246,47,15,05,044,34,26,03,010,36*79
$GPRMC,134731.000,A,5034.7157,N,00227.8271,W,0.72,322.18,161011,,,A*7B
$GPGGA,134732.000,5034.7158,N,00227.8273,W,1,09,1.3,5.60,M,48.8,M,,0000*72
$GPGSA,M,3,16,06,18,07,08,19,21,03,22,,,,2.2,1.3,1.7*35
$GPRMC,134732.000,A,5034.7158,N,00227.8273,W,0.98,316.08,161011,,,A*77
$GPGGA,134733.000,5034.7161,N,00227.8275,W,1,09,1.3,5.64,M,48.8,M,,0000*7B
$GPGSA,M,3,16,06,18,07,08,19,21,03,22,,,,2.2,1.3,1.7*35
$GPRMC,134733.000,A,5034.7161,N,00227.8275,W,1.46,358.92,161011,,,A*71
$GPGGA,134734.000,5034.7166,N,00227.8276,W,1,09,1.3,5.52,M,48.8,M,,0000*7D
$GPGSA,M,3,16,06,18,07,08,19,21,03,22,,,,2.2,1.3,1.7*35
$GPRMC,134734.000,A,5034.7166,N,00227.8276,W,1.87,359.36,161011,,,A*70
$GPGGA,134735.000,5034.7171,N,00227.8276,W,1,08,1.3,5.37,M,48.8,M,,0000*78
$GPGSA,M,3,16,06,18,07,19,21,03,22,,,,,2.3,1.3,1.9*32
$GPRMC,134735.000,A,5034.7171,N,00227.8276,W,1.72,351.87,161011,,,A*7F
$GPGGA,134736.000,5034.7175,N,00227.8276,W,1,08,1.3,5.29,M,48.8,M,,0000*70
$GPGSA,M,3,16,06,18,07,19,21,03,22,,,,,2.3,1.3,1.9*32
$GPGSV,3,1,12,06,83,088,40,03,81,291,41,16,60,191,44,19,46,284,39*72
$GPGSV,3,2,12,18,40,082,39,22,38,137,43,21,32,060,35,07,21,302,36*7D
$GPGSV,3,3,12,08,12,330,,11,05,246,48,15,05,044,36,26,03,010,25*7D
$GPRMC,134736.000,A,5034.7175,N,00227.8276,W,1.19,8.28,161011,,,A*7F
$GPGGA,134737.000,5034.7178,N,00227.8274,W,1,09,1.3,5.16,M,48.8,M,,0000*73
$GPGSA,M,3,16,06,18,07,08,19,21,03,22,,,,2.2,1.3,1.7*35
$GPRMC,134737.000,A,5034.7178,N,00227.8274,W,1.34,25.32,161011,,,A*4A
$GPGGA,134738.000,5034.7181,N,00227.8272,W,1,09,1.3,5.04,M,48.8,M,,0000*7F
$GPGSA,M,3,16,06,18,07,08,19,21,03,22,,,,2.2,1.3,1.7*35
$GPRMC,134738.000,A,5034.7181,N,00227.8272,W,0.73,4.31,161011,,,A*77
$GPGGA,134739.000,5034.7183,N,00227.8272,W,1,09,1.3,5.01,M,48.8,M,,0000*79
$GPGSA,M,3,16,06,18,07,08,19,21,03,22,,,,2.2,1.3,1.7*35
$GPRMC,134739.000,A,5034.7183,N,00227.8272,W,0.54,353.94,161011,,,A*7F
$GPGGA,134740.000,5034.7184,N,00227.8272,W,1,09,1.3,5.00,M,48.8,M,,0000*71
$GPGSA,M,3,16,06,18,07,08,19,21,03,22,,,,2.2,1.3,1.7*35
$GPRMC,134740.000,A,5034.7184,N,00227.8272,W,0.31,14.88,161011,,,A*48
$GPGGA,134741.000,5034.7185,N,00227.8272,W,1,09,1.3,4.95,M,48.8,M,,0000*7C
$GPGSA,M,3,16,06,18,07,08,19,21,03,22,,,,2.2,1.3,1.7*35
$GPGSV,3,1,12,06,83,088,41,03,81,291,41,16,60,191,44,19,46,284,33*79
$GPGSV,3,2,12,18,40,082,46,22,38,137,46,21,32,060,42,07,21,302,34*72
$GPGSV,3,3,12,08,12,330,27,11,05,246,41,15,05,044,38,26,03,010,31*7A
$GPRMC,134741.000,A,5034.7185,N,00227.8272,W,0.59,332.35,161011,,,A*77
$GPGGA,134742.000,5034.7187,N,00227.8273,W,1,08,1.3,4.88,M,48.8,M,,0000*71
$GPGSA,M,3,16,06,18,07,19,21,03,22,,,,,2.3,1.3,1.9*32
$GPRMC,134742.000,A,5034.7187,N,00227.8273,W,0.67,1.03,161011,,,A*7C
$GPGGA,134743.000,5034.7189,N,00227.8273,W,1,08,1.3,4.87,M,48.8,M,,0000*71
$GPGSA,M,3,16,06,18,07,19,21,03,22,,,,,2.3,1.3,1.9*32
$GPRMC,134743.000,A,5034.7189,N,00227.8273,W,0.87,11.03,161011,,,A*4C
$GPGGA,134744.000,5034.7191,N,00227.8272,W,1,07,1.4,4.83,M,48.8,M,,0000*72
$GPGSA,M,3,16,06,18,07,21,03,22,,,,,,2.3,1.4,1.9*3D
$GPRMC,134744.000,A,5034.7191,N,00227.8272,W,0.96,7.32,161011,,,A*76
$GPGGA,134745.000,5034.7194,N,00227.8272,W,1,07,1.4,4.76,M,48.8,M,,0000*7C
$GPGSA,M,3,16,06,18,07,21,03,22,,,,,,2.3,1.4,1.9*3D
$GPRMC,134745.000,A,5034.7194,N,00227.8272,W,1.04,3.83,161011,,,A*76
$GPGGA,134746.000,5034.7197,N,00227.8271,W,1,09,1.3,4.77,M,48.8,M,,0000*77
$GPGSA,M,3,16,06,18,07,08,19,21,03,22,,,,2.2,1.3,1.7*35
$GPGSV,3,1,12,06,82,089,42,03,81,291,42,16,60,191,44,19,46,284,37*7D
$GPGSV,3,2,12,18,40,081,46,22,38,137,47,21,32,060,42,07,21,302,33*77
$GPGSV,3,3,12,08,12,330,28,11,05,246,42,15,05,044,37,26,03,010,32*7A
$GPRMC,134746.000,A,5034.7197,N,00227.8271,W,1.03,2.77,161011,,,A*78
$GPGGA,134747.000,5034.7200,N,00227.8271,W,1,08,1.3,4.70,M,48.8,M,,0000*7D
$GPGSA,M,3,16,06,18,07,19,21,03,22,,,,,2.3,1.3,1.9*32
$GPRMC,134747.000,A,5034.7200,N,00227.8271,W,0.97,7.97,161011,,,A*73
$GPGGA,134748.000,5034.7203,N,00227.8272,W,1,08,1.3,4.52,M,48.8,M,,0000*72
$GPGSA,M,3,16,06,18,07,19,21,03,22,,,,,2.3,1.3,1.9*32
$GPRMC,134748.000,A,5034.7203,N,00227.8272,W,1.15,356.74,161011,,,A*7D
$GPGGA,134749.000,5034.7206,N,00227.8271,W,1,09,1.3,4.62,M,48.8,M,,0000*77
$GPGSA,M,3,16,06,18,07,08,19,21,03,22,,,,2.2,1.3,1.7*35
$GPRMC,134749.000,A,5034.7206,N,00227.8271,W,1.24,6.72,161011,,,A*78
$GPGGA,134750.000,5034.7210,N,00227.8271,W,1,09,1.3,4.59,M,48.8,M,,0000*70
$GPGSA,M,3,16,06,18,07,08,19,21,03,22,,,,2.2,1.3,1.7*35
$GPRMC,134750.000,A,5034.7210,N,00227.8271,W,1.58,359.61,161011,,,A*77
$GPGGA,134751.000,5034.7214,N,00227.8271,W,1,08,1.3,4.65,M,48.8,M,,0000*7B
$GPGSA,M,3,16,06,18,07,19,21,03,22,,,,,2.3,1.3,1.9*32
$GPGSV,3,1,12,06,82,089,43,03,81,291,42,16,60,191,44,19,46,284,37*7C
$GPGSV,3,2,12,18,40,081,46,22,38,137,47,21,32,060,42,07,21,302,30*74
$GPGSV,3,3,12,08,12,330,21,11,05,246,43,15,05,044,34,26,03,010,32*71
$GPRMC,134751.000,A,5034.7214,N,00227.8271,W,1.64,359.99,161011,,,A*7A
$GPGGA,134752.000,5034.7219,N,00227.8271,W,1,08,1.3,4.52,M,48.8,M,,0000*71
$GPGSA,M,3,16,06,18,07,19,21,03,22,,,,,2.3,1.3,1.9*32
$GPRMC,134752.000,A,5034.7219,N,00227.8271,W,1.67,6.21,161011,,,A*7D
$GPGGA,134753.000,5034.7223,N,00227.8270,W,1,08,1.3,4.45,M,48.8,M,,0000*7E
$GPGSA,M,3,16,06,18,07,19,21,03,22,,,,,2.3,1.3,1.9*32
$GPRMC,134753.000,A,5034.7223,N,00227.8270,W,1.87,8.09,161011,,,A*7E
$GPGGA,134754.000,5034.7229,N,00227.8268,W,1,08,1.3,4.49,M,48.8,M,,0000*76
$GPGSA,M,3,16,06,18,07,19,21,03,22,,,,,2.3,1.3,1.9*32
$GPRMC,134754.000,A,5034.7229,N,00227.8268,W,2.16,8.02,161011,,,A*7A
$GPGGA,134755.000,5034.7235,N,00227.8266,W,1,08,1.3,4.52,M,48.8,M,,0000*7E
$GPGSA,M,3,16,06,18,07,19,21,03,22,,,,,2.3,1.3,1.9*32
$GPRMC,134755.000,A,5034.7235,N,00227.8266,W,2.50,8.20,161011,,,A*7A
$GPGGA,134756.000,5034.7242,N,00227.8264,W,1,08,1.3,4.55,M,48.8,M,,0000*78
$GPGSA,M,3,16,06,18,07,19,21,03,22,,,,,2.3,1.3,1.9*32
$GPGSV,3,1,12,06,82,089,43,03,81,291,42,16,60,191,45,19,46,284,38*72
$GPGSV,3,2,12,18,40,081,45,22,38,137,47,21,32,060,42,07,21,302,30*77
$GPGSV,3,3,12,08,12,330,,11,05,246,44,15,05,044,39,26,03,010,33*79
$GPRMC,134756.000,A,5034.7242,N,00227.8264,W,2.45,12.60,161011,,,A*40
$GPGGA,134757.000,5034.7249,N,00227.8263,W,1,08,1.3,4.44,M,48.8,M,,0000*75
$GPGSA,M,3,16,06,18,07,19,21,03,22,,,,,2.3,1.3,1.9*32
$GPRMC,134757.000,A,5034.7249,N,00227.8263,W,2.84,5.12,161011,,,A*73
$GPGGA,134758.000,5034.7256,N,00227.8261,W,1,09,1.3,4.63,M,48.8,M,,0000*72
$GPGSA,M,3,16,06,18,07,08,19,21,03,22,,,,2.2,1.3,1.7*35
$GPRMC,134758.000,A,5034.7256,N,00227.8261,W,2.13,12.90,161011,,,A*42
$GPGGA,134759.000,5034.7261,N,00227.8258,W,1,08,1.3,4.74,M,48.8,M,,0000*7A
$GPGSA,M,3,16,06,18,07,19,21,03,22,,,,,2.3,1.3,1.9*32
$GPRMC,134759.000,A,5034.7261,N,00227.8258,W,1.97,13.33,161011,,,A*4A
$GPGGA,134800.000,5034.7266,N,00227.8256,W,1,08,1.3,4.78,M,48.8,M,,0000*7C
$GPGSA,M,3,16,06,18,07,19,21,03,22,,,,,2.3,1.3,1.9*32
$GPRMC,134800.000,A,5034.7266,N,00227.8256,W,1.73,12.09,161011,,,A*42
$GPGGA,134801.000,5034.7270,N,00227.8254,W,1,09,1.3,4.86,M,48.8,M,,0000*78
$GPGSA,M,3,16,06,18,07,08,19,21,03,22,,,,2.2,1.3,1.7*35
$GPGSV,3,1,12,06,82,089,43,03,81,291,42,16,60,191,45,19,46,284,38*72
$GPGSV,3,2,12,18,40,081,44,22,38,137,47,21,32,060,42,07,21,302,30*76
$GPGSV,3,3,12,08,12,330,29,11,05,246,44,15,05,044,38,26,03,010,34*74
$GPRMC,134801.000,A,5034.7270,N,00227.8254,W,1.37,27.44,161011,,,A*49
$GPGGA,134802.000,5034.7274,N,00227.8251,W,1,08,1.3,4.92,M,48.8,M,,0000*7E
$GPGSA,M,3,16,06,18,07,19,21,03,22,,,,,2.3,1.3,1.9*32
$GPRMC,134802.000,A,5034.7274,N,00227.8251,W,1.33,14.74,161011,,,A*4C
$GPGGA,134803.000,5034.7277,N,00227.8250,W,1,08,1.3,4.98,M,48.8,M,,0000*77
$GPGSA,M,3,16,06,18,07,19,21,03,22,,,,,2.3,1.3,1.9*32
$GPRMC,134803.000,A,5034.7277,N,00227.8250,W,1.30,3.79,161011,,,A*77
$GPGGA,134804.000,5034.7281,N,00227.8250,W,1,08,1.3,5.00,M,48.8,M,,0000*79
$GPGSA,M,3,16,06,18,07,19,21,03,22,,,,,2.3,1.3,1.9*32
$GPRMC,134804.000,A,5034.7281,N,00227.8250,W,1.28,2.38,161011,,,A*74
$GPGGA,134805.000,5034.7284,N,00227.8249,W,1,08,1.3,5.03,M,48.8,M,,0000*76
$GPGSA,M,3,16,06,18,07,19,21,03,22,,,,,2.3,1.3,1.9*32
$GPRMC,134805.000,A,5034.7284,N,00227.8249,W,1.19,4.15,161011,,,A*73
$GPGGA,134806.000,5034.7286,N,00227.8250,W,1,08,1.3,5.06,M,48.8,M,,0000*7A
$GPGSA,M,3,16,06,18,07,19,21,03,22,,,,,2.3,1.3,1.9*32
$GPGSV,3,1,12,06,82,089,43,03,81,291,43,16,60,191,45,19,46,284,38*73
$GPGSV,3,2,12,18,40,081,44,22,38,137,46,21,32,060,37,07,21,302,36*73
$GPGSV,3,3,12,08,12,330,,11,05,246,46,15,05,044,31,26,03,010,34*74
$GPRMC,134806.000,A,5034.7286,N,00227.8250,W,0.81,338.46,161011,,,A*70
$GPGGA,134807.000,5034.7288,N,00227.8251,W,1,09,1.3,5.08,M,48.8,M,,0000*7B
$GPGSA,M,3,16,06,18,07,08,19,21,03,22,,,,2.2,1.3,1.7*35
$GPRMC,134807.000,A,5034.7288,N,00227.8251,W,0.17,310.67,161011,,,A*78
$GPGGA,134808.000,5034.7288,N,00227.8251,W,1,09,1.3,5.10,M,48.8,M,,0000*7D
$GPGSA,M,3,16,06,18,07,08,19,21,03,22,,,,2.2,1.3,1.7*35
$GPRMC,134808.000,A,5034.7288,N,00227.8251,W,0.09,296.15,161011,,,A*72
$GPGGA,134809.000,5034.7288,N,00227.8252,W,1,09,1.3,5.10,M,48.8,M,,0000*7F
$GPGSA,M,3,16,06,18,07,08,19,21,03,22,,,,2.2,1.3,1.7*35
$GPRMC,134809.000,A,5034.7288,N,00227.8252,W,0.35,18.75,161011,,,A*4D
$GPGGA,134810.000,5034.7289,N,00227.8251,W,1,09,1.3,5.13,M,48.8,M,,0000*76
$GPGSA,M,3,16,06,18,07,08,19,21,03,22,,,,2.2,1.3,1.7*35
$GPRMC,134810.000,A,5034.7289,N,00227.8251,W,0.25,347.72,161011,,,A*78
$GPGGA,134811.000,5034.7289,N,00227.8253,W,1,09,1.3,5.15,M,48.8,M,,0000*73
$GPGSA,M,3,16,06,18,07,08,19,21,03,22,,,,2.2,1.3,1.7*35
$GPGSV,3,1,12,06,82,089,44,03,81,291,43,16,60,191,45,19,46,284,41*7A
$GPGSV,3,2,12,18,40,081,45,22,38,137,46,21,32,060,42,07,21,302,36*70
$GPGSV,3,3,12,08,12,330,27,11,05,246,46,15,05,044,37,26,03,010,36*75
$GPRMC,134811.000,A,5034.7289,N,00227.8253,W,0.59,298.21,161011,,,A*75
$GPGGA,134812.000,5034.7290,N,00227.8253,W,1,09,1.3,5.13,M,48.8,M,,0000*7E
$GPGSA,M,3,16,06,18,07,08,19,21,03,22,,,,2.2,1.3,1.7*35
$GPRMC,134812.000,A,5034.7290,N,00227.8253,W,0.52,29.67,161011,,,A*4F
$GPGGA,134813.000,5034.7291,N,00227.8253,W,1,09,1.3,5.13,M,48.8,M,,0000*7E
$GPGSA,M,3,16,06,18,07,08,19,21,03,22,,,,2.2,1.3,1.7*35
$GPRMC,134813.000,A,5034.7291,N,00227.8253,W,0.37,328.19,161011,,,A*77
$GPGGA,134814.000,5034.7292,N,00227.8254,W,1,09,1.3,5.12,M,48.8,M,,0000*7C
$GPGSA,M,3,16,06,18,07,08,19,21,03,22,,,,2.2,1.3,1.7*35
$GPRMC,134814.000,A,5034.7292,N,00227.8254,W,0.06,68.80,161011,,,A*41
$GPGGA,134815.000,5034.7292,N,00227.8253,W,1,09,1.3,5.15,M,48.8,M,,0000*7D
$GPGSA,M,3,16,06,18,07,08,19,21,03,22,,,,2.2,1.3,1.7*35
$GPRMC,134815.000,A,5034.7292,N,00227.8253,W,0.12,90.64,161011,,,A*4F
$GPGGA,134816.000,5034.7292,N,00227.8253,W,1,09,1.3,5.23,M,48.8,M,,0000*7B
$GPGSA,M,3,16,06,18,07,08,19,21,03,22,,,,2.2,1.3,1.7*35
$GPGSV,3,1,12,06,82,089,43,03,82,291,43,16,60,190,45,19,46,284,42*7C
$GPGSV,3,2,12,18,40,081,39,22,38,136,46,21,31,060,41,07,21,301,39*76
$GPGSV,3,3,12,08,13,330,29,11,05,246,47,15,05,044,37,26,03,010,27*7B
$GPRMC,134816.000,A,5034.7292,N,00227.8253,W,0.08,334.90,161011,,,A*71
$GPGGA,134817.000,5034.7292,N,00227.8252,W,1,09,1.3,5.23,M,48.8,M,,0000*7B
$GPGSA,M,3,16,06,18,07,08,19,21,03,22,,,,2.2,1.3,1.7*35
$GPRMC,134817.000,A,5034.7292,N,00227.8252,W,0.25,53.51,161011,,,A*41
$GPGGA,134818.000,5034.7292,N,00227.8252,W,1,09,1.3,5.25,M,48.8,M,,0000*72
$GPGSA,M,3,16,06,18,07,08,19,21,03,22,,,,2.2,1.3,1.7*35
$GPRMC,134818.000,A,5034.7292,N,00227.8252,W,0.05,283.48,161011,,,A*7B
$GPGGA,134819.000,5034.7292,N,00227.8251,W,1,09,1.3,5.33,M,48.8,M,,0000*77
$GPGSA,M,3,16,06,18,07,08,19,21,03,22,,,,2.2,1.3,1.7*35
$GPRMC,134819.000,A,5034.7292,N,00227.8251,W,0.30,74.08,161011,,,A*41
$GPGGA,134820.000,5034.7292,N,00227.8250,W,1,09,1.3,5.56,M,48.8,M,,0000*7F
$GPGSA,M,3,16,06,18,07,08,19,21,03,22,,,,2.2,1.3,1.8*3A
$GPRMC,134820.000,A,5034.7292,N,00227.8250,W,0.43,327.41,161011,,,A*76
$GPGGA,134821.000,5034.7293,N,00227.8249,W,1,09,1.3,5.55,M,48.8,M,,0000*74
$GPGSA,M,3,16,06,18,07,08,19,21,03,22,,,,2.2,1.3,1.8*3A
$GPGSV,3,1,12,06,82,089,44,03,82,291,44,16,60,190,47,19,46,284,42*7E
$GPGSV,3,2,12,18,40,081,46,22,38,136,46,21,31,060,41,07,21,301,39*7E
$GPGSV,3,3,12,08,13,330,34,11,05,246,47,15,05,044,38,26,03,010,31*7F
$GPRMC,134821.000,A,5034.7293,N,00227.8249,W,0.85,60.73,161011,,,A*45
$GPGGA,134822.000,5034.7294,N,00227.8249,W,1,09,1.3,5.66,M,48.8,M,,0000*70
$GPGSA,M,3,16,06,18,07,08,19,21,03,22,,,,2.2,1.3,1.8*3A
$GPRMC,134822.000,A,5034.7294,N,00227.8249,W,0.76,274.56,161011,,,A*7D
$GPGGA,134823.000,5034.7294,N,00227.8253,W,1,09,1.3,5.70,M,48.8,M,,0000*7D
$GPGSA,M,3,16,06,18,07,08,19,21,03,22,,,,2.2,1.3,1.8*3A
$GPRMC,134823.000,A,5034.7294,N,00227.8253,W,0.73,291.06,161011,,,A*7C
$GPGGA,134824.000,5034.7295,N,00227.8256,W,1,08,1.3,5.70,M,48.8,M,,0000*7F
$GPGSA,M,3,16,06,18,08,19,21,03,22,,,,,2.3,1.3,1.9*3D
$GPRMC,134824.000,A,5034.7295,N,00227.8256,W,0.80,265.56,161011,,,A*7D
$GPGGA,134825.000,5034.7294,N,00227.8259,W,1,09,1.3,5.80,M,48.8,M,,0000*7E
$GPGSA,M,3,16,06,18,07,08,19,21,03,22,,,,2.2,1.3,1.8*3A
$GPRMC,134825.000,A,5034.7294,N,00227.8259,W,0.38,254.44,161011,,,A*70
$GPGGA,134826.000,5034.7293,N,00227.8260,W,1,09,1.3,5.92,M,48.8,M,,0000*73
$GPGSA,M,3,16,06,18,07,08,19,21,03,22,,,,2.2,1.3,1.8*3A
$GPGSV,3,1,12,06,82,089,41,03,82,291,36,16,60,190,37,19,46,284,36*7A
$GPGSV,3,2,12,18,40,081,43,22,38,136,44,21,31,060,42,07,21,301,33*70
$GPGSV,3,3,12,08,13,330,37,11,05,246,25,15,05,044,46,26,03,010,41*76
$GPRMC,134826.000,A,5034.7293,N,00227.8260,W,0.64,211.38,161011,,,A*7D
$GPGGA,134827.000,5034.7292,N,00227.8261,W,1,09,1.3,5.97,M,48.8,M,,0000*77
$GPGSA,M,3,16,06,18,07,08,19,21,03,22,,,,2.2,1.3,1.8*3A
$GPRMC,134827.000,A,5034.7292,N,00227.8261,W,0.37,232.97,161011,,,A*7E
$GPGGA,134828.000,5034.7291,N,00227.8262,W,1,09,1.3,6.09,M,48.8,M,,0000*7C
$GPGSA,M,3,16,06,18,07,08,19,21,03,22,,,,2.2,1.3,1.8*3A
$GPRMC,134828.000,A,5034.7291,N,00227.8262,W,0.45,195.16,161011,,,A*73
$GPGGA,134829.000,5034.7290,N,00227.8264,W,1,09,1.3,6.33,M,48.8,M,,0000*73
$GPGSA,M,3,16,06,18,07,08,19,21,03,22,,,,2.2,1.3,1.8*3A
$GPRMC,134829.000,A,5034.7290,N,00227.8264,W,1.16,263.87,161011,,,A*70
$GPGGA,134830.000,5034.7289,N,00227.8268,W,1,09,1.3,6.41,M,48.8,M,,0000*7A
$GPGSA,M,3,16,06,18,07,08,19,21,03,22,,,,2.2,1.3,1.8*3A
$GPRMC,134830.000,A,5034.7289,N,00227.8268,W,0.56,236.02,161011,,,A*74
$GPGGA,134831.000,5034.7288,N,00227.8270,W,1,09,1.3,6.65,M,48.8,M,,0000*75
$GPGSA,M,3,16,06,18,07,08,19,21,03,22,,,,2.2,1.3,1.8*3A
$GPGSV,3,1,12,06,82,089,42,03,82,291,40,16,60,190,39,19,46,284,36*76
$GPGSV,3,2,12,18,40,081,46,22,38,136,44,21,31,060,47,07,21,301,32*71
$GPGSV,3,3,12,08,13,330,38,11,05,246,32,15,05,044,48,26,03,010,43*73
$GPRMC,134831.000,A,5034.7288,N,00227.8270,W,0.96,251.36,161011,,,A*77
$GPGGA,134832.000,5034.7287,N,00227.8274,W,1,09,1.3,6.62,M,48.8,M,,0000*7A
$GPGSA,M,3,16,06,18,07,08,19,21,03,22,,,,2.2,1.3,1.8*3A
$GPRMC,134832.000,A,5034.7287,N,00227.8274,W,0.61,261.50,161011,,,A*74
$GPGGA,134833.000,5034.7287,N,00227.8278,W,1,09,1.3,6.63,M,48.8,M,,0000*76
$GPGSA,M,3,16,06,18,07,08,19,21,03,22,,,,2.2,1.3,1.8*3A
$GPRMC,134833.000,A,5034.7287,N,00227.8278,W,1.11,261.61,161011,,,A*7D
$GPGGA,134834.000,5034.7287,N,00227.8281,W,1,09,1.3,6.60,M,48.8,M,,0000*74
$GPGSA,M,3,16,06,18,07,08,19,21,03,22,,,,2.2,1.3,1.8*3A
$GPRMC,134834.000,A,5034.7287,N,00227.8281,W,0.46,291.86,161011,,,A*79
$GPGGA,134835.000,5034.7287,N,00227.8284,W,1,09,1.3,6.54,M,48.8,M,,0000*77
$GPGSA,M,3,16,06,18,07,08,19,21,03,22,,,,2.2,1.3,1.8*3A
$GPRMC,134835.000,A,5034.7287,N,00227.8284,W,0.82,284.26,161011,,,A*7B
$GPGGA,134836.000,5034.7287,N,00227.8288,W,1,09,1.3,6.52,M,48.8,M,,0000*7E
$GPGSA,M,3,16,06,18,07,08,19,21,03,22,,,,2.2,1.3,1.8*3A
$GPGSV,3,1,12,06,82,089,43,03,82,291,39,16,60,190,43,19,46,284,36*74
$GPGSV,3,2,12,18,40,081,47,22,38,136,46,21,31,060,44,07,21,301,30*73
$GPGSV,3,3,12,08,13,330,32,11,05,246,31,15,05,044,47,26,03,010,42*74
$GPRMC,134836.000,A,5034.7287,N,00227.8288,W,0.73,266.64,161011,,,A*70
$GPGGA,134837.000,5034.7287,N,00227.8292,W,1,09,1.3,6.58,M,48.8,M,,0000*7E
$GPGSA,M,3,16,06,18,07,08,19,21,03,22,,,,2.2,1.3,1.8*3A
$GPRMC,134837.000,A,5034.7287,N,00227.8292,W,1.17,271.99,161011,,,A*7D
$GPGGA,134838.000,5034.7287,N,00227.8295,W,1,09,1.3,6.77,M,48.8,M,,0000*7B
$GPGSA,M,3,16,06,18,07,08,19,21,03,22,,,,2.2,1.3,1.8*3A
$GPRMC,134838.000,A,5034.7287,N,00227.8295,W,0.50,255.26,161011,,,A*75
$GPGGA,134839.000,5034.7287,N,00227.8297,W,1,09,1.3,6.80,M,48.8,M,,0000*70
$GPGSA,M,3,16,06,18,07,08,19,21,03,22,,,,2.2,1.3,1.8*3A
$GPRMC,134839.000,A,5034.7287,N,00227.8297,W,0.86,318.27,161011,,,A*74
$GPGGA,134840.000,5034.7288,N,00227.8299,W,1,09,1.3,6.83,M,48.8,M,,0000*7C
$GPGSA,M,3,16,06,18,07,08,19,21,03,22,,,,2.2,1.3,1.8*3A
$GPRMC,134840.000,A,5034.7288,N,00227.8299,W,0.61,315.28,161011,,,A*70
$GPGGA,134841.000,5034.7289,N,00227.8301,W,1,09,1.3,6.90,M,48.8,M,,0000*7E
$GPGSA,M,3,16,06,18,07,08,19,21,03,22,,,,2.2,1.3,1.8*3A
$GPGSV,3,1,12,06,82,089,44,03,82,291,42,16,60,190,43,19,46,284,39*70
$GPGSV,3,2,12,18,40,081,47,22,38,136,47,21,31,060,45,07,21,301,38*7B
$GPGSV,3,3,12,08,13,330,36,11,05,246,31,15,05,044,47,26,03,010,41*73
$GPRMC,134841.000,A,5034.7289,N,00227.8301,W,0.54,298.07,161011,,,A*7F
$GPGGA,134842.000,5034.7290,N,00227.8303,W,1,09,1.3,6.90,M,48.8,M,,0000*77
$GPGSA,M,3,16,06,18,07,08,19,21,03,22,,,,2.2,1.3,1.8*3A
$GPRMC,134842.000,A,5034.7290,N,00227.8303,W,0.74,315.94,161011,,,A*7A
$GPGGA,134843.000,5034.7291,N,00227.8305,W,1,09,1.3,6.98,M,48.8,M,,0000*79
$GPGSA,M,3,16,06,18,07,08,19,21,03,22,,,,2.2,1.3,1.8*3A
$GPRMC,134843.000,A,5034.7291,N,00227.8305,W,0.53,311.51,161011,,,A*74
$GPGGA,134844.000,5034.7292,N,00227.8306,W,1,09,1.3,7.05,M,48.8,M,,0000*7B
$GPGSA,M,3,16,06,18,07,08,19,21,03,22,,,,2.2,1.3,1.8*3A
$GPRMC,134844.000,A,5034.7292,N,00227.8306,W,0.47,324.37,161011,,,A*70
$GPGGA,134845.000,5034.7293,N,00227.8307,W,1,08,1.3,7.14,M,48.8,M,,0000*7B
$GPGSA,M,3,16,06,18,07,08,21,03,22,,,,,2.2,1.3,1.8*32
$GPRMC,134845.000,A,5034.7293,N,00227.8307,W,0.49,325.06,161011,,,A*7C
$GPGGA,134846.000,5034.7294,N,00227.8308,W,1,09,1.3,7.22,M,48.8,M,,0000*74
$GPGSA,M,3,16,06,18,07,08,19,21,03,22,,,,2.2,1.3,1.8*3A
$GPGSV,3,1,12,06,82,090,38,03,82,291,40,16,60,190,41,19,47,285,34*7E
$GPGSV,3,2,12,18,40,081,45,22,38,136,48,21,31,060,46,07,21,301,40*7A
$GPGSV,3,3,12,08,13,330,36,11,05,246,35,15,05,043,46,26,03,010,42*72
$GPRMC,134846.000,A,5034.7294,N,00227.8308,W,0.39,319.24,161011,,,A*7F
$GPGGA,134847.000,5034.7294,N,00227.8308,W,1,09,1.3,7.29,M,48.8,M,,0000*7E
$GPGSA,M,3,16,06,18,07,08,19,21,03,22,,,,2.2,1.3,1.8*3A
$GPRMC,134847.000,A,5034.7294,N,00227.8308,W,0.36,319.11,161011,,,A*77
$GPGGA,134848.000,5034.7295,N,00227.8309,W,1,09,1.3,7.36,M,48.8,M,,0000*7F
$GPGSA,M,3,16,06,18,07,08,19,21,03,22,,,,2.2,1.3,1.8*3A
$GPRMC,134848.000,A,5034.7295,N,00227.8309,W,0.41,312.73,161011,,,A*77
$GPGGA,134849.000,5034.7295,N,00227.8310,W,1,09,1.3,7.39,M,48.8,M,,0000*79
$GPGSA,M,3,16,06,18,07,08,19,21,03,22,,,,2.2,1.3,1.8*3A
$GPRMC,134849.000,A,5034.7295,N,00227.8310,W,0.33,306.95,161011,,,A*76
$GPGGA,134850.000,5034.7296,N,00227.8311,W,1,09,1.3,7.45,M,48.8,M,,0000*78
$GPGSA,M,3,16,06,18,07,08,19,21,03,22,,,,2.2,1.3,1.8*3A
$GPRMC,134850.000,A,5034.7296,N,00227.8311,W,0.27,332.69,161011,,,A*7D
$GPGGA,134851.000,5034.7296,N,00227.8311,W,1,09,1.3,7.49,M,48.8,M,,0000*75
$GPGSA,M,3,16,06,18,07,08,19,21,03,22,,,,2.2,1.3,1.8*3A
$GPGSV,3,1,12,06,82,090,41,03,82,291,40,16,60,190,41,19,47,285,33*77
$GPGSV,3,2,12,18,40,081,46,22,38,136,47,21,31,060,46,07,21,301,38*79
$GPGSV,3,3,12,08,13,330,36,11,05,246,32,15,05,043,45,26,03,010,42*76
$GPRMC,134851.000,A,5034.7296,N,00227.8311,W,0.32,329.92,161011,,,A*76
$GPGGA,134852.000,5034.7297,N,00227.8311,W,1,09,1.3,7.53,M,48.8,M,,0000*7C
$GPGSA,M,3,16,06,18,07,08,19,21,03,22,,,,2.2,1.3,1.8*3A
$GPRMC,134852.000,A,5034.7297,N,00227.8311,W,0.23,11.20,161011,,,A*45
$GPGGA,134853.000,5034.7297,N,00227.8311,W,1,09,1.3,7.74,M,48.8,M,,0000*78
$GPGSA,M,3,16,06,18,07,08,19,21,03,22,,,,2.2,1.3,1.8*3A
$GPRMC,134853.000,A,5034.7297,N,00227.8311,W,0.35,204.08,161011,,,A*7F
$GPGGA,134854.000,5034.7297,N,00227.8312,W,1,09,1.3,7.81,M,48.8,M,,0000*76
$GPGSA,M,3,16,06,18,07,08,19,21,03,22,,,,2.2,1.3,1.8*3A
$GPRMC,134854.000,A,5034.7297,N,00227.8312,W,0.99,338.61,161011,,,A*7C
$GPGGA,134855.000,5034.7299,N,00227.8313,W,1,09,1.3,7.86,M,48.8,M,,0000*7F
$GPGSA,M,3,16,06,18,07,08,19,21,03,22,,,,2.2,1.3,1.8*3A
$GPRMC,134855.000,A,5034.7299,N,00227.8313,W,0.45,357.15,161011,,,A*79
$GPGGA,134856.000,5034.7300,N,00227.8312,W,1,09,1.3,7.94,M,48.8,M,,0000*7F
$GPGSA,M,3,16,06,18,07,08,19,21,03,22,,,,2.2,1.3,1.8*3A
$GPGSV,3,1,12,06,82,090,39,03,82,291,36,16,60,190,36,19,47,285,37*7D
$GPGSV,3,2,12,18,40,081,45,22,38,136,37,21,31,060,47,07,21,301,44*77
$GPGSV,3,3,12,08,13,330,45,11,05,246,38,15,05,043,45,26,03,010,43*79
$GPRMC,134856.000,A,5034.7300,N,00227.8312,W,0.20,49.15,161011,,,A*45
$GPGGA,134857.000,5034.7300,N,00227.8311,W,1,09,1.3,8.18,M,48.8,M,,0000*76
$GPGSA,M,3,16,06,18,07,08,19,21,03,22,,,,2.2,1.3,1.8*3A
$GPRMC,134857.000,A,5034.7300,N,00227.8311,W,0.26,56.28,161011,,,A*41
$GPGGA,134858.000,5034.7301,N,00227.8310,W,1,09,1.3,8.31,M,48.8,M,,0000*72
$GPGSA,M,3,16,06,18,07,08,19,21,03,22,,,,2.2,1.3,1.8*3A
$GPRMC,134858.000,A,5034.7301,N,00227.8310,W,0.36,17.64,161011,,,A*42
$GPGGA,134859.000,5034.7301,N,00227.8310,W,1,09,1.3,8.36,M,48.8,M,,0000*74
$GPGSA,M,3,16,06,18,07,08,19,21,03,22,,,,2.2,1.3,1.8*3A
$GPRMC,134859.000,A,5034.7301,N,00227.8310,W,0.30,16.15,161011,,,A*42
$GPGGA,134900.000,5034.7302,N,00227.8309,W,1,09,1.3,8.46,M,48.8,M,,0000*75
$GPGSA,M,3,16,06,18,07,08,19,21,03,22,,,,2.2,1.3,1.8*3A
$GPRMC,134900.000,A,5034.7302,N,00227.8309,W,0.25,72.28,161011,,,A*4C
$GPGGA,134901.000,5034.7302,N,00227.8307,W,1,09,1.3,8.58,M,48.8,M,,0000*75
$GPGSA,M,3,16,06,18,07,08,19,21,03,22,,,,2.2,1.3,1.8*3A
$GPGSV,3,1,12,06,82,090,33,03,82,291,35,16,60,190,42,19,47,285,36*76
$GPGSV,3,2,12,18,40,081,45,22,38,136,38,21,31,060,47,07,21,301,40*7C
$GPGSV,3,3,12,08,13,330,43,11,05,246,31,15,05,043,46,26,03,010,43*75
$GPRMC,134901.000,A,5034.7302,N,00227.8307,W,0.25,36.28,161011,,,A*43
$GPGGA,134902.000,5034.7302,N,00227.8306,W,1,09,1.3,8.62,M,48.8,M,,0000*7E
$GPGSA,M,3,16,06,18,07,08,19,21,03,22,,,,2.2,1.3,1.8*3A
$GPRMC,134902.000,A,5034.7302,N,00227.8306,W,0.30,58.38,161011,,,A*4C
$GPGGA,134903.000,5034.7303,N,00227.8305,W,1,09,1.3,8.65,M,48.8,M,,0000*7A
$GPGSA,M,3,16,06,18,07,08,19,21,03,22,,,,2.2,1.3,1.8*3A
$GPRMC,134903.000,A,5034.7303,N,00227.8305,W,0.36,39.68,161011,,,A*4B
$GPGGA,134904.000,5034.7303,N,00227.8304,W,1,09,1.3,8.72,M,48.8,M,,0000*7A
$GPGSA,M,3,16,06,18,07,08,19,21,03,22,,,,2.2,1.3,1.8*3A
$GPRMC,134904.000,A,5034.7303,N,00227.8304,W,0.24,26.04,161011,,,A*4A
$GPGGA,134905.000,5034.7304,N,00227.8303,W,1,09,1.3,8.81,M,48.8,M,,0000*77
$GPGSA,M,3,16,06,18,07,08,19,21,03,22,,,,2.2,1.3,1.8*3A
$GPRMC,134905.000,A,5034.7304,N,00227.8303,W,0.31,51.16,161011,,,A*4C
$GPGGA,134906.000,5034.7304,N,00227.8303,W,1,09,1.3,8.93,M,48.8,M,,0000*77
$GPGSA,M,3,16,06,18,07,08,19,21,03,22,,,,2.2,1.3,1.8*3A
$GPGSV,3,1,12,06,82,090,35,03,82,291,33,16,60,190,41,19,47,285,31*72
$GPGSV,3,2,12,18,40,081,47,22,38,136,45,21,31,060,46,07,21,301,36*74
$GPGSV,3,3,12,08,13,330,36,11,05,246,33,15,05,043,48,26,03,010,44*7C
$GPRMC,134906.000,A,5034.7304,N,00227.8303,W,0.25,38.25,161011,,,A*45
$GPGGA,134907.000,5034.7305,N,00227.8302,W,1,09,1.3,9.06,M,48.8,M,,0000*7B
$GPGSA,M,3,16,06,18,07,08,19,21,03,22,,,,2.2,1.3,1.8*3A
$GPRMC,134907.000,A,5034.7305,N,00227.8302,W,0.24,22.42,161011,,,A*4F
$GPGGA,134908.000,5034.7306,N,00227.8301,W,1,09,1.3,9.20,M,48.8,M,,0000*70
$GPGSA,M,3,16,06,18,07,08,19,21,03,22,,,,2.2,1.3,1.8*3A
$GPRMC,134908.000,A,5034.7306,N,00227.8301,W,0.27,42.18,161011,,,A*4A
$GPGGA,134909.000,5034.7306,N,00227.8301,W,1,09,1.3,9.34,M,48.8,M,,0000*74
$GPGSA,M,3,16,06,18,07,08,19,21,03,22,,,,2.2,1.3,1.8*3A
$GPRMC,134909.000,A,5034.7306,N,00227.8301,W,0.24,13.35,161011,,,A*43
$GPGGA,134910.000,5034.7307,N,00227.8300,W,1,09,1.3,9.49,M,48.8,M,,0000*76
$GPGSA,M,3,16,06,18,07,08,19,21,03,22,,,,2.2,1.3,1.8*3A
$GPRMC,134910.000,A,5034.7307,N,00227.8300,W,0.24,33.67,161011,,,A*4E
$GPGGA,134911.000,5034.7307,N,00227.8299,W,1,09,1.3,9.63,M,48.8,M,,0000*7E
$GPGSA,M,3,16,06,18,07,08,19,21,03,22,,,,2.2,1.3,1.8*3A
$GPGSV,3,1,12,03,82,291,34,06,82,091,36,16,59,190,40,19,47,285,31*7C
$GPGSV,3,2,12,18,40,080,48,22,38,136,45,21,31,060,47,07,21,301,34*79
$GPGSV,3,3,12,08,13,330,35,11,06,246,33,15,05,043,49,26,03,010,45*7C
$GPRMC,134911.000,A,5034.7307,N,00227.8299,W,0.26,25.61,161011,,,A*4D
$GPGGA,134912.000,5034.7308,N,00227.8299,W,1,09,1.3,9.63,M,48.8,M,,0000*72
$GPGSA,M,3,16,06,18,07,08,19,21,03,22,,,,2.2,1.3,1.8*3A
$GPRMC,134912.000,A,5034.7308,N,00227.8299,W,0.30,28.89,161011,,,A*4D
$GPGGA,134913.000,5034.7308,N,00227.8298,W,1,09,1.3,9.61,M,48.8,M,,0000*70
$GPGSA,M,3,16,06,18,07,08,19,21,03,22,,,,2.2,1.3,1.8*3A
$GPRMC,134913.000,A,5034.7308,N,00227.8298,W,0.16,42.38,161011,,,A*4F
$GPGGA,134914.000,5034.7308,N,00227.8298,W,1,09,1.3,9.55,M,48.8,M,,0000*70
$GPGSA,M,3,16,06,18,07,08,19,21,03,22,,,,2.2,1.3,1.8*3A
$GPRMC,134914.000,A,5034.7308,N,00227.8298,W,0.13,39.47,161011,,,A*49
$GPGGA,134915.000,5034.7309,N,00227.8297,W,1,09,1.3,9.52,M,48.8,M,,0000*78
$GPGSA,M,3,16,06,18,07,08,19,21,03,22,,,,2.2,1.3,1.8*3A
$GPRMC,134915.000,A,5034.7309,N,00227.8297,W,0.25,25.42,161011,,,A*4B
$GPGGA,134916.000,5034.7309,N,00227.8296,W,1,09,1.3,9.52,M,48.8,M,,0000*7A
$GPGSA,M,3,16,06,18,07,08,19,21,03,22,,,,2.2,1.3,1.8*3A
$GPGSV,3,1,12,03,82,291,42,06,82,091,42,16,59,190,40,19,47,285,40*78
$GPGSV,3,2,12,18,40,080,47,22,38,136,45,21,31,060,48,07,21,301,44*7E
$GPGSV,3,3,12,08,13,330,44,11,06,246,34,15,05,043,48,26,03,010,45*7C
$GPRMC,134916.000,A,5034.7309,N,00227.8296,W,0.34,9.29,161011,,,A*7A
$GPGGA,134917.000,5034.7310,N,00227.8296,W,1,09,1.3,9.52,M,48.8,M,,0000*73
$GPGSA,M,3,16,06,18,07,08,19,21,03,22,,,,2.2,1.3,1.8*3A
$GPRMC,134917.000,A,5034.7310,N,00227.8296,W,0.27,28.21,161011,,,A*4A
$GPGGA,134918.000,5034.7310,N,00227.8295,W,1,09,1.3,9.50,M,48.8,M,,0000*7D
$GPGSA,M,3,16,06,18,07,08,19,21,03,22,,,,2.2,1.3,1.8*3A
$GPRMC,134918.000,A,5034.7310,N,00227.8295,W,0.26,61.27,161011,,,A*4C
$GPGGA,134919.000,5034.7310,N,00227.8294,W,1,09,1.3,9.55,M,48.8,M,,0000*78
$GPGSA,M,3,16,06,18,07,08,19,21,03,22,,,,2.2,1.3,1.8*3A
$GPRMC,134919.000,A,5034.7310,N,00227.8294,W,0.08,3.16,161011,,,A*76
$GPGGA,134920.000,5034.7311,N,00227.8294,W,1,09,1.3,9.57,M,48.8,M,,0000*71
$GPGSA,M,3,16,06,18,07,08,19,21,03,22,,,,2.2,1.3,1.8*3A
$GPRMC,134920.000,A,5034.7311,N,00227.8294,W,0.24,53.32,161011,,,A*40
$GPGGA,134921.000,5034.7311,N,00227.8293,W,1,09,1.3,9.56,M,48.8,M,,0000*76
