$GPGGA,094530.000,5034.7576,N,00227.5401,W,1,07,1.5,3.86,M,48.8,M,,0000*79
$GPGSA,M,3,12,25,29,31,02,21,30,,,,,,2.3,1.5,1.8*3D
$GPRMC,094530.000,A,5034.7576,N,00227.5401,W,0.60,48.67,161011,,,A*4C
$GPGGA,094531.000,5034.7573,N,00227.5400,W,1,07,1.5,4.13,M,48.8,M,,0000*77
$GPGSA,M,3,12,25,29,31,02,21,30,,,,,,2.3,1.5,1.8*3D
$GPGSV,3,1,12,29,79,093,38,30,75,299,42,31,64,268,41,25,47,097,35*7C
$GPGSV,3,2,12,21,18,167,42,02,17,041,35,12,15,099,33,23,09,332,47*7E
$GPGSV,3,3,12,14,05,212,38,10,03,024,41,05,01,075,32,16,01,282,47*7B
$GPRMC,094531.000,A,5034.7573,N,00227.5400,W,1.12,174.46,161011,,,A*70
$GPGGA,094532.000,5034.7571,N,00227.5399,W,1,07,1.5,4.12,M,48.8,M,,0000*70
$GPGSA,M,3,12,25,29,31,02,21,30,,,,,,2.3,1.5,1.8*3D
$GPRMC,094532.000,A,5034.7571,N,00227.5399,W,0.54,44.63,161011,,,A*40
$GPGGA,094533.000,5034.7572,N,00227.5398,W,1,07,1.5,3.77,M,48.8,M,,0000*77
$GPGSA,M,3,12,25,29,31,02,21,30,,,,,,2.3,1.5,1.8*3D
$GPRMC,094533.000,A,5034.7572,N,00227.5398,W,0.64,83.69,161011,,,A*41
$GPGGA,094534.000,5034.7572,N,00227.5395,W,1,07,1.5,3.71,M,48.8,M,,0000*7B
$GPGSA,M,3,12,25,29,31,02,21,30,,,,,,2.3,1.5,1.8*3D
$GPRMC,094534.000,A,5034.7572,N,00227.5395,W,0.99,69.67,161011,,,A*43
$GPGGA,094535.000,5034.7573,N,00227.5391,W,1,07,1.5,3.82,M,48.8,M,,0000*73
$GPGSA,M,3,12,25,29,31,02,21,30,,,,,,2.3,1.5,1.8*3D
$GPRMC,094535.000,A,5034.7573,N,00227.5391,W,0.95,52.24,161011,,,A*44
$GPGGA,094536.000,5034.7574,N,00227.5388,W,1,07,1.5,3.79,M,48.8,M,,0000*7B
$GPGSA,M,3,12,25,29,31,02,21,30,,,,,,2.3,1.5,1.8*3D
$GPGSV,3,1,12,29,79,093,38,30,75,299,40,31,64,268,42,25,47,097,35*7D
$GPGSV,3,2,12,21,18,167,33,02,17,041,36,12,15,099,35,23,09,332,48*72
$GPGSV,3,3,12,14,05,212,30,10,03,024,38,05,01,075,35,16,01,282,48*75
$GPRMC,094536.000,A,5034.7574,N,00227.5388,W,0.69,71.21,161011,,,A*4F
$GPGGA,094537.000,5034.7574,N,00227.5385,W,1,07,1.5,3.78,M,48.8,M,,0000*76
$GPGSA,M,3,12,25,29,31,02,21,30,,,,,,2.3,1.5,1.8*3D
$GPRMC,094537.000,A,5034.7574,N,00227.5385,W,0.82,76.07,161011,,,A*45
$GPGGA,094538.000,5034.7573,N,00227.5381,W,1,07,1.5,3.94,M,48.8,M,,0000*78
$GPGSA,M,3,12,25,29,31,02,21,30,,,,,,2.3,1.5,1.8*3D
$GPRMC,094538.000,A,5034.7573,N,00227.5381,W,0.96,105.90,161011,,,A*77
$GPGGA,094539.000,5034.7572,N,00227.5377,W,1,07,1.5,4.01,M,48.8,M,,0000*7A
$GPGSA,M,3,12,25,29,31,02,21,30,,,,,,2.3,1.5,1.8*3D
$GPRMC,094539.000,A,5034.7572,N,00227.5377,W,1.12,106.21,161011,,,A*7A
$GPGGA,094540.000,5034.7571,N,00227.5372,W,1,07,1.5,4.00,M,48.8,M,,0000*73
$GPGSA,M,3,12,25,29,31,02,21,30,,,,,,2.3,1.5,1.8*3D
$GPRMC,094540.000,A,5034.7571,N,00227.5372,W,1.32,110.44,161011,,,A*74
$GPGGA,094541.000,5034.7567,N,00227.5368,W,1,07,1.5,3.96,M,48.8,M,,0000*76
$GPGSA,M,3,12,25,29,31,02,21,30,,,,,,2.3,1.5,1.8*3D
$GPGSV,3,1,12,29,79,093,37,30,75,299,42,31,64,268,44,25,47,097,36*75
$GPGSV,3,2,12,21,18,167,35,02,17,041,37,12,15,099,29,23,09,332,48*78
$GPGSV,3,3,12,14,05,212,34,10,03,024,40,05,01,075,35,16,01,282,48*7E
$GPRMC,094541.000,A,5034.7567,N,00227.5368,W,1.83,158.55,161011,,,A*7F
$GPGGA,094542.000,5034.7559,N,00227.5363,W,1,07,1.5,4.37,M,48.8,M,,0000*7F
$GPGSA,M,3,12,25,29,31,02,21,30,,,,,,2.3,1.5,1.8*3D
$GPRMC,094542.000,A,5034.7559,N,00227.5363,W,3.68,161.07,161011,,,A*70
$GPGGA,094543.000,5034.7548,N,00227.5359,W,1,07,1.5,4.62,M,48.8,M,,0000*77
$GPGSA,M,3,12,25,29,31,02,21,30,,,,,,2.3,1.5,1.8*3D
$GPRMC,094543.000,A,5034.7548,N,00227.5359,W,3.73,167.04,161011,,,A*77
$GPGGA,094544.000,5034.7538,N,00227.5356,W,1,07,1.5,4.73,M,48.8,M,,0000*78
$GPGSA,M,3,12,25,29,31,02,21,30,,,,,,2.3,1.5,1.8*3D
$GPRMC,094544.000,A,5034.7538,N,00227.5356,W,3.13,175.66,161011,,,A*79
$GPGGA,094545.000,5034.7529,N,00227.5357,W,1,07,1.5,4.78,M,48.8,M,,0000*73
$GPGSA,M,3,12,25,29,31,02,21,30,,,,,,2.3,1.5,1.8*3D
$GPRMC,094545.000,A,5034.7529,N,00227.5357,W,3.53,182.33,161011,,,A*75
$GPGGA,094546.000,5034.7518,N,00227.5357,W,1,07,1.5,4.87,M,48.8,M,,0000*72
$GPGSA,M,3,12,25,29,31,02,21,30,,,,,,2.3,1.5,1.8*3D
$GPGSV,3,1,12,29,79,092,38,30,76,299,42,31,64,267,40,25,47,097,35*70
$GPGSV,3,2,12,21,19,167,28,02,17,041,36,12,15,099,37,23,09,332,51*73
$GPGSV,3,3,12,14,05,212,34,10,03,024,41,05,01,075,35,16,01,282,47*70
$GPRMC,094546.000,A,5034.7518,N,00227.5357,W,4.16,182.94,161011,,,A*7F
$GPGGA,094547.000,5034.7504,N,00227.5358,W,1,07,1.5,4.91,M,48.8,M,,0000*76
$GPGSA,M,3,12,25,29,31,02,21,30,,,,,,2.3,1.5,1.8*3D
$GPRMC,094547.000,A,5034.7504,N,00227.5358,W,4.49,182.11,161011,,,A*7B
$GPGGA,094548.000,5034.7491,N,00227.5362,W,1,07,1.5,4.65,M,48.8,M,,0000*76
$GPGSA,M,3,12,25,29,31,02,21,30,,,,,,2.3,1.5,1.8*3D
$GPRMC,094548.000,A,5034.7491,N,00227.5362,W,4.58,192.11,161011,,,A*71
$GPGGA,094549.000,5034.7479,N,00227.5368,W,1,07,1.5,4.44,M,48.8,M,,0000*78
$GPGSA,M,3,12,25,29,31,02,21,30,,,,,,2.3,1.5,1.8*3D
$GPRMC,094549.000,A,5034.7479,N,00227.5368,W,4.19,197.12,161011,,,A*7F
$GPGGA,094550.000,5034.7468,N,00227.5377,W,1,07,1.5,4.08,M,48.8,M,,0000*76
$GPGSA,M,3,12,25,29,31,02,21,30,,,,,,2.3,1.5,1.8*3D
$GPRMC,094550.000,A,5034.7468,N,00227.5377,W,4.37,208.47,161011,,,A*70
$GPGGA,094551.000,5034.7456,N,00227.5385,W,1,07,1.5,3.93,M,48.8,M,,0000*72
$GPGSA,M,3,12,25,29,31,02,21,30,,,,,,2.3,1.5,1.8*3D
$GPGSV,3,1,12,29,79,092,39,30,76,299,38,31,64,267,42,25,47,097,42*7E
$GPGSV,3,2,12,21,19,167,35,02,17,041,34,12,15,099,36,23,09,332,43*7F
$GPGSV,3,3,12,14,05,212,38,10,03,024,30,05,01,075,36,16,01,282,42*7C
$GPRMC,094551.000,A,5034.7456,N,00227.5385,W,4.40,194.45,161011,,,A*75
$GPGGA,094552.000,5034.7443,N,00227.5392,W,1,07,1.5,3.53,M,48.8,M,,0000*7F
$GPGSA,M,3,12,25,29,31,02,21,30,,,,,,2.3,1.5,1.8*3D
$GPRMC,094552.000,A,5034.7443,N,00227.5392,W,5.01,194.79,161011,,,A*7F
$GPGGA,094553.000,5034.7428,N,00227.5398,W,1,07,1.5,3.20,M,48.8,M,,0000*7D
$GPGSA,M,3,12,25,29,31,02,21,30,,,,,,2.3,1.5,1.8*3D
$GPRMC,094553.000,A,5034.7428,N,00227.5398,W,5.47,187.07,161011,,,A*70
$GPGGA,094554.000,5034.7411,N,00227.5399,W,1,07,1.5,3.34,M,48.8,M,,0000*74
$GPGSA,M,3,12,25,29,31,02,21,30,,,,,,2.3,1.5,1.8*3D
$GPRMC,094554.000,A,5034.7411,N,00227.5399,W,5.80,179.45,161011,,,A*70
$GPGGA,094555.000,5034.7393,N,00227.5399,W,1,07,1.5,3.49,M,48.8,M,,0000*72
$GPGSA,M,3,12,25,29,31,02,21,30,,,,,,2.3,1.5,1.8*3D
$GPRMC,094555.000,A,5034.7393,N,00227.5399,W,5.91,182.39,161011,,,A*73
$GPGGA,094556.000,5034.7376,N,00227.5398,W,1,07,1.5,3.63,M,48.8,M,,0000*73
$GPGSA,M,3,12,25,29,31,02,21,30,,,,,,2.3,1.5,1.8*3D
$GPGSV,3,1,12,29,79,092,40,30,76,299,39,31,64,267,41,25,47,097,38*7F
$GPGSV,3,2,12,21,19,167,37,02,17,041,37,12,15,099,41,23,09,332,42*7F
$GPGSV,3,3,12,14,05,212,39,10,03,024,32,05,01,075,42,16,01,282,43*7D
$GPRMC,094556.000,A,5034.7376,N,00227.5398,W,5.57,177.05,161011,,,A*75
$GPGGA,094557.000,5034.7359,N,00227.5395,W,1,07,1.5,3.72,M,48.8,M,,0000*72
$GPGSA,M,3,12,25,29,31,02,21,30,,,,,,2.3,1.5,1.8*3D
$GPRMC,094557.000,A,5034.7359,N,00227.5395,W,5.55,168.50,161011,,,A*78
$GPGGA,094558.000,5034.7343,N,00227.5391,W,1,07,1.5,3.81,M,48.8,M,,0000*7E
$GPGSA,M,3,12,25,29,31,02,21,30,,,,,,2.3,1.5,1.8*3D
$GPRMC,094558.000,A,5034.7343,N,00227.5391,W,5.19,174.45,161011,,,A*79
$GPGGA,094559.000,5034.7328,N,00227.5390,W,1,07,1.5,3.98,M,48.8,M,,0000*7B
$GPGSA,M,3,12,25,29,31,02,21,30,,,,,,2.3,1.5,1.8*3D
$GPRMC,094559.000,A,5034.7328,N,00227.5390,W,5.22,181.49,161011,,,A*7A
$GPGGA,094600.000,5034.7312,N,00227.5392,W,1,07,1.5,3.79,M,48.8,M,,0000*70
$GPGSA,M,3,12,25,29,31,02,21,30,,,,,,2.3,1.5,1.8*3D
$GPRMC,094600.000,A,5034.7312,N,00227.5392,W,5.29,184.34,161011,,,A*7A
$GPGGA,094601.000,5034.7297,N,00227.5395,W,1,07,1.5,3.42,M,48.8,M,,0000*72
$GPGSA,M,3,12,25,29,31,02,21,30,,,,,,2.3,1.5,1.8*3D
$GPGSV,3,1,12,29,79,092,39,30,76,299,39,31,64,267,42,25,47,097,40*7D
$GPGSV,3,2,12,21,19,167,36,02,17,041,30,12,15,099,36,23,09,332,42*79
$GPGSV,3,3,12,14,05,212,39,10,03,024,30,05,01,075,41,16,01,282,46*79
$GPRMC,094601.000,A,5034.7297,N,00227.5395,W,5.67,185.17,161011,,,A*7A
$GPGGA,094602.000,5034.7279,N,00227.5395,W,1,07,1.5,3.22,M,48.8,M,,0000*77
$GPGSA,M,3,12,25,29,31,02,21,30,,,,,,2.3,1.5,1.8*3D
$GPRMC,094602.000,A,5034.7279,N,00227.5395,W,6.45,174.17,161011,,,A*74
$GPGGA,094603.000,5034.7261,N,00227.5396,W,1,07,1.5,3.19,M,48.8,M,,0000*74
$GPGSA,M,3,12,25,29,31,02,21,30,,,,,,2.3,1.5,1.8*3D
$GPRMC,094603.000,A,5034.7261,N,00227.5396,W,6.21,190.76,161011,,,A*70
$GPGGA,094604.000,5034.7244,N,00227.5403,W,1,07,1.5,3.12,M,48.8,M,,0000*74
$GPGSA,M,3,12,25,29,31,02,21,30,,,,,,2.3,1.5,1.8*3D
$GPRMC,094604.000,A,5034.7244,N,00227.5403,W,5.55,195.22,161011,,,A*7F
$GPGGA,094605.000,5034.7230,N,00227.5409,W,1,07,1.5,2.81,M,48.8,M,,0000*77
$GPGSA,M,3,12,25,29,31,02,21,30,,,,,,2.3,1.5,1.8*3D
$GPRMC,094605.000,A,5034.7230,N,00227.5409,W,5.00,190.16,161011,,,A*75
$GPGGA,094606.000,5034.7217,N,00227.5415,W,1,07,1.5,2.66,M,48.8,M,,0000*75
$GPGSA,M,3,12,25,29,31,02,21,30,,,,,,2.3,1.5,1.8*3D
$GPGSV,3,1,12,29,79,092,39,30,76,299,38,31,64,267,41,25,47,097,38*70
$GPGSV,3,2,12,21,19,167,36,02,17,041,35,12,15,099,40,23,09,332,44*7B
$GPGSV,3,3,12,14,05,212,40,10,03,024,30,05,01,075,36,16,01,282,46*77
$GPRMC,094606.000,A,5034.7217,N,00227.5415,W,4.20,197.81,161011,,,A*74
$GPGGA,094607.000,5034.7206,N,00227.5422,W,1,07,1.5,2.40,M,48.8,M,,0000*74
$GPGSA,M,3,12,25,29,31,02,21,30,,,,,,2.3,1.5,1.8*3D
$GPRMC,094607.000,A,5034.7206,N,00227.5422,W,4.32,203.42,161011,,,A*73
$GPGGA,094608.000,5034.7195,N,00227.5431,W,1,07,1.5,2.19,M,48.8,M,,0000*7C
$GPGSA,M,3,12,25,29,31,02,21,30,,,,,,2.3,1.5,1.8*3D
$GPRMC,094608.000,A,5034.7195,N,00227.5431,W,4.29,204.55,161011,,,A*7C
$GPGGA,094609.000,5034.7182,N,00227.5439,W,1,07,1.5,2.36,M,48.8,M,,0000*7E
$GPGSA,M,3,12,25,29,31,02,21,30,,,,,,2.3,1.5,1.8*3D
$GPRMC,094609.000,A,5034.7182,N,00227.5439,W,4.72,202.58,161011,,,A*76
$GPGGA,094610.000,5034.7170,N,00227.5448,W,1,07,1.5,2.18,M,48.8,M,,0000*71
$GPGSA,M,3,12,25,29,31,02,21,30,,,,,,2.3,1.5,1.8*3D
$GPRMC,094610.000,A,5034.7170,N,00227.5448,W,4.47,209.11,161011,,,A*75
$GPGGA,094611.000,5034.7159,N,00227.5458,W,1,07,1.5,2.04,M,48.8,M,,0000*77
$GPGSA,M,3,12,25,29,31,02,21,30,,,,,,2.3,1.5,1.8*3D
$GPGSV,3,1,12,29,79,092,39,30,76,299,39,31,64,267,42,25,47,097,39*73
$GPGSV,3,2,12,21,19,167,37,02,17,041,31,12,15,099,41,23,09,332,42*79
$GPGSV,3,3,12,14,05,212,41,10,03,024,31,05,01,075,35,16,01,282,46*74
$GPRMC,094611.000,A,5034.7159,N,00227.5458,W,4.82,207.93,161011,,,A*73
$GPGGA,094612.000,5034.7147,N,00227.5469,W,1,07,1.5,1.62,M,48.8,M,,0000*7A
$GPGSA,M,3,12,25,29,31,02,21,30,,,,,,2.3,1.5,1.8*3D
$GPRMC,094612.000,A,5034.7147,N,00227.5469,W,4.69,210.63,161011,,,A*71
$GPGGA,094613.000,5034.7135,N,00227.5480,W,1,07,1.5,1.56,M,48.8,M,,0000*7E
$GPGSA,M,3,12,25,29,31,02,21,30,,,,,,2.3,1.5,1.8*3D
$GPRMC,094613.000,A,5034.7135,N,00227.5480,W,4.68,212.70,161011,,,A*73
$GPGGA,094614.000,5034.7124,N,00227.5490,W,1,07,1.5,1.24,M,48.8,M,,0000*7D
$GPGSA,M,3,12,25,29,31,02,21,30,,,,,,2.3,1.5,1.8*3D
$GPRMC,094614.000,A,5034.7124,N,00227.5490,W,4.14,203.26,161011,,,A*7D
$GPGGA,094615.000,5034.7112,N,00227.5496,W,1,07,1.5,1.45,M,48.8,M,,0000*78
$GPGSA,M,3,12,25,29,31,02,21,30,,,,,,2.3,1.5,1.8*3D
$GPRMC,094615.000,A,5034.7112,N,00227.5496,W,4.36,198.14,161011,,,A*7F
$GPGGA,094616.000,5034.7098,N,00227.5500,W,1,07,1.5,1.53,M,48.8,M,,0000*71
$GPGSA,M,3,12,25,29,31,02,21,30,,,,,,2.3,1.5,1.8*3D
$GPGSV,3,1,12,29,79,092,40,30,76,299,39,31,64,267,42,25,47,097,39*7D
$GPGSV,3,2,12,21,19,167,43,02,17,041,37,12,15,099,32,23,09,332,35*78
$GPGSV,3,3,12,14,05,212,42,10,03,024,34,05,01,075,35,16,01,282,45*71
$GPRMC,094616.000,A,5034.7098,N,00227.5500,W,4.64,187.25,161011,,,A*7A
$GPGGA,094617.000,5034.7085,N,00227.5502,W,1,07,1.5,1.73,M,48.8,M,,0000*7C
$GPGSA,M,3,12,25,29,31,02,21,30,,,,,,2.3,1.5,1.8*3D
$GPRMC,094617.000,A,5034.7085,N,00227.5502,W,4.53,187.23,161011,,,A*77
$GPGGA,094618.000,5034.7070,N,00227.5503,W,1,07,1.5,2.02,M,48.8,M,,0000*7D
$GPGSA,M,3,12,25,29,31,02,21,30,,,,,,2.3,1.5,1.8*3D
$GPRMC,094618.000,A,5034.7070,N,00227.5503,W,5.07,179.49,161011,,,A*7E
$GPGGA,094619.000,5034.7055,N,00227.5500,W,1,07,1.5,2.18,M,48.8,M,,0000*73
$GPGSA,M,3,12,25,29,31,02,21,30,,,,,,2.3,1.5,1.8*3D
$GPRMC,094619.000,A,5034.7055,N,00227.5500,W,5.25,167.09,161011,,,A*70
$GPGGA,094620.000,5034.7039,N,00227.5495,W,1,07,1.5,2.39,M,48.8,M,,0000*7D
$GPGSA,M,3,12,25,29,31,02,21,30,,,,,,2.3,1.5,1.8*3D
$GPRMC,094620.000,A,5034.7039,N,00227.5495,W,5.31,167.22,161011,,,A*71
$GPGGA,094621.000,5034.7024,N,00227.5491,W,1,07,1.5,2.45,M,48.8,M,,0000*7F
$GPGSA,M,3,12,25,29,31,02,21,30,,,,,,2.3,1.5,1.8*3D
$GPGSV,3,1,12,29,79,092,39,30,76,299,40,31,64,267,41,25,47,097,38*7F
$GPGSV,3,2,12,21,19,167,39,02,17,041,38,12,15,099,33,23,09,332,37*79
$GPGSV,3,3,12,14,05,212,39,10,03,024,37,05,01,075,35,16,01,282,46*7D
$GPRMC,094621.000,A,5034.7024,N,00227.5491,W,5.32,171.51,161011,,,A*78
$GPGGA,094622.000,5034.7009,N,00227.5487,W,1,07,1.5,2.64,M,48.8,M,,0000*77
$GPGSA,M,3,12,25,29,31,02,21,30,,,,,,2.3,1.5,1.8*3D
$GPRMC,094622.000,A,5034.7009,N,00227.5487,W,4.94,169.31,161011,,,A*71
$GPGGA,094623.000,5034.6996,N,00227.5482,W,1,07,1.5,2.81,M,48.8,M,,0000*76
$GPGSA,M,3,12,25,29,31,02,21,30,,,,,,2.3,1.5,1.8*3D
$GPRMC,094623.000,A,5034.6996,N,00227.5482,W,4.74,160.29,161011,,,A*75
$GPGGA,094624.000,5034.6984,N,00227.5478,W,1,06,1.6,2.91,M,48.8,M,,0000*74
$GPGSA,M,3,25,29,31,02,21,30,,,,,,,2.4,1.6,1.8*3A
$GPRMC,094624.000,A,5034.6984,N,00227.5478,W,3.99,173.26,161011,,,A*7D
$GPGGA,094625.000,5034.6973,N,00227.5478,W,1,07,1.5,3.04,M,48.8,M,,0000*72
$GPGSA,M,3,12,25,29,31,02,21,30,,,,,,2.3,1.5,1.8*3D
$GPRMC,094625.000,A,5034.6973,N,00227.5478,W,3.60,181.43,161011,,,A*7C
$GPGGA,094626.000,5034.6962,N,00227.5480,W,1,07,1.5,3.15,M,48.8,M,,0000*76
$GPGSA,M,3,12,25,29,31,02,21,30,,,,,,2.3,1.5,1.8*3D
$GPGSV,3,1,12,29,79,092,40,30,76,299,37,31,64,267,41,25,47,097,38*71
$GPGSV,3,2,12,21,19,167,40,02,17,041,33,12,15,099,31,23,09,332,40*7E
$GPGSV,3,3,12,14,05,212,32,10,03,024,26,05,01,075,38,16,01,282,45*78
$GPRMC,094626.000,A,5034.6962,N,00227.5480,W,3.66,191.76,161011,,,A*79
$GPGGA,094627.000,5034.6951,N,00227.5483,W,1,06,1.6,3.16,M,48.8,M,,0000*75
$GPGSA,M,3,25,29,31,02,21,30,,,,,,,2.4,1.6,1.8*3A
$GPRMC,094627.000,A,5034.6951,N,00227.5483,W,4.00,186.41,161011,,,A*7E
$GPGGA,094628.000,5034.6940,N,00227.5489,W,1,07,1.5,3.21,M,48.8,M,,0000*76
$GPGSA,M,3,12,25,29,31,02,21,30,,,,,,2.3,1.5,1.8*3D
$GPRMC,094628.000,A,5034.6940,N,00227.5489,W,4.38,203.44,161011,,,A*7B
$GPGGA,094629.000,5034.6928,N,00227.5496,W,1,07,1.5,3.22,M,48.8,M,,0000*74
$GPGSA,M,3,12,25,29,31,02,21,30,,,,,,2.3,1.5,1.8*3D
$GPRMC,094629.000,A,5034.6928,N,00227.5496,W,4.58,194.89,161011,,,A*70
$GPGGA,094630.000,5034.6916,N,00227.5502,W,1,07,1.5,3.14,M,48.8,M,,0000*78
$GPGSA,M,3,12,25,29,31,02,21,30,,,,,,2.3,1.5,1.8*3D
$GPRMC,094630.000,A,5034.6916,N,00227.5502,W,4.74,200.86,161011,,,A*76
$GPGGA,094631.000,5034.6903,N,00227.5510,W,1,07,1.5,3.04,M,48.8,M,,0000*7F
$GPGSA,M,3,12,25,29,31,02,21,30,,,,,,2.3,1.5,1.8*3D
$GPGSV,3,1,12,29,79,092,39,30,76,299,39,31,64,267,42,25,47,097,38*72
$GPGSV,3,2,12,21,19,167,35,02,17,041,33,12,15,099,37,23,09,332,43*79
$GPGSV,3,3,12,14,05,212,41,10,03,024,30,05,01,075,39,16,01,282,46*79
$GPRMC,094631.000,A,5034.6903,N,00227.5510,W,4.91,196.13,161011,,,A*7B
$GPGGA,094632.000,5034.6889,N,00227.5515,W,1,07,1.5,3.05,M,48.8,M,,0000*7B
$GPGSA,M,3,12,25,29,31,02,21,30,,,,,,2.3,1.5,1.8*3D
$GPRMC,094632.000,A,5034.6889,N,00227.5515,W,4.73,194.56,161011,,,A*71
$GPGGA,094633.000,5034.6877,N,00227.5522,W,1,07,1.5,2.98,M,48.8,M,,0000*7A
$GPGSA,M,3,12,25,29,31,02,21,30,,,,,,2.3,1.5,1.8*3D
$GPRMC,094633.000,A,5034.6877,N,00227.5522,W,4.62,197.17,161011,,,A*73
$GPGGA,094634.000,5034.6863,N,00227.5527,W,1,07,1.5,2.91,M,48.8,M,,0000*74
$GPGSA,M,3,12,25,29,31,02,21,30,,,,,,2.3,1.5,1.8*3D
$GPRMC,094634.000,A,5034.6863,N,00227.5527,W,4.93,191.33,161011,,,A*7A
$GPGGA,094635.000,5034.6850,N,00227.5531,W,1,07,1.5,2.77,M,48.8,M,,0000*7A
$GPGSA,M,3,12,25,29,31,02,21,30,,,,,,2.3,1.5,1.8*3D
$GPRMC,094635.000,A,5034.6850,N,00227.5531,W,4.90,189.07,161011,,,A*71
$GPGGA,094636.000,5034.6836,N,00227.5535,W,1,07,1.5,2.78,M,48.8,M,,0000*72
$GPGSA,M,3,12,25,29,31,02,21,30,,,,,,2.3,1.5,1.8*3D
$GPGSV,3,1,12,29,79,092,39,30,76,299,39,31,64,267,42,25,47,097,40*7D
$GPGSV,3,2,12,21,19,167,36,02,17,041,34,12,15,099,37,23,09,332,42*7C
$GPGSV,3,3,12,14,05,212,40,10,03,024,30,05,01,075,39,16,01,282,45*7B
$GPRMC,094636.000,A,5034.6836,N,00227.5535,W,5.19,188.95,161011,,,A*7C
$GPGGA,094637.000,5034.6821,N,00227.5535,W,1,07,1.5,2.91,M,48.8,M,,0000*72
$GPGSA,M,3,12,25,29,31,02,21,30,,,,,,2.3,1.5,1.8*3D
$GPRMC,094637.000,A,5034.6821,N,00227.5535,W,5.23,174.59,161011,,,A*71
$GPGGA,094638.000,5034.6806,N,00227.5534,W,1,07,1.5,2.88,M,48.8,M,,0000*71
$GPGSA,M,3,12,25,29,31,02,21,30,,,,,,2.3,1.5,1.8*3D
$GPRMC,094638.000,A,5034.6806,N,00227.5534,W,5.16,177.44,161011,,,A*73
$GPGGA,094639.000,5034.6791,N,00227.5533,W,1,07,1.5,3.03,M,48.8,M,,0000*74
$GPGSA,M,3,12,25,29,31,02,21,30,,,,,,2.3,1.5,1.8*3D
$GPRMC,094639.000,A,5034.6791,N,00227.5533,W,5.63,179.52,161011,,,A*7F
$GPGGA,094640.000,5034.6775,N,00227.5533,W,1,07,1.5,3.07,M,48.8,M,,0000*74
$GPGSA,M,3,12,25,29,31,02,21,30,,,,,,2.3,1.5,1.8*3D
$GPRMC,094640.000,A,5034.6775,N,00227.5533,W,5.48,178.75,161011,,,A*76
$GPGGA,094641.000,5034.6760,N,00227.5534,W,1,07,1.5,2.99,M,48.8,M,,0000*70
$GPGSA,M,3,12,25,29,31,02,21,30,,,,,,2.3,1.5,1.8*3D
$GPGSV,3,1,12,29,79,092,39,30,76,299,40,31,64,267,42,25,47,097,38*7C
$GPGSV,3,2,12,21,19,167,37,02,17,041,38,12,15,099,30,23,09,332,39*7A
$GPGSV,3,3,12,14,05,212,39,10,03,024,31,05,01,075,39,16,01,282,45*74
$GPRMC,094641.000,A,5034.6760,N,00227.5534,W,5.18,181.13,161011,,,A*77
$GPGGA,094642.000,5034.6746,N,00227.5535,W,1,07,1.5,2.97,M,48.8,M,,0000*78
$GPGSA,M,3,12,25,29,31,02,21,30,,,,,,2.3,1.5,1.8*3D
$GPRMC,094642.000,A,5034.6746,N,00227.5535,W,4.63,181.49,161011,,,A*73
$GPGGA,094643.000,5034.6733,N,00227.5537,W,1,07,1.5,2.82,M,48.8,M,,0000*7D
$GPGSA,M,3,12,25,29,31,02,21,30,,,,,,2.3,1.5,1.8*3D
$GPRMC,094643.000,A,5034.6733,N,00227.5537,W,4.53,191.01,161011,,,A*7C
$GPGGA,094644.000,5034.6720,N,00227.5541,W,1,07,1.5,2.90,M,48.8,M,,0000*7A
$GPGSA,M,3,12,25,29,31,02,21,30,,,,,,2.3,1.5,1.8*3D
$GPRMC,094644.000,A,5034.6720,N,00227.5541,W,4.33,189.46,161011,,,A*74
$GPGGA,094645.000,5034.6707,N,00227.5544,W,1,07,1.5,3.01,M,48.8,M,,0000*72
$GPGSA,M,3,12,25,29,31,02,21,30,,,,,,2.3,1.5,1.8*3D
$GPRMC,094645.000,A,5034.6707,N,00227.5544,W,4.63,191.33,161011,,,A*7B
$GPGGA,094646.000,5034.6694,N,00227.5549,W,1,07,1.5,3.03,M,48.8,M,,0000*75
$GPGSA,M,3,12,25,29,31,02,21,30,,,,,,2.3,1.5,1.8*3D
$GPGSV,3,1,12,29,79,090,40,30,76,300,39,31,65,266,42,25,47,097,38*7F
$GPGSV,3,2,12,21,19,167,38,02,17,040,38,12,14,099,34,23,09,331,38*73
$GPGSV,3,3,12,14,04,212,40,10,03,024,30,05,02,075,36,16,02,282,45*75
$GPRMC,094646.000,A,5034.6694,N,00227.5549,W,4.33,191.83,161011,,,A*70
$GPGGA,094647.000,5034.6683,N,00227.5553,W,1,07,1.5,2.93,M,48.8,M,,0000*71
$GPGSA,M,3,12,25,29,31,02,21,30,,,,,,2.3,1.5,1.8*3D
$GPRMC,094647.000,A,5034.6683,N,00227.5553,W,4.05,192.24,161011,,,A*77
$GPGGA,094648.000,5034.6671,N,00227.5557,W,1,07,1.5,2.89,M,48.8,M,,0000*7C
$GPGSA,M,3,12,25,29,31,02,21,30,,,,,,2.3,1.5,1.8*3D
$GPRMC,094648.000,A,5034.6671,N,00227.5557,W,4.43,192.50,161011,,,A*70
$GPGGA,094649.000,5034.6660,N,00227.5561,W,1,07,1.5,2.87,M,48.8,M,,0000*76
$GPGSA,M,3,12,25,29,31,02,21,30,,,,,,2.3,1.5,1.8*3D
$GPRMC,094649.000,A,5034.6660,N,00227.5561,W,3.69,193.87,161011,,,A*70
$GPGGA,094650.000,5034.6651,N,00227.5566,W,1,07,1.5,3.02,M,48.8,M,,0000*77
$GPGSA,M,3,12,25,29,31,02,21,30,,,,,,2.3,1.5,1.8*3D
$GPRMC,094650.000,A,5034.6651,N,00227.5566,W,3.24,201.40,161011,,,A*77
$GPGGA,094651.000,5034.6643,N,00227.5572,W,1,06,2.5,3.12,M,48.8,M,,0000*73
$GPGSA,M,3,12,25,29,31,21,30,,,,,,,4.0,2.5,3.1*32
$GPGSV,3,1,12,29,79,090,40,30,76,300,39,31,65,266,41,25,47,097,40*73
$GPGSV,3,2,12,21,19,167,45,02,17,040,,12,14,099,30,23,09,331,29*76
$GPGSV,3,3,12,14,04,212,34,10,03,024,29,05,02,075,33,16,02,282,45*7B
$GPRMC,094651.000,A,5034.6643,N,00227.5572,W,3.01,212.39,161011,,,A*7B
$GPGGA,094652.000,5034.6637,N,00227.5581,W,1,07,1.5,2.97,M,48.8,M,,0000*71
$GPGSA,M,3,12,25,29,31,02,21,30,,,,,,2.3,1.5,1.8*3D
$GPRMC,094652.000,A,5034.6637,N,00227.5581,W,3.06,225.60,161011,,,A*78
$GPGGA,094653.000,5034.6631,N,00227.5589,W,1,07,1.5,3.12,M,48.8,M,,0000*72
$GPGSA,M,3,12,25,29,31,02,21,30,,,,,,2.3,1.5,1.8*3D
$GPRMC,094653.000,A,5034.6631,N,00227.5589,W,2.34,231.10,161011,,,A*75
$GPGGA,094654.000,5034.6628,N,00227.5598,W,1,07,1.5,3.13,M,48.8,M,,0000*7C
$GPGSA,M,3,12,25,29,31,02,21,30,,,,,,2.3,1.5,1.8*3D
$GPRMC,094654.000,A,5034.6628,N,00227.5598,W,2.44,245.62,161011,,,A*7B
$GPGGA,094655.000,5034.6625,N,00227.5606,W,1,07,1.5,3.05,M,48.8,M,,0000*73
$GPGSA,M,3,12,25,29,31,02,21,30,,,,,,2.3,1.5,1.8*3D
$GPRMC,094655.000,A,5034.6625,N,00227.5606,W,1.53,235.66,161011,,,A*75
$GPGGA,094656.000,5034.6622,N,00227.5612,W,1,07,1.5,3.10,M,48.8,M,,0000*76
$GPGSA,M,3,12,25,29,31,02,21,30,,,,,,2.3,1.5,1.8*3D
$GPGSV,3,1,12,29,79,090,40,30,76,300,40,31,65,266,41,25,47,097,31*7B
$GPGSV,3,2,12,21,19,167,37,02,17,040,35,12,14,099,40,23,09,331,45*78
$GPGSV,3,3,12,14,04,212,35,10,03,024,36,05,02,075,35,16,02,282,46*71
$GPRMC,094656.000,A,5034.6622,N,00227.5612,W,1.64,229.45,161011,,,A*7C
$GPGGA,094657.000,5034.6620,N,00227.5617,W,1,07,1.5,3.00,M,48.8,M,,0000*71
$GPGSA,M,3,12,25,29,31,02,21,30,,,,,,2.3,1.5,1.8*3D
$GPRMC,094657.000,A,5034.6620,N,00227.5617,W,1.18,218.04,161011,,,A*76
$GPGGA,094658.000,5034.6616,N,00227.5619,W,1,07,1.5,3.21,M,48.8,M,,0000*76
$GPGSA,M,3,12,25,29,31,02,21,30,,,,,,2.3,1.5,1.8*3D
$GPRMC,094658.000,A,5034.6616,N,00227.5619,W,1.53,199.10,161011,,,A*72
$GPGGA,094659.000,5034.6612,N,00227.5622,W,1,07,1.5,3.27,M,48.8,M,,0000*7D
$GPGSA,M,3,12,25,29,31,02,21,30,,,,,,2.3,1.5,1.8*3D
$GPRMC,094659.000,A,5034.6612,N,00227.5622,W,1.23,207.03,161011,,,A*7E
$GPGGA,094700.000,5034.6609,N,00227.5624,W,1,07,1.5,3.29,M,48.8,M,,0000*72
$GPGSA,M,3,12,25,29,31,02,21,30,,,,,,2.3,1.5,1.8*3D
$GPRMC,094700.000,A,5034.6609,N,00227.5624,W,1.74,202.85,161011,,,A*76
$GPGGA,094701.000,5034.6605,N,00227.5627,W,1,07,1.5,3.24,M,48.8,M,,0000*71
$GPGSA,M,3,12,25,29,31,02,21,30,,,,,,2.3,1.5,1.8*3D
$GPGSV,3,1,12,29,79,090,40,30,76,300,42,31,65,266,41,25,47,097,37*7F
$GPGSV,3,2,12,21,19,167,31,02,17,040,31,12,14,099,39,23,09,331,44*75
$GPGSV,3,3,12,14,04,212,32,10,03,024,37,05,02,075,41,16,02,282,47*75
$GPRMC,094701.000,A,5034.6605,N,00227.5627,W,1.94,194.30,161011,,,A*74
$GPGGA,094702.000,5034.6599,N,00227.5630,W,1,07,1.5,3.17,M,48.8,M,,0000*72
$GPGSA,M,3,12,25,29,31,02,21,30,,,,,,2.3,1.5,1.8*3D
$GPRMC,094702.000,A,5034.6599,N,00227.5630,W,2.14,199.49,161011,,,A*7F
$GPGGA,094703.000,5034.6592,N,00227.5635,W,1,07,1.5,2.96,M,48.8,M,,0000*75
$GPGSA,M,3,12,25,29,31,02,21,30,,,,,,2.3,1.5,1.8*3D
$GPRMC,094703.000,A,5034.6592,N,00227.5635,W,3.06,204.75,161011,,,A*7A
$GPGGA,094704.000,5034.6584,N,00227.5640,W,1,07,1.5,2.97,M,48.8,M,,0000*76
$GPGSA,M,3,12,25,29,31,02,21,30,,,,,,2.3,1.5,1.8*3D
$GPRMC,094704.000,A,5034.6584,N,00227.5640,W,2.92,200.40,161011,,,A*76
$GPGGA,094705.000,5034.6576,N,00227.5646,W,1,07,1.5,2.96,M,48.8,M,,0000*7D
$GPGSA,M,3,12,25,29,31,02,21,30,,,,,,2.3,1.5,1.8*3D
$GPRMC,094705.000,A,5034.6576,N,00227.5646,W,3.78,202.95,161011,,,A*73
$GPGGA,094706.000,5034.6564,N,00227.5654,W,1,07,1.5,3.00,M,48.8,M,,0000*70
$GPGSA,M,3,12,25,29,31,02,21,30,,,,,,2.3,1.5,1.8*3D
$GPGSV,3,1,12,29,79,090,40,30,76,300,38,31,65,266,44,25,47,097,42*75
$GPGSV,3,2,12,21,19,167,32,02,17,040,35,12,14,099,40,23,09,331,45*7D
$GPGSV,3,3,12,14,04,212,40,10,03,024,31,05,02,075,36,16,02,282,48*79
$GPRMC,094706.000,A,5034.6564,N,00227.5654,W,4.56,202.86,161011,,,A*79
$GPGGA,094707.000,5034.6552,N,00227.5662,W,1,07,1.5,3.10,M,48.8,M,,0000*70
$GPGSA,M,3,12,25,29,31,02,21,30,,,,,,2.3,1.5,1.8*3D
$GPRMC,094707.000,A,5034.6552,N,00227.5662,W,4.78,206.52,161011,,,A*79
$GPGGA,094708.000,5034.6540,N,00227.5671,W,1,06,2.3,3.13,M,48.8,M,,0000*79
$GPGSA,M,3,12,25,29,31,02,30,,,,,,,3.5,2.3,2.7*30
$GPRMC,094708.000,A,5034.6540,N,00227.5671,W,4.73,200.56,161011,,,A*7E
$GPGGA,094709.000,5034.6527,N,00227.5680,W,1,07,1.5,2.98,M,48.8,M,,0000*71
$GPGSA,M,3,12,25,29,31,02,21,30,,,,,,2.3,1.5,1.8*3D
$GPRMC,094709.000,A,5034.6527,N,00227.5680,W,4.98,209.75,161011,,,A*7D
$GPGGA,094710.000,5034.6516,N,00227.5691,W,1,07,1.5,2.94,M,48.8,M,,0000*77
$GPGSA,M,3,12,25,29,31,02,21,30,,,,,,2.3,1.5,1.8*3D
$GPRMC,094710.000,A,5034.6516,N,00227.5691,W,4.73,211.83,161011,,,A*72
$GPGGA,094711.000,5034.6504,N,00227.5701,W,1,07,1.5,2.62,M,48.8,M,,0000*74
$GPGSA,M,3,12,25,29,31,02,21,30,,,,,,2.3,1.5,1.8*3D
$GPGSV,3,1,12,29,79,090,39,30,76,300,38,31,65,266,39,25,47,097,39*7D
$GPGSV,3,2,12,21,19,167,38,02,17,040,32,12,14,099,35,23,09,331,41*76
$GPGSV,3,3,12,14,04,212,42,10,03,024,31,05,02,075,38,16,02,282,48*75
$GPRMC,094711.000,A,5034.6504,N,00227.5701,W,4.78,198.47,161011,,,A*79
$GPGGA,094712.000,5034.6489,N,00227.5707,W,1,07,1.5,2.42,M,48.8,M,,0000*77
$GPGSA,M,3,12,25,29,31,02,21,30,,,,,,2.3,1.5,1.8*3D
$GPRMC,094712.000,A,5034.6489,N,00227.5707,W,5.44,193.35,161011,,,A*78
$GPGGA,094713.000,5034.6474,N,00227.5710,W,1,07,1.5,2.29,M,48.8,M,,0000*7F
$GPGSA,M,3,12,25,29,31,02,21,30,,,,,,2.3,1.5,1.8*3D
$GPRMC,094713.000,A,5034.6474,N,00227.5710,W,5.03,181.39,161011,,,A*71
$GPGGA,094714.000,5034.6460,N,00227.5712,W,1,07,1.5,2.20,M,48.8,M,,0000*76
$GPGSA,M,3,12,25,29,31,02,21,30,,,,,,2.3,1.5,1.8*3D
$GPRMC,094714.000,A,5034.6460,N,00227.5712,W,4.71,191.17,161011,,,A*78
$GPGGA,094715.000,5034.6447,N,00227.5717,W,1,07,1.5,2.16,M,48.8,M,,0000*72
$GPGSA,M,3,12,25,29,31,02,21,30,,,,,,2.3,1.5,1.8*3D
$GPRMC,094715.000,A,5034.6447,N,00227.5717,W,4.35,197.75,161011,,,A*7B
$GPGGA,094716.000,5034.6433,N,00227.5722,W,1,06,1.6,2.33,M,48.8,M,,0000*71
$GPGSA,M,3,25,29,31,02,21,30,,,,,,,2.4,1.6,1.8*3A
$GPGSV,3,1,12,29,79,090,38,30,76,300,38,31,65,266,39,25,47,097,36*73
$GPGSV,3,2,12,21,19,167,38,02,17,040,30,12,14,099,,23,09,331,42*71
$GPGSV,3,3,12,14,04,212,41,10,03,024,29,05,02,075,35,16,02,282,45*7F
$GPRMC,094716.000,A,5034.6433,N,00227.5722,W,4.96,195.96,161011,,,A*7B
$GPGGA,094717.000,5034.6419,N,00227.5727,W,1,07,1.5,2.46,M,48.8,M,,0000*7D
$GPGSA,M,3,12,25,29,31,02,21,30,,,,,,2.3,1.5,1.8*3D
$GPRMC,094717.000,A,5034.6419,N,00227.5727,W,4.91,195.09,161011,,,A*76
$GPGGA,094718.000,5034.6407,N,00227.5732,W,1,07,1.5,2.62,M,48.8,M,,0000*7F
$GPGSA,M,3,12,25,29,31,02,21,30,,,,,,2.3,1.5,1.8*3D
$GPRMC,094718.000,A,5034.6407,N,00227.5732,W,4.54,197.89,161011,,,A*71
$GPGGA,094719.000,5034.6395,N,00227.5738,W,1,07,1.5,2.73,M,48.8,M,,0000*78
$GPGSA,M,3,12,25,29,31,02,21,30,,,,,,2.3,1.5,1.8*3D
$GPRMC,094719.000,A,5034.6395,N,00227.5738,W,4.45,202.02,161011,,,A*7A
$GPGGA,094720.000,5034.6383,N,00227.5744,W,1,07,1.5,2.59,M,48.8,M,,0000*76
$GPGSA,M,3,12,25,29,31,02,21,30,,,,,,2.3,1.5,1.8*3D
$GPRMC,094720.000,A,5034.6383,N,00227.5744,W,4.62,193.79,161011,,,A*7E
$GPGGA,094721.000,5034.6370,N,00227.5748,W,1,07,1.5,2.52,M,48.8,M,,0000*7C
$GPGSA,M,3,12,25,29,31,02,21,30,,,,,,2.3,1.5,1.8*3D
$GPGSV,3,1,12,29,79,090,38,30,76,300,39,31,65,266,44,25,47,097,40*79
$GPGSV,3,2,12,21,19,167,36,02,17,040,31,12,14,099,38,23,09,331,41*76
$GPGSV,3,3,12,14,04,212,43,10,03,024,30,05,02,075,37,16,02,282,46*74
$GPRMC,094721.000,A,5034.6370,N,00227.5748,W,5.03,194.33,161011,,,A*70
$GPGGA,094722.000,5034.6356,N,00227.5750,W,1,07,1.5,2.29,M,48.8,M,,0000*7E
$GPGSA,M,3,12,25,29,31,02,21,30,,,,,,2.3,1.5,1.8*3D
$GPRMC,094722.000,A,5034.6356,N,00227.5750,W,5.18,176.50,161011,,,A*7D
$GPGGA,094723.000,5034.6342,N,00227.5747,W,1,07,1.5,2.21,M,48.8,M,,0000*74
$GPGSA,M,3,12,25,29,31,02,21,30,,,,,,2.3,1.5,1.8*3D
$GPRMC,094723.000,A,5034.6342,N,00227.5747,W,4.90,172.39,161011,,,A*75
$GPGGA,094724.000,5034.6327,N,00227.5748,W,1,07,1.5,2.02,M,48.8,M,,0000*7E
$GPGSA,M,3,12,25,29,31,02,21,30,,,,,,2.3,1.5,1.8*3D
$GPRMC,094724.000,A,5034.6327,N,00227.5748,W,5.38,190.78,161011,,,A*74
$GPGGA,094725.000,5034.6313,N,00227.5752,W,1,07,1.5,2.12,M,48.8,M,,0000*72
$GPGSA,M,3,12,25,29,31,02,21,30,,,,,,2.3,1.5,1.8*3D
$GPRMC,094725.000,A,5034.6313,N,00227.5752,W,5.04,196.24,161011,,,A*79
$GPGGA,094726.000,5034.6299,N,00227.5758,W,1,07,1.5,1.85,M,48.8,M,,0000*75
$GPGSA,M,3,12,25,29,31,02,21,30,,,,,,2.3,1.5,1.8*3D
$GPGSV,3,1,12,29,79,090,39,30,76,300,39,31,65,266,43,25,47,097,35*7D
$GPGSV,3,2,12,21,19,167,37,02,17,040,31,12,14,099,37,23,09,331,40*79
$GPGSV,3,3,12,14,04,212,45,10,03,024,30,05,02,075,37,16,02,282,45*71
$GPRMC,094726.000,A,5034.6299,N,00227.5758,W,4.93,192.15,161011,,,A*7A
$GPGGA,094727.000,5034.6286,N,00227.5764,W,1,07,1.5,1.61,M,48.8,M,,0000*7F
$GPGSA,M,3,12,25,29,31,02,21,30,,,,,,2.3,1.5,1.8*3D
$GPRMC,094727.000,A,5034.6286,N,00227.5764,W,5.02,201.13,161011,,,A*7C
$GPGGA,094728.000,5034.6273,N,00227.5771,W,1,07,1.5,1.49,M,48.8,M,,0000*74
$GPGSA,M,3,12,25,29,31,02,21,30,,,,,,2.3,1.5,1.8*3D
$GPRMC,094728.000,A,5034.6273,N,00227.5771,W,4.88,199.63,161011,,,A*7B
$GPGGA,094729.000,5034.6260,N,00227.5777,W,1,07,1.5,1.43,M,48.8,M,,0000*7B
$GPGSA,M,3,12,25,29,31,02,21,30,,,,,,2.3,1.5,1.8*3D
$GPRMC,094729.000,A,5034.6260,N,00227.5777,W,4.81,196.74,161011,,,A*7E
$GPGGA,094730.000,5034.6246,N,00227.5783,W,1,07,1.5,1.28,M,48.8,M,,0000*71
$GPGSA,M,3,12,25,29,31,02,21,30,,,,,,2.3,1.5,1.8*3D
$GPRMC,094730.000,A,5034.6246,N,00227.5783,W,5.27,194.00,161011,,,A*75
$GPGGA,094731.000,5034.6231,N,00227.5787,W,1,07,1.5,1.11,M,48.8,M,,0000*7E
$GPGSA,M,3,12,25,29,31,02,21,30,,,,,,2.3,1.5,1.8*3D
$GPGSV,3,1,12,29,79,090,39,30,76,300,39,31,65,266,42,25,47,097,39*70
$GPGSV,3,2,12,21,19,167,40,02,17,040,30,12,14,099,33,23,09,331,40*7C
$GPGSV,3,3,12,14,04,212,45,10,03,024,29,05,02,075,36,16,02,282,45*78
$GPRMC,094731.000,A,5034.6231,N,00227.5787,W,5.59,184.00,161011,,,A*78
$GPGGA,094732.000,5034.6215,N,00227.5785,W,1,07,1.5,1.03,M,48.8,M,,0000*7A
$GPGSA,M,3,12,25,29,31,02,21,30,,,,,,2.3,1.5,1.8*3D
$GPRMC,094732.000,A,5034.6215,N,00227.5785,W,5.92,171.81,161011,,,A*7B
$GPGGA,094733.000,5034.6197,N,00227.5783,W,1,07,1.5,1.10,M,48.8,M,,0000*76
$GPGSA,M,3,12,25,29,31,02,21,30,,,,,,2.3,1.5,1.8*3D
$GPRMC,094733.000,A,5034.6197,N,00227.5783,W,6.54,180.36,161011,,,A*7E
$GPGGA,094734.000,5034.6178,N,00227.5783,W,1,07,1.5,1.27,M,48.8,M,,0000*74
$GPGSA,M,3,12,25,29,31,02,21,30,,,,,,2.3,1.5,1.8*3D
$GPRMC,094734.000,A,5034.6178,N,00227.5783,W,6.58,186.25,161011,,,A*70
$GPGGA,094735.000,5034.6161,N,00227.5787,W,1,07,1.5,1.18,M,48.8,M,,0000*75
$GPGSA,M,3,12,25,29,31,02,21,30,,,,,,2.3,1.5,1.8*3D
$GPRMC,094735.000,A,5034.6161,N,00227.5787,W,6.32,188.10,161011,,,A*79
$GPGGA,094736.000,5034.6143,N,00227.5790,W,1,07,1.5,1.11,M,48.8,M,,0000*79
$GPGSA,M,3,12,25,29,31,02,21,30,,,,,,2.3,1.5,1.8*3D
$GPGSV,3,1,12,29,79,090,39,30,76,300,39,31,65,266,42,25,47,097,39*70
$GPGSV,3,2,12,21,19,167,36,02,17,040,31,12,14,099,34,23,09,331,36*7A
$GPGSV,3,3,12,14,04,212,45,10,03,024,25,05,02,075,33,16,02,282,45*71
$GPRMC,094736.000,A,5034.6143,N,00227.5790,W,6.39,185.01,161011,,,A*7A
$GPGGA,094737.000,5034.6125,N,00227.5791,W,1,07,1.5,1.26,M,48.8,M,,0000*7D
$GPGSA,M,3,12,25,29,31,02,21,30,,,,,,2.3,1.5,1.8*3D
$GPRMC,094737.000,A,5034.6125,N,00227.5791,W,6.28,178.10,161011,,,A*78
$GPGGA,094738.000,5034.6106,N,00227.5788,W,1,07,1.5,1.53,M,48.8,M,,0000*79
$GPGSA,M,3,12,25,29,31,02,21,30,,,,,,2.3,1.5,1.8*3D
$GPRMC,094738.000,A,5034.6106,N,00227.5788,W,6.44,175.37,161011,,,A*7C
$GPGGA,094739.000,5034.6087,N,00227.5786,W,1,07,1.5,1.60,M,48.8,M,,0000*7E
$GPGSA,M,3,12,25,29,31,02,21,30,,,,,,2.3,1.5,1.8*3D
$GPRMC,094739.000,A,5034.6087,N,00227.5786,W,6.51,175.91,161011,,,A*73
$GPGGA,094740.000,5034.6069,N,00227.5783,W,1,07,1.5,1.62,M,48.8,M,,0000*77
$GPGSA,M,3,12,25,29,31,02,21,30,,,,,,2.3,1.5,1.8*3D
$GPRMC,094740.000,A,5034.6069,N,00227.5783,W,6.31,170.51,161011,,,A*77
$GPGGA,094741.000,5034.6053,N,00227.5779,W,1,07,1.5,1.66,M,48.8,M,,0000*7E
$GPGSA,M,3,12,25,29,31,02,21,30,,,,,,2.3,1.5,1.8*3D
$GPGSV,3,1,12,29,79,090,39,30,76,300,39,31,65,266,42,25,47,097,38*71
$GPGSV,3,2,12,21,19,167,39,02,17,040,36,12,14,099,34,23,09,331,34*70
$GPGSV,3,3,12,14,04,212,45,10,03,024,36,05,02,075,34,16,02,282,45*74
$GPRMC,094741.000,A,5034.6053,N,00227.5779,W,5.47,175.93,161011,,,A*73
$GPGGA,094742.000,5034.6037,N,00227.5778,W,1,07,1.5,1.78,M,48.8,M,,0000*71
$GPGSA,M,3,12,25,29,31,02,21,30,,,,,,2.3,1.5,1.8*3D
$GPRMC,094742.000,A,5034.6037,N,00227.5778,W,5.16,175.80,161011,,,A*75
$GPGGA,094743.000,5034.6021,N,00227.5775,W,1,07,1.5,2.08,M,48.8,M,,0000*7E
$GPGSA,M,3,12,25,29,31,02,21,30,,,,,,2.3,1.5,1.8*3D
$GPRMC,094743.000,A,5034.6021,N,00227.5775,W,5.54,172.31,161011,,,A*75
$GPGGA,094744.000,5034.6004,N,00227.5771,W,1,07,1.5,2.39,M,48.8,M,,0000*78
$GPGSA,M,3,12,25,29,31,02,21,30,,,,,,2.3,1.5,1.8*3D
$GPRMC,094744.000,A,5034.6004,N,00227.5771,W,6.19,172.16,161011,,,A*7E
$GPGGA,094745.000,5034.5985,N,00227.5766,W,1,07,1.5,2.65,M,48.8,M,,0000*75
$GPGSA,M,3,12,25,29,31,02,21,30,,,,,,2.3,1.5,1.8*3D
$GPRMC,094745.000,A,5034.5985,N,00227.5766,W,6.77,172.34,161011,,,A*72
$GPGGA,094746.000,5034.5965,N,00227.5762,W,1,07,1.5,2.96,M,48.8,M,,0000*70
$GPGSA,M,3,12,25,29,31,02,21,30,,,,,,2.3,1.5,1.8*3D
$GPGSV,3,1,12,29,79,090,39,30,76,300,39,31,65,266,41,25,47,097,37*7D
$GPGSV,3,2,12,21,19,167,39,02,17,040,36,12,14,099,34,23,09,331,38*7C
$GPGSV,3,3,12,14,04,212,45,10,03,024,,05,02,075,39,16,02,282,46*7F
$GPRMC,094746.000,A,5034.5965,N,00227.5762,W,6.81,175.04,161011,,,A*76
$GPGGA,094747.000,5034.5946,N,00227.5761,W,1,07,1.5,2.91,M,48.8,M,,0000*74
$GPGSA,M,3,12,25,29,31,02,21,30,,,,,,2.3,1.5,1.8*3D
$GPRMC,094747.000,A,5034.5946,N,00227.5761,W,6.64,178.51,161011,,,A*73
$GPGGA,094748.000,5034.5927,N,00227.5759,W,1,07,1.5,2.97,M,48.8,M,,0000*71
$GPGSA,M,3,12,25,29,31,02,21,30,,,,,,2.3,1.5,1.8*3D
$GPRMC,094748.000,A,5034.5927,N,00227.5759,W,6.63,175.91,161011,,,A*76
$GPGGA,094749.000,5034.5909,N,00227.5754,W,1,07,1.5,2.99,M,48.8,M,,0000*7F
$GPGSA,M,3,12,25,29,31,02,21,30,,,,,,2.3,1.5,1.8*3D
$GPRMC,094749.000,A,5034.5909,N,00227.5754,W,6.37,167.08,161011,,,A*74
$GPGGA,094750.000,5034.5891,N,00227.5748,W,1,07,1.5,3.02,M,48.8,M,,0000*79
$GPGSA,M,3,12,25,29,31,02,21,30,,,,,,2.3,1.5,1.8*3D
$GPRMC,094750.000,A,5034.5891,N,00227.5748,W,6.29,172.15,161011,,,A*76
$GPGGA,094751.000,5034.5873,N,00227.5745,W,1,07,1.5,3.00,M,48.8,M,,0000*7B
$GPGSA,M,3,12,25,29,31,02,21,30,,,,,,2.3,1.5,1.8*3D
$GPGSV,3,1,12,29,79,090,39,30,76,300,39,31,65,266,42,25,47,097,42*7C
$GPGSV,3,2,12,21,19,167,42,02,17,040,38,12,14,099,36,23,09,331,37*73
$GPGSV,3,3,12,14,04,212,46,10,03,024,39,05,02,075,32,16,02,282,44*7F
$GPRMC,094751.000,A,5034.5873,N,00227.5745,W,6.31,175.42,161011,,,A*7A
$GPGGA,094752.000,5034.5857,N,00227.5739,W,1,07,1.5,3.02,M,48.8,M,,0000*77
$GPGSA,M,3,12,25,29,31,02,21,30,,,,,,2.3,1.5,1.8*3D
$GPRMC,094752.000,A,5034.5857,N,00227.5739,W,5.80,161.62,161011,,,A*7A
$GPGGA,094753.000,5034.5840,N,00227.5732,W,1,07,1.5,3.26,M,48.8,M,,0000*7D
$GPGSA,M,3,12,25,29,31,02,21,30,,,,,,2.3,1.5,1.8*3D
$GPRMC,094753.000,A,5034.5840,N,00227.5732,W,5.81,169.15,161011,,,A*7F
$GPGGA,094754.000,5034.5824,N,00227.5729,W,1,07,1.5,3.37,M,48.8,M,,0000*72
$GPGSA,M,3,12,25,29,31,02,21,30,,,,,,2.3,1.5,1.8*3D
$GPRMC,094754.000,A,5034.5824,N,00227.5729,W,5.52,178.17,161011,,,A*7C
$GPGGA,094755.000,5034.5808,N,00227.5729,W,1,07,1.5,3.39,M,48.8,M,,0000*73
$GPGSA,M,3,12,25,29,31,02,21,30,,,,,,2.3,1.5,1.8*3D
$GPRMC,094755.000,A,5034.5808,N,00227.5729,W,5.69,181.97,161011,,,A*75
$GPGGA,094756.000,5034.5792,N,00227.5730,W,1,07,1.5,3.26,M,48.8,M,,0000*7A
$GPGSA,M,3,12,25,29,31,02,21,30,,,,,,2.3,1.5,1.8*3D
$GPGSV,3,1,12,29,79,090,39,30,76,300,39,31,65,266,41,25,47,097,37*7D
$GPGSV,3,2,12,21,19,167,40,02,17,040,32,12,14,099,36,23,09,331,41*7A
$GPGSV,3,3,12,14,04,212,46,10,03,024,27,05,02,075,35,16,02,282,44*77
$GPRMC,094756.000,A,5034.5792,N,00227.5730,W,5.63,181.22,161011,,,A*76
$GPGGA,094757.000,5034.5776,N,00227.5730,W,1,07,1.5,3.04,M,48.8,M,,0000*71
$GPGSA,M,3,12,25,29,31,02,21,30,,,,,,2.3,1.5,1.8*3D
$GPRMC,094757.000,A,5034.5776,N,00227.5730,W,5.87,179.83,161011,,,A*7B
$GPGGA,094758.000,5034.5759,N,00227.5731,W,1,07,1.5,3.04,M,48.8,M,,0000*72
$GPGSA,M,3,12,25,29,31,02,21,30,,,,,,2.3,1.5,1.8*3D
$GPRMC,094758.000,A,5034.5759,N,00227.5731,W,6.30,185.31,161011,,,A*7D
$GPGGA,094759.000,5034.5741,N,00227.5734,W,1,07,1.5,3.03,M,48.8,M,,0000*78
$GPGSA,M,3,12,25,29,31,02,21,30,,,,,,2.3,1.5,1.8*3D
$GPRMC,094759.000,A,5034.5741,N,00227.5734,W,6.19,187.26,161011,,,A*7F
$GPGGA,094800.000,5034.5724,N,00227.5738,W,1,07,1.5,2.90,M,48.8,M,,0000*7F
$GPGSA,M,3,12,25,29,31,02,21,30,,,,,,2.3,1.5,1.8*3D
$GPRMC,094800.000,A,5034.5724,N,00227.5738,W,6.39,186.96,161011,,,A*7B
$GPGGA,094801.000,5034.5706,N,00227.5742,W,1,07,1.5,2.80,M,48.8,M,,0000*72
$GPGSA,M,3,12,25,29,31,02,21,30,,,,,,2.3,1.5,1.8*3D
$GPGSV,3,1,12,29,79,090,39,30,76,300,39,31,65,266,42,25,47,097,38*71
$GPGSV,3,2,12,21,19,167,41,02,17,040,35,12,14,099,35,23,09,331,39*70
$GPGSV,3,3,12,14,04,212,46,10,03,024,27,05,02,075,25,16,02,282,44*76
$GPRMC,094801.000,A,5034.5706,N,00227.5742,W,6.70,189.26,161011,,,A*7E
$GPGGA,094802.000,5034.5687,N,00227.5746,W,1,07,1.5,2.62,M,48.8,M,,0000*71
$GPGSA,M,3,12,25,29,31,02,21,30,,,,,,2.3,1.5,1.8*3D
$GPRMC,094802.000,A,5034.5687,N,00227.5746,W,6.70,188.07,161011,,,A*73
$GPGGA,094803.000,5034.5668,N,00227.5751,W,1,07,1.5,2.69,M,48.8,M,,0000*7C
$GPGSA,M,3,12,25,29,31,02,21,30,,,,,,2.3,1.5,1.8*3D
$GPRMC,094803.000,A,5034.5668,N,00227.5751,W,6.70,187.95,161011,,,A*71
$GPGGA,094804.000,5034.5650,N,00227.5754,W,1,07,1.5,2.55,M,48.8,M,,0000*7A
$GPGSA,M,3,12,25,29,31,02,21,30,,,,,,2.3,1.5,1.8*3D
$GPRMC,094804.000,A,5034.5650,N,00227.5754,W,6.93,183.56,161011,,,A*7E
$GPGGA,094805.000,5034.5630,N,00227.5756,W,1,07,1.5,2.37,M,48.8,M,,0000*7B
$GPGSA,M,3,12,25,29,31,02,21,30,,,,,,2.3,1.5,1.8*3D
$GPRMC,094805.000,A,5034.5630,N,00227.5756,W,7.49,182.13,161011,,,A*7D
$GPGGA,094806.000,5034.5607,N,00227.5754,W,1,07,1.5,2.44,M,48.8,M,,0000*7A
$GPGSA,M,3,12,25,29,31,02,21,30,,,,,,2.3,1.5,1.8*3D
$GPGSV,3,1,12,29,79,090,38,30,76,300,39,31,65,266,42,25,47,097,38*70
$GPGSV,3,2,12,21,19,167,43,02,17,040,33,12,14,099,31,23,09,331,37*7E
$GPGSV,3,3,12,14,04,212,47,10,03,024,34,05,02,075,33,16,02,282,44*72
$GPRMC,094806.000,A,5034.5607,N,00227.5754,W,8.29,170.64,161011,,,A*7C
$GPGGA,094807.000,5034.5584,N,00227.5748,W,1,07,1.5,2.26,M,48.8,M,,0000*7A
$GPGSA,M,3,12,25,29,31,02,21,30,,,,,,2.3,1.5,1.8*3D
$GPRMC,094807.000,A,5034.5584,N,00227.5748,W,8.81,171.49,161011,,,A*74
$GPGGA,094808.000,5034.5559,N,00227.5744,W,1,07,1.5,2.06,M,48.8,M,,0000*7B
$GPGSA,M,3,12,25,29,31,02,21,30,,,,,,2.3,1.5,1.8*3D
$GPRMC,094808.000,A,5034.5559,N,00227.5744,W,9.12,175.47,161011,,,A*76
$GPGGA,094809.000,5034.5532,N,00227.5743,W,1,07,1.5,2.03,M,48.8,M,,0000*75
$GPGSA,M,3,12,25,29,31,02,21,30,,,,,,2.3,1.5,1.8*3D
$GPRMC,094809.000,A,5034.5532,N,00227.5743,W,9.71,179.48,161011,,,A*7B
$GPGGA,094810.000,5034.5505,N,00227.5744,W,1,07,1.5,1.87,M,48.8,M,,0000*71
$GPGSA,M,3,12,25,29,31,02,21,30,,,,,,2.3,1.5,1.8*3D
$GPRMC,094810.000,A,5034.5505,N,00227.5744,W,10.12,179.98,161011,,,A*40
$GPGGA,094811.000,5034.5476,N,00227.5745,W,1,07,1.5,1.98,M,48.8,M,,0000*7A
$GPGSA,M,3,12,25,29,31,02,21,30,,,,,,2.3,1.5,1.8*3D
$GPGSV,3,1,12,29,79,090,38,30,76,300,38,31,65,266,41,25,47,097,32*78
$GPGSV,3,2,12,21,19,167,45,02,17,040,35,12,14,099,30,23,09,331,32*7A
$GPGSV,3,3,12,14,04,212,48,10,03,024,37,05,02,075,29,16,02,282,44*75
$GPRMC,094811.000,A,5034.5476,N,00227.5745,W,10.28,185.03,161011,,,A*4D
$GPGGA,094812.000,5034.5447,N,00227.5750,W,1,07,1.5,1.95,M,48.8,M,,0000*72
$GPGSA,M,3,12,25,29,31,02,21,30,,,,,,2.3,1.5,1.8*3D
$GPRMC,094812.000,A,5034.5447,N,00227.5750,W,10.44,186.45,161011,,,A*43
$GPGGA,094813.000,5034.5417,N,00227.5757,W,1,07,1.5,1.85,M,48.8,M,,0000*70
$GPGSA,M,3,12,25,29,31,02,21,30,,,,,,2.3,1.5,1.8*3D
$GPRMC,094813.000,A,5034.5417,N,00227.5757,W,10.75,189.26,161011,,,A*48
$GPGGA,094814.000,5034.5388,N,00227.5766,W,1,07,1.5,1.72,M,48.8,M,,0000*7C
$GPGSA,M,3,12,25,29,31,02,21,30,,,,,,2.3,1.5,1.8*3D
$GPRMC,094814.000,A,5034.5388,N,00227.5766,W,10.66,191.06,161011,,,A*45
$GPGGA,094815.000,5034.5358,N,00227.5775,W,1,07,1.5,1.83,M,48.8,M,,0000*7C
$GPGSA,M,3,12,25,29,31,02,21,30,,,,,,2.3,1.5,1.8*3D
$GPRMC,094815.000,A,5034.5358,N,00227.5775,W,10.75,192.34,161011,,,A*4B
$GPGGA,094816.000,5034.5328,N,00227.5784,W,1,07,1.5,1.67,M,48.8,M,,0000*7C
$GPGSA,M,3,12,25,29,31,02,21,30,,,,,,2.3,1.5,1.8*3D
$GPGSV,3,1,12,29,79,090,37,30,76,300,38,31,65,266,40,25,47,097,33*77
$GPGSV,3,2,12,21,19,167,42,02,17,040,36,12,14,099,40,23,09,331,36*7D
$GPGSV,3,3,12,14,04,212,47,10,03,024,29,05,02,075,31,16,02,282,43*7B
$GPRMC,094816.000,A,5034.5328,N,00227.5784,W,10.72,186.71,161011,,,A*42
$GPGGA,094817.000,5034.5299,N,00227.5786,W,1,07,1.5,1.47,M,48.8,M,,0000*76
$GPGSA,M,3,12,25,29,31,02,21,30,,,,,,2.3,1.5,1.8*3D
$GPRMC,094817.000,A,5034.5299,N,00227.5786,W,10.57,178.55,161011,,,A*4A
$GPGGA,094818.000,5034.5269,N,00227.5784,W,1,07,1.5,1.74,M,48.8,M,,0000*74
$GPGSA,M,3,12,25,29,31,02,21,30,,,,,,2.3,1.5,1.8*3D
$GPRMC,094818.000,A,5034.5269,N,00227.5784,W,10.52,180.98,161011,,,A*4B
$GPGGA,094819.000,5034.5239,N,00227.5785,W,1,07,1.5,1.56,M,48.8,M,,0000*71
$GPGSA,M,3,12,25,29,31,02,21,30,,,,,,2.3,1.5,1.8*3D
$GPRMC,094819.000,A,5034.5239,N,00227.5785,W,10.61,178.80,161011,,,A*40
$GPGGA,094820.000,5034.5209,N,00227.5780,W,1,07,1.5,1.79,M,48.8,M,,0000*70
$GPGSA,M,3,12,25,29,31,02,21,30,,,,,,2.3,1.5,1.8*3D
$GPRMC,094820.000,A,5034.5209,N,00227.5780,W,10.50,171.79,161011,,,A*41
$GPGGA,094821.000,5034.5180,N,00227.5775,W,1,07,1.5,2.03,M,48.8,M,,0000*77
$GPGSA,M,3,12,25,29,31,02,21,30,,,,,,2.3,1.5,1.8*3D
$GPGSV,3,1,12,29,79,090,35,30,76,300,38,31,65,266,40,25,47,097,39*7F
$GPGSV,3,2,12,21,19,167,46,02,17,040,30,12,14,099,38,23,09,331,32*74
$GPGSV,3,3,12,14,04,212,47,10,03,024,33,05,02,075,40,16,02,282,35*77
$GPRMC,094821.000,A,5034.5180,N,00227.5775,W,10.28,178.30,161011,,,A*43
$GPGGA,094822.000,5034.5151,N,00227.5774,W,1,07,1.5,2.11,M,48.8,M,,0000*7A
$GPGSA,M,3,12,25,29,31,02,21,30,,,,,,2.3,1.5,1.8*3D
$GPRMC,094822.000,A,5034.5151,N,00227.5774,W,10.26,179.11,161011,,,A*41
$GPGGA,094823.000,5034.5123,N,00227.5775,W,1,07,1.5,2.31,M,48.8,M,,0000*7D
$GPGSA,M,3,12,25,29,31,02,21,30,,,,,,2.3,1.5,1.8*3D
$GPRMC,094823.000,A,5034.5123,N,00227.5775,W,9.89,183.42,161011,,,A*7A
$GPGGA,094824.000,5034.5094,N,00227.5781,W,1,07,1.5,2.44,M,48.8,M,,0000*7E
$GPGSA,M,3,12,25,29,31,02,21,30,,,,,,2.3,1.5,1.8*3D
$GPRMC,094824.000,A,5034.5094,N,00227.5781,W,10.25,191.21,161011,,,A*43
$GPGGA,094825.000,5034.5066,N,00227.5788,W,1,07,1.5,2.45,M,48.8,M,,0000*7A
$GPGSA,M,3,12,25,29,31,02,21,30,,,,,,2.3,1.5,1.8*3D
$GPRMC,094825.000,A,5034.5066,N,00227.5788,W,10.03,188.21,161011,,,A*4A
$GPGGA,094826.000,5034.5039,N,00227.5795,W,1,07,1.5,2.49,M,48.8,M,,0000*73
$GPGSA,M,3,12,25,29,31,02,21,30,,,,,,2.3,1.5,1.8*3D
$GPGSV,3,1,12,29,79,090,36,30,76,300,38,31,65,266,40,25,47,097,33*76
$GPGSV,3,2,12,21,19,167,43,02,17,040,39,12,14,099,33,23,09,331,33*72
$GPGSV,3,3,12,14,04,212,47,10,03,024,35,05,02,075,32,16,02,282,42*74
$GPRMC,094826.000,A,5034.5039,N,00227.5795,W,9.76,187.20,161011,,,A*7B
$GPGGA,094827.000,5034.5012,N,00227.5804,W,1,07,1.5,2.34,M,48.8,M,,0000*76
$GPGSA,M,3,12,25,29,31,02,21,30,,,,,,2.3,1.5,1.8*3D
$GPRMC,094827.000,A,5034.5012,N,00227.5804,W,9.70,194.48,161011,,,A*7E
$GPGGA,094828.000,5034.4987,N,00227.5815,W,1,07,1.5,2.03,M,48.8,M,,0000*79
$GPGSA,M,3,12,25,29,31,02,21,30,,,,,,2.3,1.5,1.8*3D
$GPRMC,094828.000,A,5034.4987,N,00227.5815,W,9.26,192.87,161011,,,A*73
$GPGGA,094829.000,5034.4961,N,00227.5820,W,1,07,1.5,2.08,M,48.8,M,,0000*7D
$GPGSA,M,3,12,25,29,31,02,21,30,,,,,,2.3,1.5,1.8*3D
$GPRMC,094829.000,A,5034.4961,N,00227.5820,W,9.19,180.60,161011,,,A*7A
$GPGGA,094830.000,5034.4935,N,00227.5818,W,1,07,1.5,2.14,M,48.8,M,,0000*72
$GPGSA,M,3,12,25,29,31,02,21,30,,,,,,2.3,1.5,1.8*3D
$GPRMC,094830.000,A,5034.4935,N,00227.5818,W,9.01,175.77,161011,,,A*7D
$GPGGA,094831.000,5034.4910,N,00227.5816,W,1,07,1.5,2.22,M,48.8,M,,0000*7F
$GPGSA,M,3,12,25,29,31,02,21,30,,,,,,2.3,1.5,1.8*3D
$GPGSV,3,1,12,29,79,090,36,30,76,300,38,31,65,266,40,25,47,097,40*72
$GPGSV,3,2,12,21,19,167,45,02,17,040,36,12,14,099,35,23,09,331,33*7D
$GPGSV,3,3,12,14,04,212,47,10,03,024,41,05,02,075,27,16,02,282,42*73
$GPRMC,094831.000,A,5034.4910,N,00227.5816,W,8.83,181.41,161011,,,A*70
$GPGGA,094832.000,5034.4885,N,00227.5816,W,1,07,1.5,2.26,M,48.8,M,,0000*75
$GPGSA,M,3,12,25,29,31,02,21,30,,,,,,2.3,1.5,1.8*3D
$GPRMC,094832.000,A,5034.4885,N,00227.5816,W,8.94,181.78,161011,,,A*72
$GPGGA,094833.000,5034.4860,N,00227.5816,W,1,07,1.5,2.27,M,48.8,M,,0000*7E
$GPGSA,M,3,12,25,29,31,02,21,30,,,,,,2.3,1.5,1.8*3D
$GPRMC,094833.000,A,5034.4860,N,00227.5816,W,9.03,177.93,161011,,,A*7B
$GPGGA,094834.000,5034.4834,N,00227.5814,W,1,07,1.5,2.19,M,48.8,M,,0000*77
$GPGSA,M,3,12,25,29,31,02,21,30,,,,,,2.3,1.5,1.8*3D
$GPRMC,094834.000,A,5034.4834,N,00227.5814,W,9.47,175.80,161011,,,A*7F
$GPGGA,094835.000,5034.4806,N,00227.5810,W,1,07,1.5,2.35,M,48.8,M,,0000*7D
$GPGSA,M,3,12,25,29,31,02,21,30,,,,,,2.3,1.5,1.8*3D
$GPRMC,094835.000,A,5034.4806,N,00227.5810,W,9.83,176.19,161011,,,A*70
$GPGGA,094836.000,5034.4778,N,00227.5807,W,1,07,1.5,2.41,M,48.8,M,,0000*7D
$GPGSA,M,3,12,25,29,31,02,21,30,,,,,,2.3,1.5,1.8*3D
$GPGSV,3,1,12,29,79,090,36,30,76,300,38,31,65,266,42,25,47,097,40*70
$GPGSV,3,2,12,21,19,167,44,02,17,040,39,12,14,099,28,23,09,331,35*79
$GPGSV,3,3,12,14,04,212,48,10,03,024,36,05,02,075,32,16,02,282,45*7F
$GPRMC,094836.000,A,5034.4778,N,00227.5807,W,9.74,176.97,161011,,,A*7D
$GPGGA,094837.000,5034.4751,N,00227.5808,W,1,07,1.5,2.35,M,48.8,M,,0000*7B
$GPGSA,M,3,12,25,29,31,02,21,30,,,,,,2.3,1.5,1.8*3D
$GPRMC,094837.000,A,5034.4751,N,00227.5808,W,9.90,186.62,161011,,,A*77
$GPGGA,094838.000,5034.4722,N,00227.5820,W,1,07,1.5,2.37,M,48.8,M,,0000*78
$GPGSA,M,3,12,25,29,31,02,21,30,,,,,,2.3,1.5,1.8*3D
$GPRMC,094838.000,A,5034.4722,N,00227.5820,W,10.52,199.00,161011,,,A*4A
$GPGGA,094839.000,5034.4694,N,00227.5837,W,1,06,1.8,2.40,M,48.8,M,,0000*7F
$GPGSA,M,3,12,29,31,02,21,30,,,,,,,2.9,1.8,2.2*34
$GPRMC,094839.000,A,5034.4694,N,00227.5837,W,10.47,201.32,161011,,,A*46
$GPGGA,094840.000,5034.4667,N,00227.5848,W,1,07,1.5,2.39,M,48.8,M,,0000*77
$GPGSA,M,3,12,25,29,31,02,21,30,,,,,,2.3,1.5,1.8*3D
$GPRMC,094840.000,A,5034.4667,N,00227.5848,W,9.99,188.46,161011,,,A*76
$GPGGA,094841.000,5034.4639,N,00227.5858,W,1,07,1.5,2.21,M,48.8,M,,0000*75
$GPGSA,M,3,12,25,29,31,02,21,30,,,,,,2.3,1.5,1.8*3D
$GPGSV,3,1,12,29,78,086,35,30,77,300,38,31,65,264,41,25,46,098,33*7F
$GPGSV,3,2,12,21,20,167,45,02,16,040,35,12,14,099,29,23,09,331,37*7C
$GPGSV,3,3,12,14,04,211,48,10,03,023,33,16,02,282,46,05,02,074,29*76
$GPRMC,094841.000,A,5034.4639,N,00227.5858,W,10.23,193.61,161011,,,A*4B
$GPGGA,094842.000,5034.4612,N,00227.5867,W,1,07,1.5,1.99,M,48.8,M,,0000*73
$GPGSA,M,3,12,25,29,31,02,21,30,,,,,,2.3,1.5,1.8*3D
$GPRMC,094842.000,A,5034.4612,N,00227.5867,W,9.49,187.58,161011,,,A*76
$GPGGA,094843.000,5034.4584,N,00227.5870,W,1,07,1.5,2.07,M,48.8,M,,0000*7C
$GPGSA,M,3,12,25,29,31,02,21,30,,,,,,2.3,1.5,1.8*3D
$GPRMC,094843.000,A,5034.4584,N,00227.5870,W,10.01,182.15,161011,,,A*45
$GPGGA,094844.000,5034.4556,N,00227.5871,W,1,07,1.5,2.24,M,48.8,M,,0000*74
$GPGSA,M,3,12,25,29,31,02,21,30,,,,,,2.3,1.5,1.8*3D
$GPRMC,094844.000,A,5034.4556,N,00227.5871,W,10.02,182.54,161011,,,A*4A
$GPGGA,094845.000,5034.4528,N,00227.5880,W,1,07,1.5,2.05,M,48.8,M,,0000*71
$GPGSA,M,3,12,25,29,31,02,21,30,,,,,,2.3,1.5,1.8*3D
$GPRMC,094845.000,A,5034.4528,N,00227.5880,W,10.29,194.68,161011,,,A*4D
$GPGGA,094846.000,5034.4499,N,00227.5895,W,1,07,1.5,2.23,M,48.8,M,,0000*79
$GPGSA,M,3,12,25,29,31,02,21,30,,,,,,2.3,1.5,1.8*3D
$GPGSV,3,1,12,29,78,086,36,30,77,300,38,31,65,264,41,25,46,098,33*7C
$GPGSV,3,2,12,21,20,167,44,02,16,040,33,12,14,099,30,23,10,331,36*7A
$GPGSV,3,3,12,14,04,211,48,10,03,023,31,16,02,282,45,05,02,074,28*76
$GPRMC,094846.000,A,5034.4499,N,00227.5895,W,10.78,199.92,161011,,,A*4D
$GPGGA,094847.000,5034.4471,N,00227.5908,W,1,07,1.5,1.99,M,48.8,M,,0000*79
$GPGSA,M,3,12,25,29,31,02,21,30,,,,,,2.3,1.5,1.8*3D
$GPRMC,094847.000,A,5034.4471,N,00227.5908,W,10.31,188.65,161011,,,A*4A
$GPGGA,094848.000,5034.4442,N,00227.5912,W,1,07,1.5,2.28,M,48.8,M,,0000*74
$GPGSA,M,3,12,25,29,31,02,21,30,,,,,,2.3,1.5,1.8*3D
$GPRMC,094848.000,A,5034.4442,N,00227.5912,W,10.02,188.91,161011,,,A*45
$GPGGA,094849.000,5034.4414,N,00227.5918,W,1,07,1.5,2.43,M,48.8,M,,0000*71
$GPGSA,M,3,12,25,29,31,02,21,30,,,,,,2.3,1.5,1.8*3D
$GPRMC,094849.000,A,5034.4414,N,00227.5918,W,10.14,190.60,161011,,,A*4D
$GPGGA,094850.000,5034.4386,N,00227.5926,W,1,07,1.5,2.51,M,48.8,M,,0000*7B
$GPGSA,M,3,12,25,29,31,02,21,30,,,,,,2.3,1.5,1.8*3D
$GPRMC,094850.000,A,5034.4386,N,00227.5926,W,10.16,192.05,161011,,,A*47
$GPGGA,094851.000,5034.4359,N,00227.5936,W,1,07,1.5,2.20,M,48.8,M,,0000*7F
$GPGSA,M,3,12,25,29,31,02,21,30,,,,,,2.3,1.5,1.8*3D
$GPGSV,3,1,12,29,78,086,36,30,77,300,38,31,65,264,39,25,46,098,36*76
$GPGSV,3,2,12,21,20,167,44,02,16,040,42,12,14,099,32,23,10,331,36*7E
$GPGSV,3,3,12,14,04,211,48,10,03,023,39,16,02,282,44,05,02,074,35*73
$GPRMC,094851.000,A,5034.4359,N,00227.5936,W,9.62,188.64,161011,,,A*72
$GPGGA,094852.000,5034.4333,N,00227.5945,W,1,07,1.5,2.11,M,48.8,M,,0000*76
$GPGSA,M,3,12,25,29,31,02,21,30,,,,,,2.3,1.5,1.8*3D
$GPRMC,094852.000,A,5034.4333,N,00227.5945,W,9.27,194.66,161011,,,A*77
$GPGGA,094853.000,5034.4308,N,00227.5957,W,1,07,1.5,2.04,M,48.8,M,,0000*78
$GPGSA,M,3,12,25,29,31,02,21,30,,,,,,2.3,1.5,1.8*3D
$GPRMC,094853.000,A,5034.4308,N,00227.5957,W,9.16,200.92,161011,,,A*7A
$GPGGA,094854.000,5034.4285,N,00227.5970,W,1,07,1.5,1.91,M,48.8,M,,0000*71
$GPGSA,M,3,12,25,29,31,02,21,30,,,,,,2.3,1.5,1.8*3D
$GPRMC,094854.000,A,5034.4285,N,00227.5970,W,8.74,196.85,161011,,,A*73
$GPGGA,094855.000,5034.4262,N,00227.5980,W,1,07,1.5,1.91,M,48.8,M,,0000*76
$GPGSA,M,3,12,25,29,31,02,21,30,,,,,,2.3,1.5,1.8*3D
$GPRMC,094855.000,A,5034.4262,N,00227.5980,W,8.20,193.55,161011,,,A*7D
$GPGGA,094856.000,5034.4240,N,00227.5988,W,1,07,1.5,1.76,M,48.8,M,,0000*74
$GPGSA,M,3,12,25,29,31,02,21,30,,,,,,2.3,1.5,1.8*3D
$GPGSV,3,1,12,29,78,086,37,30,77,300,38,31,65,264,40,25,46,098,27*79
$GPGSV,3,2,12,21,20,167,45,02,16,040,34,12,14,099,33,23,10,331,37*7E
$GPGSV,3,3,12,14,04,211,48,10,03,023,37,16,02,282,45,05,02,074,33*7A
$GPRMC,094856.000,A,5034.4240,N,00227.5988,W,8.09,192.52,161011,,,A*7B
$GPGGA,094857.000,5034.4218,N,00227.5996,W,1,07,1.5,1.65,M,48.8,M,,0000*75
$GPGSA,M,3,12,25,29,31,02,21,30,,,,,,2.3,1.5,1.8*3D
$GPRMC,094857.000,A,5034.4218,N,00227.5996,W,7.92,191.61,161011,,,A*76
$GPGGA,094858.000,5034.4197,N,00227.6005,W,1,07,1.5,1.37,M,48.8,M,,0000*79
$GPGSA,M,3,12,25,29,31,02,21,30,,,,,,2.3,1.5,1.8*3D
$GPRMC,094858.000,A,5034.4197,N,00227.6005,W,7.56,198.29,161011,,,A*70
$GPGGA,094859.000,5034.4178,N,00227.6016,W,1,07,1.5,1.24,M,48.8,M,,0000*79
$GPGSA,M,3,12,25,29,31,02,21,30,,,,,,2.3,1.5,1.8*3D
$GPRMC,094859.000,A,5034.4178,N,00227.6016,W,7.43,200.00,161011,,,A*7F
$GPGGA,094900.000,5034.4158,N,00227.6028,W,1,07,1.5,1.12,M,48.8,M,,0000*7E
$GPGSA,M,3,12,25,29,31,02,21,30,,,,,,2.3,1.5,1.8*3D
$GPRMC,094900.000,A,5034.4158,N,00227.6028,W,7.42,200.59,161011,,,A*70
$GPGGA,094901.000,5034.4138,N,00227.6034,W,1,07,1.5,1.34,M,48.8,M,,0000*70
$GPGSA,M,3,12,25,29,31,02,21,30,,,,,,2.3,1.5,1.8*3D
$GPGSV,3,1,12,29,78,086,37,30,77,300,38,31,65,264,40,25,46,098,35*7A
$GPGSV,3,2,12,21,20,167,36,02,16,040,35,12,14,099,35,23,10,331,38*72
$GPGSV,3,3,12,14,04,211,49,10,03,023,24,16,02,282,45,05,02,074,31*7B
$GPRMC,094901.000,A,5034.4138,N,00227.6034,W,7.16,191.63,161011,,,A*79
$GPGGA,094902.000,5034.4119,N,00227.6040,W,1,07,1.5,1.25,M,48.8,M,,0000*73
$GPGSA,M,3,12,25,29,31,02,21,30,,,,,,2.3,1.5,1.8*3D
$GPRMC,094902.000,A,5034.4119,N,00227.6040,W,6.75,189.51,161011,,,A*76
$GPGGA,094903.000,5034.4101,N,00227.6045,W,1,07,1.5,1.00,M,48.8,M,,0000*79
$GPGSA,M,3,12,25,29,31,02,21,30,,,,,,2.3,1.5,1.8*3D
$GPRMC,094903.000,A,5034.4101,N,00227.6045,W,6.94,190.95,161011,,,A*74
$GPGGA,094904.000,5034.4082,N,00227.6052,W,1,07,1.5,0.72,M,48.8,M,,0000*76
$GPGSA,M,3,12,25,29,31,02,21,30,,,,,,2.3,1.5,1.8*3D
$GPRMC,094904.000,A,5034.4082,N,00227.6052,W,6.41,190.52,161011,,,A*7C
$GPGGA,094905.000,5034.4065,N,00227.6057,W,1,07,1.5,0.65,M,48.8,M,,0000*7D
$GPGSA,M,3,12,25,29,31,02,21,30,,,,,,2.3,1.5,1.8*3D
$GPRMC,094905.000,A,5034.4065,N,00227.6057,W,5.85,190.21,161011,,,A*7E
$GPGGA,094906.000,5034.4049,N,00227.6060,W,1,07,1.5,0.69,M,48.8,M,,0000*78
$GPGSA,M,3,12,25,29,31,02,21,30,,,,,,2.3,1.5,1.8*3D
$GPGSV,3,1,12,29,78,086,37,30,77,300,39,31,65,264,41,25,46,098,35*7A
$GPGSV,3,2,12,21,20,167,43,02,16,040,33,12,14,099,35,23,10,331,38*76
$GPGSV,3,3,12,14,04,211,48,10,03,023,30,16,02,282,46,05,02,074,37*7A
$GPRMC,094906.000,A,5034.4049,N,00227.6060,W,5.95,185.78,161011,,,A*7E
$GPGGA,094907.000,5034.4032,N,00227.6062,W,1,07,1.5,0.50,M,48.8,M,,0000*7D
$GPGSA,M,3,12,25,29,31,02,21,30,,,,,,2.3,1.5,1.8*3D
$GPRMC,094907.000,A,5034.4032,N,00227.6062,W,6.09,185.67,161011,,,A*79
$GPGGA,094908.000,5034.4014,N,00227.6066,W,1,07,1.5,0.32,M,48.8,M,,0000*76
$GPGSA,M,3,12,25,29,31,02,21,30,,,,,,2.3,1.5,1.8*3D
$GPRMC,094908.000,A,5034.4014,N,00227.6066,W,6.48,187.86,161011,,,A*7E
$GPGGA,094909.000,5034.3996,N,00227.6066,W,1,07,1.5,0.26,M,48.8,M,,0000*76
$GPGSA,M,3,12,25,29,31,02,21,30,,,,,,2.3,1.5,1.8*3D
$GPRMC,094909.000,A,5034.3996,N,00227.6066,W,6.78,176.70,161011,,,A*7F
$GPGGA,094910.000,5034.3974,N,00227.6062,W,1,07,1.5,0.88,M,48.8,M,,0000*72
$GPGSA,M,3,12,25,29,31,02,21,30,,,,,,2.3,1.5,1.8*3D
$GPRMC,094910.000,A,5034.3974,N,00227.6062,W,7.37,177.48,161011,,,A*7F
$GPGGA,094911.000,5034.3952,N,00227.6063,W,1,07,1.5,0.97,M,48.8,M,,0000*78
$GPGSA,M,3,12,25,29,31,02,21,30,,,,,,2.3,1.5,1.8*3D
$GPGSV,3,1,12,29,78,086,37,30,77,300,38,31,65,264,42,25,46,098,37*7A
$GPGSV,3,2,12,21,20,167,43,02,16,040,33,12,14,099,27,23,10,331,31*7C
$GPGSV,3,3,12,14,04,211,48,10,03,023,39,16,02,282,46,05,02,074,38*7C
$GPRMC,094911.000,A,5034.3952,N,00227.6063,W,7.81,181.55,161011,,,A*73
$GPGGA,094912.000,5034.3928,N,00227.6064,W,1,07,1.5,1.58,M,48.8,M,,0000*73
$GPGSA,M,3,12,25,29,31,02,21,30,,,,,,2.3,1.5,1.8*3D
$GPRMC,094912.000,A,5034.3928,N,00227.6064,W,7.74,188.34,161011,,,A*7E
$GPGGA,094913.000,5034.3905,N,00227.6068,W,1,05,2.3,1.68,M,48.8,M,,0000*75
$GPGSA,M,3,29,31,02,21,30,,,,,,,,3.3,2.3,2.3*35
$GPRMC,094913.000,A,5034.3905,N,00227.6068,W,7.95,184.12,161011,,,A*7B
$GPGGA,094914.000,5034.3882,N,00227.6071,W,1,07,1.5,1.66,M,48.8,M,,0000*7D
$GPGSA,M,3,25,12,29,31,02,21,30,,,,,,2.3,1.5,1.8*3D
$GPRMC,094914.000,A,5034.3882,N,00227.6071,W,8.62,182.61,161011,,,A*7F
$GPGGA,094915.000,5034.3856,N,00227.6070,W,1,07,1.5,1.97,M,48.8,M,,0000*7A
$GPGSA,M,3,25,12,29,31,02,21,30,,,,,,2.3,1.5,1.8*3D
$GPRMC,094915.000,A,5034.3856,N,00227.6070,W,8.89,178.54,161011,,,A*70
$GPGGA,094916.000,5034.3831,N,00227.6068,W,1,07,1.5,2.26,M,48.8,M,,0000*78
$GPGSA,M,3,25,12,29,31,02,21,30,,,,,,2.3,1.5,1.8*3D
$GPGSV,3,1,12,29,78,086,37,30,77,300,38,31,65,264,41,25,46,098,36*78
$GPGSV,3,2,12,21,20,167,44,02,16,040,41,12,14,099,30,23,10,331,31*78
$GPGSV,3,3,12,14,04,211,49,10,03,023,37,16,02,282,46,05,02,074,35*7E
$GPRMC,094916.000,A,5034.3831,N,00227.6068,W,8.71,184.04,161011,,,A*7A
$GPGGA,094917.000,5034.3806,N,00227.6069,W,1,07,1.5,2.34,M,48.8,M,,0000*7F
$GPGSA,M,3,25,12,29,31,02,21,30,,,,,,2.3,1.5,1.8*3D
$GPRMC,094917.000,A,5034.3806,N,00227.6069,W,8.80,181.10,161011,,,A*70
$GPGGA,094918.000,5034.3781,N,00227.6072,W,1,07,1.5,2.35,M,48.8,M,,0000*7B
$GPGSA,M,3,25,12,29,31,02,21,30,,,,,,2.3,1.5,1.8*3D
$GPRMC,094918.000,A,5034.3781,N,00227.6072,W,9.34,188.89,161011,,,A*72
$GPGGA,094919.000,5034.3755,N,00227.6079,W,1,07,1.5,2.12,M,48.8,M,,0000*7D
$GPGSA,M,3,25,12,29,31,02,21,30,,,,,,2.3,1.5,1.8*3D
$GPRMC,094919.000,A,5034.3755,N,00227.6079,W,9.44,188.91,161011,,,A*7F
$GPGGA,094920.000,5034.3729,N,00227.6088,W,1,07,1.5,2.25,M,48.8,M,,0000*76
$GPGSA,M,3,25,12,29,31,02,21,30,,,,,,2.3,1.5,1.8*3D
$GPRMC,094920.000,A,5034.3729,N,00227.6088,W,9.56,195.88,161011,,,A*77
$GPGGA,094921.000,5034.3703,N,00227.6100,W,1,07,1.5,2.26,M,48.8,M,,0000*7D
$GPGSA,M,3,25,12,29,31,02,21,30,,,,,,2.3,1.5,1.8*3D
$GPGSV,3,1,12,29,78,086,29,30,77,300,38,31,65,264,41,25,46,098,29*79
$GPGSV,3,2,12,21,20,167,45,02,16,040,34,12,14,099,32,23,10,331,35*7D
$GPGSV,3,3,12,14,04,211,49,10,03,023,39,16,02,282,42,05,02,074,30*71
$GPRMC,094921.000,A,5034.3703,N,00227.6100,W,8.78,197.31,161011,,,A*72
$GPGGA,094922.000,5034.3680,N,00227.6109,W,1,07,1.5,2.63,M,48.8,M,,0000*7C
$GPGSA,M,3,25,12,29,31,02,21,30,,,,,,2.3,1.5,1.8*3D
$GPRMC,094922.000,A,5034.3680,N,00227.6109,W,8.38,198.60,161011,,,A*7D
$GPGGA,094923.000,5034.3660,N,00227.6117,W,1,07,1.5,2.61,M,48.8,M,,0000*7E
$GPGSA,M,3,25,12,29,31,02,21,30,,,,,,2.3,1.5,1.8*3D
$GPRMC,094923.000,A,5034.3660,N,00227.6117,W,6.37,187.95,161011,,,A*78
$GPGGA,094924.000,5034.3643,N,00227.6118,W,1,07,1.5,3.00,M,48.8,M,,0000*71
$GPGSA,M,3,25,12,29,31,02,21,30,,,,,,2.3,1.5,1.8*3D
$GPRMC,094924.000,A,5034.3643,N,00227.6118,W,5.44,183.66,161011,,,A*7E
$GPGGA,094925.000,5034.3629,N,00227.6118,W,1,07,1.5,3.10,M,48.8,M,,0000*7D
$GPGSA,M,3,25,12,29,31,02,21,30,,,,,,2.3,1.5,1.8*3D
$GPRMC,094925.000,A,5034.3629,N,00227.6118,W,4.49,187.18,161011,,,A*72
$GPGGA,094926.000,5034.3616,N,00227.6121,W,1,07,1.5,3.15,M,48.8,M,,0000*7D
$GPGSA,M,3,25,12,29,31,02,21,30,,,,,,2.3,1.5,1.8*3D
$GPGSV,3,1,12,29,78,086,41,30,77,300,38,31,65,264,39,25,46,098,34*74
$GPGSV,3,2,12,21,20,167,40,02,16,040,36,12,14,099,33,23,10,331,35*7B
$GPGSV,3,3,12,14,04,211,47,10,03,023,35,16,02,282,42,05,02,074,36*75
$GPRMC,094926.000,A,5034.3616,N,00227.6121,W,4.30,190.29,161011,,,A*7D
$GPGGA,094927.000,5034.3605,N,00227.6124,W,1,07,1.5,3.11,M,48.8,M,,0000*7F
$GPGSA,M,3,25,12,29,31,02,21,30,,,,,,2.3,1.5,1.8*3D
$GPRMC,094927.000,A,5034.3605,N,00227.6124,W,4.00,189.25,161011,,,A*7C
$GPGGA,094928.000,5034.3594,N,00227.6129,W,1,07,1.5,3.02,M,48.8,M,,0000*74
$GPGSA,M,3,25,12,29,31,02,21,30,,,,,,2.3,1.5,1.8*3D
$GPRMC,094928.000,A,5034.3594,N,00227.6129,W,3.99,201.23,161011,,,A*77
$GPGGA,094929.000,5034.3584,N,00227.6135,W,1,07,1.5,2.96,M,48.8,M,,0000*75
$GPGSA,M,3,25,12,29,31,02,21,30,,,,,,2.3,1.5,1.8*3D
$GPRMC,094929.000,A,5034.3584,N,00227.6135,W,3.76,198.15,161011,,,A*7D
$GPGGA,094930.000,5034.3573,N,00227.6139,W,1,07,1.5,2.92,M,48.8,M,,0000*7D
$GPGSA,M,3,25,12,29,31,02,21,30,,,,,,2.3,1.5,1.8*3D
$GPRMC,094930.000,A,5034.3573,N,00227.6139,W,3.92,192.85,161011,,,A*78
$GPGGA,094931.000,5034.3562,N,00227.6142,W,1,07,1.5,2.97,M,48.8,M,,0000*75
$GPGSA,M,3,25,12,29,31,02,21,30,,,,,,2.3,1.5,1.8*3D
$GPGSV,3,1,12,29,78,086,37,30,77,300,39,31,65,264,40,25,46,098,38*76
$GPGSV,3,2,12,21,20,167,42,02,16,040,40,12,14,099,38,23,10,331,37*71
$GPGSV,3,3,12,14,04,211,46,10,03,023,35,16,02,282,44,05,02,074,36*72
$GPRMC,094931.000,A,5034.3562,N,00227.6142,W,4.01,191.57,161011,,,A*74
$GPGGA,094932.000,5034.3551,N,00227.6145,W,1,07,1.5,2.98,M,48.8,M,,0000*7E
$GPGSA,M,3,25,12,29,31,02,21,30,,,,,,2.3,1.5,1.8*3D
$GPRMC,094932.000,A,5034.3551,N,00227.6145,W,3.96,190.32,161011,,,A*7B
$GPGGA,094933.000,5034.3541,N,00227.6148,W,1,07,1.5,3.04,M,48.8,M,,0000*77
$GPGSA,M,3,25,12,29,31,02,21,30,,,,,,2.3,1.5,1.8*3D
$GPRMC,094933.000,A,5034.3541,N,00227.6148,W,3.67,201.57,161011,,,A*70
$GPGGA,094934.000,5034.3531,N,00227.6155,W,1,07,1.5,3.12,M,48.8,M,,0000*7C
$GPGSA,M,3,25,12,29,31,02,21,30,,,,,,2.3,1.5,1.8*3D
$GPRMC,094934.000,A,5034.3531,N,00227.6155,W,3.68,207.79,161011,,,A*79
$GPGGA,094935.000,5034.3522,N,00227.6163,W,1,07,1.5,3.18,M,48.8,M,,0000*70
$GPGSA,M,3,25,12,29,31,02,21,30,,,,,,2.3,1.5,1.8*3D
$GPRMC,094935.000,A,5034.3522,N,00227.6163,W,3.80,207.28,161011,,,A*7D
$GPGGA,094936.000,5034.3512,N,00227.6172,W,1,07,1.5,3.13,M,48.8,M,,0000*7B
$GPGSA,M,3,25,12,29,31,02,21,30,,,,,,2.3,1.5,1.8*3D
$GPGSV,3,1,12,29,78,086,38,30,77,300,39,31,65,264,38,25,46,098,42*7B
