$GPGGA,102001.000,5034.7174,N,00227.5215,W,1,07,1.3,4.59,M,48.8,M,,0000*76
$GPGSA,M,3,25,23,29,31,21,30,16,,,,,,2.0,1.3,1.5*32
$GPGSV,3,1,12,30,87,101,40,29,65,064,38,31,61,230,40,21,33,163,41*73
$GPGSV,3,2,12,25,33,107,39,16,14,289,37,23,13,319,32,06,09,243,39*7C
$GPGSV,3,3,12,05,09,063,41,02,06,034,41,13,05,343,,12,03,107,32*74
$GPRMC,102001.000,A,5034.7174,N,00227.5215,W,5.12,29.52,161011,,,A*41
$GPGGA,102002.000,5034.7187,N,00227.5204,W,1,07,1.3,4.75,M,48.8,M,,0000*77
$GPGSA,M,3,25,23,29,31,21,30,16,,,,,,2.0,1.3,1.5*32
$GPRMC,102002.000,A,5034.7187,N,00227.5204,W,4.98,33.07,161011,,,A*46
$GPGGA,102003.000,5034.7200,N,00227.5191,W,1,07,1.3,4.61,M,48.8,M,,0000*70
$GPGSA,M,3,25,23,29,31,21,30,16,,,,,,2.0,1.3,1.5*32
$GPRMC,102003.000,A,5034.7200,N,00227.5191,W,5.94,27.38,161011,,,A*40
$GPGGA,102004.000,5034.7216,N,00227.5181,W,1,07,1.3,4.53,M,48.8,M,,0000*70
$GPGSA,M,3,25,23,29,31,21,30,16,,,,,,2.0,1.3,1.5*32
$GPRMC,102004.000,A,5034.7216,N,00227.5181,W,6.53,19.60,161011,,,A*49
$GPGGA,102005.000,5034.7233,N,00227.5170,W,1,07,1.3,4.43,M,48.8,M,,0000*79
$GPGSA,M,3,25,23,29,31,21,30,16,,,,,,2.0,1.3,1.5*32
$GPRMC,102005.000,A,5034.7233,N,00227.5170,W,6.92,23.64,161011,,,A*41
$GPGGA,102006.000,5034.7249,N,00227.5162,W,1,07,1.3,4.52,M,48.8,M,,0000*74
$GPGSA,M,3,25,23,29,31,21,30,16,,,,,,2.0,1.3,1.5*32
$GPGSV,3,1,12,30,87,102,39,29,65,064,38,31,61,230,41,21,33,163,40*7E
$GPGSV,3,2,12,25,33,107,38,16,14,289,37,23,13,319,38,06,09,243,46*7F
$GPGSV,3,3,12,05,09,063,42,02,06,034,35,13,05,342,,12,03,107,37*70
$GPRMC,102006.000,A,5034.7249,N,00227.5162,W,6.33,16.73,161011,,,A*47
$GPGGA,102007.000,5034.7265,N,00227.5154,W,1,07,1.3,4.35,M,48.8,M,,0000*7F
$GPGSA,M,3,25,23,29,31,21,30,16,,,,,,2.0,1.3,1.5*32
$GPRMC,102007.000,A,5034.7265,N,00227.5154,W,6.50,18.64,161011,,,A*40
$GPGGA,102008.000,5034.7280,N,00227.5147,W,1,07,1.3,4.54,M,48.8,M,,0000*7E
$GPGSA,M,3,25,23,29,31,21,30,16,,,,,,2.0,1.3,1.5*32
$GPRMC,102008.000,A,5034.7280,N,00227.5147,W,5.58,22.35,161011,,,A*40
$GPGGA,102009.000,5034.7294,N,00227.5138,W,1,07,1.3,4.23,M,48.8,M,,0000*72
$GPGSA,M,3,25,23,29,31,21,30,16,,,,,,2.0,1.3,1.5*32
$GPRMC,102009.000,A,5034.7294,N,00227.5138,W,6.10,18.99,161011,,,A*4C
$GPGGA,102010.000,5034.7310,N,00227.5129,W,1,07,1.3,4.35,M,48.8,M,,0000*70
$GPGSA,M,3,25,23,29,31,21,30,16,,,,,,2.0,1.3,1.5*32
$GPRMC,102010.000,A,5034.7310,N,00227.5129,W,6.32,20.95,161011,,,A*4E
$GPGGA,102011.000,5034.7326,N,00227.5119,W,1,07,1.3,4.44,M,48.8,M,,0000*71
$GPGSA,M,3,25,23,29,31,21,30,16,,,,,,2.0,1.3,1.5*32
$GPGSV,3,1,12,30,87,102,39,29,65,064,38,31,61,230,41,21,33,163,39*70
$GPGSV,3,2,12,25,33,107,39,16,14,289,41,23,13,319,35,06,09,243,41*75
$GPGSV,3,3,12,05,09,063,42,02,06,034,42,13,05,342,,12,03,107,35*72
$GPRMC,102011.000,A,5034.7326,N,00227.5119,W,5.97,26.46,161011,,,A*4D
$GPGGA,102012.000,5034.7341,N,00227.5107,W,1,07,1.3,4.35,M,48.8,M,,0000*7A
$GPGSA,M,3,25,23,29,31,21,30,16,,,,,,2.0,1.3,1.5*32
$GPRMC,102012.000,A,5034.7341,N,00227.5107,W,6.84,27.00,161011,,,A*42
$GPGGA,102013.000,5034.7358,N,00227.5093,W,1,07,1.3,4.40,M,48.8,M,,0000*7D
$GPGSA,M,3,25,23,29,31,21,30,16,,,,,,2.0,1.3,1.5*32
$GPRMC,102013.000,A,5034.7358,N,00227.5093,W,6.80,28.19,161011,,,A*44
$GPGGA,102014.000,5034.7375,N,00227.5078,W,1,07,1.3,4.38,M,48.8,M,,0000*7F
$GPGSA,M,3,25,23,29,31,21,30,16,,,,,,2.0,1.3,1.5*32
$GPRMC,102014.000,A,5034.7375,N,00227.5078,W,6.95,29.28,161011,,,A*4E
$GPGGA,102015.000,5034.7392,N,00227.5063,W,1,07,1.3,4.25,M,48.8,M,,0000*71
$GPGSA,M,3,25,23,29,31,21,30,16,,,,,,2.0,1.3,1.5*32
$GPRMC,102015.000,A,5034.7392,N,00227.5063,W,7.14,27.12,161011,,,A*43
$GPGGA,102016.000,5034.7409,N,00227.5048,W,1,07,1.3,4.37,M,48.8,M,,0000*7D
$GPGSA,M,3,25,23,29,31,21,30,16,,,,,,2.0,1.3,1.5*32
$GPGSV,3,1,12,30,87,103,39,29,65,064,29,31,61,230,41,21,33,163,39*71
$GPGSV,3,2,12,25,33,107,38,16,14,289,41,23,13,319,36,06,09,243,43*75
$GPGSV,3,3,12,05,09,063,42,02,06,034,41,13,05,342,,12,03,107,33*77
$GPRMC,102016.000,A,5034.7409,N,00227.5048,W,6.97,31.61,161011,,,A*45
$GPGGA,102017.000,5034.7425,N,00227.5032,W,1,07,1.3,4.45,M,48.8,M,,0000*7A
$GPGSA,M,3,25,23,29,31,21,30,16,,,,,,2.0,1.3,1.5*32
$GPRMC,102017.000,A,5034.7425,N,00227.5032,W,6.56,34.33,161011,,,A*48
$GPGGA,102018.000,5034.7439,N,00227.5017,W,1,07,1.3,4.60,M,48.8,M,,0000*78
$GPGSA,M,3,25,23,29,31,21,30,16,,,,,,2.0,1.3,1.5*32
$GPRMC,102018.000,A,5034.7439,N,00227.5017,W,6.25,33.66,161011,,,A*4E
$GPGGA,102019.000,5034.7452,N,00227.5003,W,1,07,1.3,4.70,M,48.8,M,,0000*70
$GPGSA,M,3,25,23,29,31,21,30,16,,,,,,2.0,1.3,1.5*32
$GPRMC,102019.000,A,5034.7452,N,00227.5003,W,5.37,35.27,161011,,,A*44
$GPGGA,102020.000,5034.7463,N,00227.4990,W,1,07,1.3,4.94,M,48.8,M,,0000*70
$GPGSA,M,3,25,23,29,31,21,30,16,,,,,,2.0,1.3,1.5*32
$GPRMC,102020.000,A,5034.7463,N,00227.4990,W,4.59,37.10,161011,,,A*41
$GPGGA,102021.000,5034.7469,N,00227.4980,W,1,07,1.3,4.97,M,48.8,M,,0000*79
$GPGSA,M,3,25,23,29,31,21,30,16,,,,,,2.0,1.3,1.5*32
$GPGSV,3,1,12,30,87,103,39,29,65,064,36,31,61,230,36,21,33,163,48*79
$GPGSV,3,2,12,25,33,107,47,16,14,289,35,23,13,319,33,06,09,243,37*78
$GPGSV,3,3,12,05,09,063,35,02,06,034,30,13,05,342,,12,03,107,42*77
$GPRMC,102021.000,A,5034.7469,N,00227.4980,W,2.07,49.65,161011,,,A*4D
$GPGGA,102022.000,5034.7471,N,00227.4973,W,1,07,1.3,4.87,M,48.8,M,,0000*7E
$GPGSA,M,3,25,23,29,31,21,30,16,,,,,,2.0,1.3,1.5*32
$GPRMC,102022.000,A,5034.7471,N,00227.4973,W,1.51,72.29,161011,,,A*4B
$GPGGA,102023.000,5034.7473,N,00227.4967,W,1,06,1.4,4.70,M,48.8,M,,0000*76
$GPGSA,M,3,25,23,29,31,21,30,,,,,,,2.1,1.4,1.6*30
$GPRMC,102023.000,A,5034.7473,N,00227.4967,W,1.66,59.53,161011,,,A*4D
$GPGGA,102024.000,5034.7477,N,00227.4959,W,1,06,1.4,4.65,M,48.8,M,,0000*7C
$GPGSA,M,3,25,23,29,31,21,30,,,,,,,2.1,1.4,1.6*30
$GPRMC,102024.000,A,5034.7477,N,00227.4959,W,3.14,39.84,161011,,,A*48
$GPGGA,102025.000,5034.7484,N,00227.4949,W,1,07,1.3,4.65,M,48.8,M,,0000*76
$GPGSA,M,3,25,23,29,31,21,30,16,,,,,,2.0,1.3,1.5*32
$GPRMC,102025.000,A,5034.7484,N,00227.4949,W,3.57,36.45,161011,,,A*41
$GPGGA,102026.000,5034.7490,N,00227.4941,W,1,07,1.3,4.63,M,48.8,M,,0000*7E
$GPGSA,M,3,25,23,29,31,21,30,16,,,,,,2.0,1.3,1.5*32
$GPGSV,3,1,12,30,87,103,39,29,65,064,38,31,61,230,38,21,33,163,45*74
$GPGSV,3,2,12,25,33,107,41,16,14,289,27,23,13,319,38,06,09,243,26*76
$GPGSV,3,3,12,05,09,063,33,02,06,034,35,13,05,342,,12,03,107,39*78
$GPRMC,102026.000,A,5034.7490,N,00227.4941,W,2.35,43.90,161011,,,A*40
$GPGGA,102027.000,5034.7494,N,00227.4935,W,1,07,1.3,4.42,M,48.8,M,,0000*7B
$GPGSA,M,3,25,23,29,31,21,30,16,,,,,,2.0,1.3,1.5*32
$GPRMC,102027.000,A,5034.7494,N,00227.4935,W,1.93,44.81,161011,,,A*4E
$GPGGA,102028.000,5034.7500,N,00227.4928,W,1,07,1.3,4.40,M,48.8,M,,0000*76
$GPGSA,M,3,25,23,29,31,21,30,16,,,,,,2.0,1.3,1.5*32
$GPRMC,102028.000,A,5034.7500,N,00227.4928,W,3.39,27.90,161011,,,A*46
$GPGGA,102029.000,5034.7510,N,00227.4921,W,1,07,1.3,4.46,M,48.8,M,,0000*79
$GPGSA,M,3,25,23,29,31,21,30,16,,,,,,2.0,1.3,1.5*32
$GPRMC,102029.000,A,5034.7510,N,00227.4921,W,4.78,24.14,161011,,,A*42
$GPGGA,102030.000,5034.7524,N,00227.4911,W,1,07,1.3,4.61,M,48.8,M,,0000*70
$GPGSA,M,3,25,23,29,31,21,30,16,,,,,,2.0,1.3,1.5*32
$GPRMC,102030.000,A,5034.7524,N,00227.4911,W,5.65,25.37,161011,,,A*43
$GPGGA,102031.000,5034.7539,N,00227.4898,W,1,07,1.3,4.68,M,48.8,M,,0000*74
$GPGSA,M,3,25,23,29,31,21,30,16,,,,,,2.0,1.3,1.5*32
$GPGSV,3,1,12,30,87,103,39,29,65,064,37,31,61,230,40,21,33,163,44*75
$GPGSV,3,2,12,25,33,107,40,16,14,289,35,23,13,319,37,06,09,243,42*79
$GPGSV,3,3,12,05,09,063,39,02,06,034,40,13,05,342,,12,03,107,36*7F
$GPRMC,102031.000,A,5034.7539,N,00227.4898,W,6.63,32.89,161011,,,A*48
$GPGGA,102032.000,5034.7553,N,00227.4880,W,1,07,1.3,4.68,M,48.8,M,,0000*72
$GPGSA,M,3,25,23,29,31,21,30,16,,,,,,2.0,1.3,1.5*32
$GPRMC,102032.000,A,5034.7553,N,00227.4880,W,6.82,41.92,161011,,,A*4F
$GPGGA,102033.000,5034.7568,N,00227.4862,W,1,07,1.3,5.04,M,48.8,M,,0000*7C
$GPGSA,M,3,25,23,29,31,21,30,16,,,,,,2.0,1.3,1.5*32
$GPRMC,102033.000,A,5034.7568,N,00227.4862,W,6.67,35.71,161011,,,A*4F
$GPGGA,102034.000,5034.7584,N,00227.4840,W,1,07,1.3,5.11,M,48.8,M,,0000*7D
$GPGSA,M,3,25,23,29,31,21,30,16,,,,,,2.0,1.3,1.5*32
$GPRMC,102034.000,A,5034.7584,N,00227.4840,W,8.48,46.20,161011,,,A*49
$GPGGA,102035.000,5034.7600,N,00227.4813,W,1,07,1.3,5.36,M,48.8,M,,0000*70
$GPGSA,M,3,25,23,29,31,21,30,16,,,,,,2.0,1.3,1.5*32
$GPRMC,102035.000,A,5034.7600,N,00227.4813,W,8.53,49.69,161011,,,A*49
$GPGGA,102036.000,5034.7614,N,00227.4785,W,1,07,1.3,5.45,M,48.8,M,,0000*72
$GPGSA,M,3,25,23,29,31,21,30,16,,,,,,2.0,1.3,1.5*32
$GPGSV,3,1,12,30,87,103,37,29,65,064,34,31,61,230,40,21,33,163,40*7C
$GPGSV,3,2,12,25,33,107,40,16,14,289,40,23,13,319,40,06,09,243,42*7B
$GPGSV,3,3,12,05,09,063,37,02,06,034,37,13,05,342,,12,03,107,37*70
$GPRMC,102036.000,A,5034.7614,N,00227.4785,W,7.69,54.50,161011,,,A*4F
$GPGGA,102037.000,5034.7626,N,00227.4759,W,1,07,1.3,5.40,M,48.8,M,,0000*76
$GPGSA,M,3,25,23,29,31,21,30,16,,,,,,2.0,1.3,1.5*32
$GPRMC,102037.000,A,5034.7626,N,00227.4759,W,7.06,55.30,161011,,,A*40
$GPGGA,102038.000,5034.7636,N,00227.4739,W,1,07,1.3,5.45,M,48.8,M,,0000*7B
$GPGSA,M,3,25,23,29,31,21,30,16,,,,,,2.0,1.3,1.5*32
$GPRMC,102038.000,A,5034.7636,N,00227.4739,W,5.17,45.61,161011,,,A*4F
$GPGGA,102039.000,5034.7645,N,00227.4725,W,1,07,1.3,5.54,M,48.8,M,,0000*73
$GPGSA,M,3,25,23,29,31,21,30,16,,,,,,2.0,1.3,1.5*32
$GPRMC,102039.000,A,5034.7645,N,00227.4725,W,4.11,44.77,161011,,,A*46
$GPGGA,102040.000,5034.7653,N,00227.4714,W,1,07,1.3,5.56,M,48.8,M,,0000*7A
$GPGSA,M,3,25,23,29,31,21,30,16,,,,,,2.0,1.3,1.5*32
$GPRMC,102040.000,A,5034.7653,N,00227.4714,W,3.65,35.51,161011,,,A*4B
$GPGGA,102041.000,5034.7661,N,00227.4706,W,1,07,1.3,5.49,M,48.8,M,,0000*77
$GPGSA,M,3,25,23,29,31,21,30,16,,,,,,2.0,1.3,1.5*32
$GPGSV,3,1,12,30,87,103,37,29,65,064,38,31,61,230,40,21,33,163,41*71
$GPGSV,3,2,12,25,33,107,36,16,14,289,33,23,13,319,33,06,09,243,38*77
$GPGSV,3,3,12,05,09,063,36,02,06,034,41,13,05,342,,12,03,107,33*74
$GPRMC,102041.000,A,5034.7661,N,00227.4706,W,3.73,35.25,161011,,,A*4C
$GPGGA,102042.000,5034.7672,N,00227.4698,W,1,07,1.3,5.62,M,48.8,M,,0000*79
$GPGSA,M,3,25,23,29,31,21,30,16,,,,,,2.0,1.3,1.5*32
$GPRMC,102042.000,A,5034.7672,N,00227.4698,W,4.55,21.82,161011,,,A*40
$GPGGA,102043.000,5034.7684,N,00227.4690,W,1,07,1.3,5.81,M,48.8,M,,0000*74
$GPGSA,M,3,25,23,29,31,21,30,16,,,,,,2.0,1.3,1.5*32
$GPRMC,102043.000,A,5034.7684,N,00227.4690,W,5.23,26.71,161011,,,A*4B
$GPGGA,102044.000,5034.7696,N,00227.4680,W,1,07,1.3,5.98,M,48.8,M,,0000*79
$GPGSA,M,3,25,23,29,31,21,30,16,,,,,,2.0,1.3,1.5*32
$GPRMC,102044.000,A,5034.7696,N,00227.4680,W,5.32,29.23,161011,,,A*46
$GPGGA,102045.000,5034.7708,N,00227.4668,W,1,07,1.3,5.92,M,48.8,M,,0000*72
$GPGSA,M,3,25,23,29,31,21,30,16,,,,,,2.0,1.3,1.5*32
$GPRMC,102045.000,A,5034.7708,N,00227.4668,W,5.48,36.08,161011,,,A*4D
$GPGGA,102046.000,5034.7720,N,00227.4653,W,1,07,1.3,5.91,M,48.8,M,,0000*70
$GPGSA,M,3,25,23,29,31,21,30,16,,,,,,2.0,1.3,1.5*32
$GPGSV,3,1,12,30,86,104,40,29,65,064,37,31,61,230,41,21,34,163,42*7D
$GPGSV,3,2,12,25,33,108,40,16,14,289,27,23,13,318,21,06,09,243,37*71
$GPGSV,3,3,12,05,09,063,36,02,06,033,39,13,05,342,,12,02,107,33*7D
$GPRMC,102046.000,A,5034.7720,N,00227.4653,W,5.27,43.12,161011,,,A*4C
$GPGGA,102047.000,5034.7730,N,00227.4639,W,1,06,1.4,5.74,M,48.8,M,,0000*71
$GPGSA,M,3,25,23,29,31,21,30,,,,,,,2.1,1.4,1.6*30
$GPRMC,102047.000,A,5034.7730,N,00227.4639,W,4.88,37.48,161011,,,A*48
$GPGGA,102048.000,5034.7744,N,00227.4626,W,1,06,1.4,5.75,M,48.8,M,,0000*72
$GPGSA,M,3,25,23,29,31,21,30,,,,,,,2.1,1.4,1.6*30
$GPRMC,102048.000,A,5034.7744,N,00227.4626,W,6.03,28.57,161011,,,A*4B
$GPGGA,102049.000,5034.7759,N,00227.4611,W,1,06,1.4,5.70,M,48.8,M,,0000*7E
$GPGSA,M,3,25,23,29,31,21,30,,,,,,,2.1,1.4,1.6*30
$GPRMC,102049.000,A,5034.7759,N,00227.4611,W,6.70,33.68,161011,,,A*40
$GPGGA,102050.000,5034.7775,N,00227.4592,W,1,06,1.4,5.36,M,48.8,M,,0000*72
$GPGSA,M,3,25,23,29,31,21,30,,,,,,,2.1,1.4,1.6*30
$GPRMC,102050.000,A,5034.7775,N,00227.4592,W,6.89,37.43,161011,,,A*45
$GPGGA,102051.000,5034.7790,N,00227.4576,W,1,06,1.4,4.95,M,48.8,M,,0000*7A
$GPGSA,M,3,25,23,29,31,21,30,,,,,,,2.1,1.4,1.6*30
$GPGSV,3,1,12,30,86,104,38,29,65,064,35,31,61,230,41,21,34,163,42*70
$GPGSV,3,2,12,25,33,108,38,16,14,289,,23,13,318,34,06,09,243,44*7B
$GPGSV,3,3,12,05,09,063,41,02,06,033,39,13,05,342,28,12,02,107,35*71
$GPRMC,102051.000,A,5034.7790,N,00227.4576,W,6.94,32.46,161011,,,A*49
$GPGGA,102052.000,5034.7807,N,00227.4558,W,1,06,1.4,4.65,M,48.8,M,,0000*7B
$GPGSA,M,3,25,23,29,31,21,30,,,,,,,2.1,1.4,1.6*30
$GPRMC,102052.000,A,5034.7807,N,00227.4558,W,7.63,36.75,161011,,,A*4A
$GPGGA,102053.000,5034.7826,N,00227.4538,W,1,06,1.4,4.62,M,48.8,M,,0000*78
$GPGSA,M,3,25,23,29,31,21,30,,,,,,,2.1,1.4,1.6*30
$GPRMC,102053.000,A,5034.7826,N,00227.4538,W,8.15,33.30,161011,,,A*44
$GPGGA,102054.000,5034.7844,N,00227.4518,W,1,06,1.4,4.40,M,48.8,M,,0000*79
$GPGSA,M,3,25,23,29,31,21,30,,,,,,,2.1,1.4,1.6*30
$GPRMC,102054.000,A,5034.7844,N,00227.4518,W,7.62,34.47,161011,,,A*4D
$GPGGA,102055.000,5034.7860,N,00227.4501,W,1,06,1.4,4.60,M,48.8,M,,0000*74
$GPGSA,M,3,25,23,29,31,21,30,,,,,,,2.1,1.4,1.6*30
$GPRMC,102055.000,A,5034.7860,N,00227.4501,W,6.39,32.27,161011,,,A*4D
$GPGGA,102056.000,5034.7874,N,00227.4488,W,1,06,1.4,4.50,M,48.8,M,,0000*71
$GPGSA,M,3,25,23,29,31,21,30,,,,,,,2.1,1.4,1.6*30
$GPGSV,3,1,12,30,86,104,38,29,65,064,35,31,61,230,41,21,34,163,39*7C
$GPGSV,3,2,12,25,33,108,37,16,14,289,,23,13,318,34,06,09,243,38*7F
$GPGSV,3,3,12,05,09,063,37,02,06,033,40,13,05,342,31,12,02,107,31*72
$GPRMC,102056.000,A,5034.7874,N,00227.4488,W,5.40,29.95,161011,,,A*45
$GPGGA,102057.000,5034.7885,N,00227.4478,W,1,06,1.4,4.39,M,48.8,M,,0000*7E
$GPGSA,M,3,25,23,29,31,21,30,,,,,,,2.1,1.4,1.6*30
$GPRMC,102057.000,A,5034.7885,N,00227.4478,W,4.20,31.41,161011,,,A*42
$GPGGA,102058.000,5034.7895,N,00227.4470,W,1,06,1.4,4.38,M,48.8,M,,0000*79
$GPGSA,M,3,25,23,29,31,21,30,,,,,,,2.1,1.4,1.6*30
$GPRMC,102058.000,A,5034.7895,N,00227.4470,W,3.32,27.68,161011,,,A*4C
$GPGGA,102059.000,5034.7904,N,00227.4462,W,1,06,1.4,4.27,M,48.8,M,,0000*7C
$GPGSA,M,3,25,23,29,31,21,30,,,,,,,2.1,1.4,1.6*30
$GPRMC,102059.000,A,5034.7904,N,00227.4462,W,3.94,33.07,161011,,,A*47
$GPGGA,102100.000,5034.7913,N,00227.4451,W,1,06,1.4,4.29,M,48.8,M,,0000*79
$GPGSA,M,3,25,23,29,31,21,30,,,,,,,2.1,1.4,1.6*30
$GPRMC,102100.000,A,5034.7913,N,00227.4451,W,4.20,39.79,161011,,,A*47
$GPGGA,102101.000,5034.7922,N,00227.4439,W,1,06,1.4,4.41,M,48.8,M,,0000*7A
$GPGSA,M,3,25,23,29,31,21,30,,,,,,,2.1,1.4,1.6*30
$GPGSV,3,1,12,30,86,104,39,29,65,064,39,31,61,230,41,21,34,163,43*7C
$GPGSV,3,2,12,25,33,108,38,16,14,289,,23,13,318,33,06,09,243,43*7B
$GPGSV,3,3,12,05,09,063,33,02,06,033,41,13,05,342,30,12,02,107,32*75
$GPRMC,102101.000,A,5034.7922,N,00227.4439,W,4.02,41.48,161011,,,A*47
$GPGGA,102102.000,5034.7930,N,00227.4428,W,1,06,1.4,4.43,M,48.8,M,,0000*78
$GPGSA,M,3,25,23,29,31,21,30,,,,,,,2.1,1.4,1.6*30
$GPRMC,102102.000,A,5034.7930,N,00227.4428,W,3.64,42.73,161011,,,A*4B
$GPGGA,102103.000,5034.7935,N,00227.4417,W,1,06,1.4,4.29,M,48.8,M,,0000*7C
$GPGSA,M,3,25,23,29,31,21,30,,,,,,,2.1,1.4,1.6*30
$GPRMC,102103.000,A,5034.7935,N,00227.4417,W,2.92,61.52,161011,,,A*49
$GPGGA,102104.000,5034.7939,N,00227.4408,W,1,06,1.4,4.14,M,48.8,M,,0000*77
$GPGSA,M,3,25,23,29,31,21,30,,,,,,,2.1,1.4,1.6*30
$GPRMC,102104.000,A,5034.7939,N,00227.4408,W,2.07,62.40,161011,,,A*40
$GPGGA,102105.000,5034.7942,N,00227.4401,W,1,06,1.4,3.94,M,48.8,M,,0000*7C
$GPGSA,M,3,25,23,29,31,21,30,,,,,,,2.1,1.4,1.6*30
$GPRMC,102105.000,A,5034.7942,N,00227.4401,W,2.01,49.77,161011,,,A*4F
$GPGGA,102106.000,5034.7946,N,00227.4393,W,1,06,1.4,4.13,M,48.8,M,,0000*7F
$GPGSA,M,3,25,23,29,31,21,30,,,,,,,2.1,1.4,1.6*30
$GPGSV,3,1,12,30,86,104,41,29,65,064,38,31,61,230,41,21,34,163,44*75
$GPGSV,3,2,12,25,33,108,41,16,14,289,,23,13,318,31,06,09,243,40*74
$GPGSV,3,3,12,05,09,063,35,02,06,033,42,13,05,342,31,12,02,107,32*71
$GPRMC,102106.000,A,5034.7946,N,00227.4393,W,2.65,41.83,161011,,,A*45
$GPGGA,102107.000,5034.7952,N,00227.4387,W,1,06,1.4,3.90,M,48.8,M,,0000*72
$GPGSA,M,3,25,23,29,31,21,30,,,,,,,2.1,1.4,1.6*30
$GPRMC,102107.000,A,5034.7952,N,00227.4387,W,2.67,38.40,161011,,,A*47
$GPGGA,102108.000,5034.7958,N,00227.4379,W,1,06,1.4,4.00,M,48.8,M,,0000*78
$GPGSA,M,3,25,23,29,31,21,30,,,,,,,2.1,1.4,1.6*30
$GPRMC,102108.000,A,5034.7958,N,00227.4379,W,2.87,37.40,161011,,,A*42
$GPGGA,102109.000,5034.7964,N,00227.4371,W,1,06,1.4,4.14,M,48.8,M,,0000*7B
$GPGSA,M,3,25,23,29,31,21,30,,,,,,,2.1,1.4,1.6*30
$GPRMC,102109.000,A,5034.7964,N,00227.4371,W,3.04,41.93,161011,,,A*41
$GPGGA,102110.000,5034.7968,N,00227.4364,W,1,06,1.4,4.23,M,48.8,M,,0000*7F
$GPGSA,M,3,25,23,29,31,21,30,,,,,,,2.1,1.4,1.6*30
$GPRMC,102110.000,A,5034.7968,N,00227.4364,W,2.02,42.04,161011,,,A*4B
$GPGGA,102111.000,5034.7972,N,00227.4358,W,1,06,1.4,4.28,M,48.8,M,,0000*71
$GPGSA,M,3,25,23,29,31,21,30,,,,,,,2.1,1.4,1.6*30
$GPGSV,3,1,12,30,86,104,39,29,65,064,37,31,61,230,38,21,34,163,44*7B
$GPGSV,3,2,12,25,33,108,41,16,14,289,31,23,13,318,31,06,09,243,34*75
$GPGSV,3,3,12,05,09,063,36,02,06,033,,13,05,342,36,12,02,107,42*74
$GPRMC,102111.000,A,5034.7972,N,00227.4358,W,2.00,47.97,161011,,,A*43
$GPGGA,102112.000,5034.7975,N,00227.4352,W,1,06,1.4,4.47,M,48.8,M,,0000*76
$GPGSA,M,3,25,23,29,31,21,30,,,,,,,2.1,1.4,1.6*30
$GPRMC,102112.000,A,5034.7975,N,00227.4352,W,1.99,38.43,161011,,,A*4F
$GPGGA,102113.000,5034.7979,N,00227.4347,W,1,07,1.3,4.37,M,48.8,M,,0000*7E
$GPGSA,M,3,25,23,29,31,16,21,30,,,,,,2.0,1.3,1.5*32
$GPRMC,102113.000,A,5034.7979,N,00227.4347,W,1.64,40.40,161011,,,A*48
$GPGGA,102114.000,5034.7981,N,00227.4343,W,1,07,1.3,4.40,M,48.8,M,,0000*7A
$GPGSA,M,3,25,23,29,31,16,21,30,,,,,,2.0,1.3,1.5*32
$GPRMC,102114.000,A,5034.7981,N,00227.4343,W,1.49,57.09,161011,,,A*48
$GPGGA,102115.000,5034.7982,N,00227.4338,W,1,07,1.3,4.65,M,48.8,M,,0000*73
$GPGSA,M,3,25,23,29,31,16,21,30,,,,,,2.0,1.3,1.5*32
$GPRMC,102115.000,A,5034.7982,N,00227.4338,W,1.30,58.62,161011,,,A*4A
$GPGGA,102116.000,5034.7983,N,00227.4334,W,1,07,1.3,4.66,M,48.8,M,,0000*7E
$GPGSA,M,3,25,23,29,31,16,21,30,,,,,,2.0,1.3,1.5*32
$GPGSV,3,1,12,30,86,106,39,29,65,064,37,31,61,229,38,21,34,163,43*76
$GPGSV,3,2,12,25,32,108,37,16,14,289,29,23,13,318,39,06,10,243,35*7D
$GPGSV,3,3,12,05,09,062,37,02,06,033,,13,05,342,35,12,02,107,44*71
$GPRMC,102116.000,A,5034.7983,N,00227.4334,W,1.07,76.22,161011,,,A*48
$GPGGA,102117.000,5034.7984,N,00227.4329,W,1,07,1.3,4.76,M,48.8,M,,0000*75
$GPGSA,M,3,25,23,29,31,16,21,30,,,,,,2.0,1.3,1.5*32
$GPRMC,102117.000,A,5034.7984,N,00227.4329,W,1.47,61.76,161011,,,A*41
$GPGGA,102118.000,5034.7987,N,00227.4325,W,1,07,1.3,4.63,M,48.8,M,,0000*71
$GPGSA,M,3,25,23,29,31,16,21,30,,,,,,2.0,1.3,1.5*32
$GPRMC,102118.000,A,5034.7987,N,00227.4325,W,1.67,41.03,161011,,,A*43
$GPGGA,102119.000,5034.7989,N,00227.4321,W,1,07,1.3,4.68,M,48.8,M,,0000*71
$GPGSA,M,3,25,23,29,31,16,21,30,,,,,,2.0,1.3,1.5*32
$GPRMC,102119.000,A,5034.7989,N,00227.4321,W,1.21,67.93,161011,,,A*47
$GPGGA,102120.000,5034.7989,N,00227.4316,W,1,07,1.3,4.79,M,48.8,M,,0000*7F
$GPGSA,M,3,25,23,29,31,16,21,30,,,,,,2.0,1.3,1.5*32
$GPRMC,102120.000,A,5034.7989,N,00227.4316,W,1.36,73.25,161011,,,A*47
$GPGGA,102121.000,5034.7989,N,00227.4312,W,1,07,1.3,4.86,M,48.8,M,,0000*7A
$GPGSA,M,3,25,23,29,31,16,21,30,,,,,,2.0,1.3,1.5*32
$GPGSV,3,1,12,30,86,106,39,29,65,064,37,31,61,229,38,21,34,163,45*70
$GPGSV,3,2,12,25,32,108,45,16,14,289,28,23,13,318,32,06,10,243,36*71
$GPGSV,3,3,12,05,09,062,37,02,06,033,,13,05,342,35,12,02,107,41*74
$GPRMC,102121.000,A,5034.7989,N,00227.4312,W,0.97,81.16,161011,,,A*45
$GPGGA,102122.000,5034.7989,N,00227.4308,W,1,07,1.3,4.87,M,48.8,M,,0000*73
$GPGSA,M,3,25,23,29,31,16,21,30,,,,,,2.0,1.3,1.5*32
$GPRMC,102122.000,A,5034.7989,N,00227.4308,W,0.94,79.92,161011,,,A*45
$GPGGA,102123.000,5034.7990,N,00227.4304,W,1,07,1.3,4.90,M,48.8,M,,0000*70
$GPGSA,M,3,25,23,29,31,16,21,30,,,,,,2.0,1.3,1.5*32
$GPRMC,102123.000,A,5034.7990,N,00227.4304,W,1.33,65.38,161011,,,A*41
$GPGGA,102124.000,5034.7992,N,00227.4301,W,1,07,1.3,4.72,M,48.8,M,,0000*7C
$GPGSA,M,3,25,23,29,31,16,21,30,,,,,,2.0,1.3,1.5*32
$GPRMC,102124.000,A,5034.7992,N,00227.4301,W,1.35,33.50,161011,,,A*4A
$GPGGA,102125.000,5034.7995,N,00227.4296,W,1,07,1.3,4.44,M,48.8,M,,0000*70
$GPGSA,M,3,25,23,29,31,16,21,30,,,,,,2.0,1.3,1.5*32
$GPRMC,102125.000,A,5034.7995,N,00227.4296,W,2.11,59.70,161011,,,A*48
$GPGGA,102126.000,5034.7999,N,00227.4288,W,1,07,1.3,4.38,M,48.8,M,,0000*7B
$GPGSA,M,3,25,23,29,31,16,21,30,,,,,,2.0,1.3,1.5*32
$GPGSV,3,1,12,30,86,106,39,29,65,064,38,31,61,229,39,21,34,163,45*7E
$GPGSV,3,2,12,25,32,108,40,16,14,289,35,23,13,318,31,06,10,243,45*7F
$GPGSV,3,3,12,05,09,062,37,02,06,033,,13,05,342,35,12,02,107,32*70
$GPRMC,102126.000,A,5034.7999,N,00227.4288,W,2.80,42.42,161011,,,A*4B
$GPGGA,102127.000,5034.8001,N,00227.4284,W,1,07,1.3,4.25,M,48.8,M,,0000*7D
$GPGSA,M,3,25,23,29,31,16,21,30,,,,,,2.0,1.3,1.5*32
$GPRMC,102127.000,A,5034.8001,N,00227.4284,W,0.48,65.11,161011,,,A*44
$GPGGA,102128.000,5034.8002,N,00227.4281,W,1,07,1.3,4.20,M,48.8,M,,0000*71
$GPGSA,M,3,25,23,29,31,16,21,30,,,,,,2.0,1.3,1.5*32
$GPRMC,102128.000,A,5034.8002,N,00227.4281,W,0.87,46.35,161011,,,A*49
$GPGGA,102129.000,5034.8002,N,00227.4277,W,1,07,1.3,4.07,M,48.8,M,,0000*7C
$GPGSA,M,3,25,23,29,31,16,21,30,,,,,,2.0,1.3,1.5*32
$GPRMC,102129.000,A,5034.8002,N,00227.4277,W,0.95,112.02,161011,,,A*76
$GPGGA,102130.000,5034.7999,N,00227.4273,W,1,07,1.3,3.90,M,48.8,M,,0000*7D
$GPGSA,M,3,25,23,29,31,16,21,30,,,,,,2.0,1.3,1.5*32
$GPRMC,102130.000,A,5034.7999,N,00227.4273,W,1.88,143.97,161011,,,A*7B
$GPGGA,102131.000,5034.7995,N,00227.4269,W,1,07,1.3,3.91,M,48.8,M,,0000*7A
$GPGSA,M,3,25,23,29,31,16,21,30,,,,,,2.0,1.3,1.5*32
$GPGSV,3,1,12,30,86,106,39,29,65,064,38,31,61,229,36,21,34,163,45*71
$GPGSV,3,2,12,25,32,108,47,16,14,289,32,23,13,318,39,06,10,243,29*7D
$GPGSV,3,3,12,05,09,062,36,02,06,033,,13,05,342,33,12,02,107,41*73
$GPRMC,102131.000,A,5034.7995,N,00227.4269,W,1.73,138.48,161011,,,A*77
$GPGGA,102132.000,5034.7990,N,00227.4264,W,1,07,1.3,3.80,M,48.8,M,,0000*71
$GPGSA,M,3,25,23,29,31,16,21,30,,,,,,2.0,1.3,1.5*32
$GPRMC,102132.000,A,5034.7990,N,00227.4264,W,2.44,155.59,161011,,,A*70
$GPGGA,102133.000,5034.7984,N,00227.4256,W,1,07,1.3,3.74,M,48.8,M,,0000*7F
$GPGSA,M,3,25,23,29,31,16,21,30,,,,,,2.0,1.3,1.5*32
$GPRMC,102133.000,A,5034.7984,N,00227.4256,W,2.77,127.55,161011,,,A*7C
$GPGGA,102134.000,5034.7978,N,00227.4246,W,1,07,1.3,3.79,M,48.8,M,,0000*77
$GPGSA,M,3,25,23,29,31,16,21,30,,,,,,2.0,1.3,1.5*32
$GPRMC,102134.000,A,5034.7978,N,00227.4246,W,3.87,135.65,161011,,,A*77
$GPGGA,102135.000,5034.7970,N,00227.4232,W,1,07,1.3,3.81,M,48.8,M,,0000*7A
$GPGSA,M,3,25,23,29,31,16,21,30,,,,,,2.0,1.3,1.5*32
$GPRMC,102135.000,A,5034.7970,N,00227.4232,W,4.73,119.68,161011,,,A*72
$GPGGA,102136.000,5034.7963,N,00227.4214,W,1,07,1.3,3.68,M,48.8,M,,0000*78
$GPGSA,M,3,25,23,29,31,16,21,30,,,,,,2.0,1.3,1.5*32
$GPGSV,3,1,12,30,86,106,39,29,65,064,37,31,61,229,41,21,34,163,39*75
$GPGSV,3,2,12,25,32,108,38,16,14,289,39,23,13,318,39,06,10,243,36*70
$GPGSV,3,3,12,05,09,062,35,02,06,033,,13,05,342,30,12,02,107,33*76
$GPRMC,102136.000,A,5034.7963,N,00227.4214,W,4.76,121.88,161011,,,A*77
$GPGGA,102137.000,5034.7956,N,00227.4195,W,1,07,1.3,3.72,M,48.8,M,,0000*7E
$GPGSA,M,3,25,23,29,31,16,21,30,,,,,,2.0,1.3,1.5*32
$GPRMC,102137.000,A,5034.7956,N,00227.4195,W,5.20,117.09,161011,,,A*74
$GPGGA,102138.000,5034.7951,N,00227.4179,W,1,07,1.3,3.68,M,48.8,M,,0000*7F
$GPGSA,M,3,25,23,29,31,16,21,30,,,,,,2.0,1.3,1.5*32
$GPRMC,102138.000,A,5034.7951,N,00227.4179,W,3.01,102.66,161011,,,A*76
$GPGGA,102139.000,5034.7950,N,00227.4166,W,1,07,1.3,3.77,M,48.8,M,,0000*7F
$GPGSA,M,3,25,23,29,31,16,21,30,,,,,,2.0,1.3,1.5*32
$GPRMC,102139.000,A,5034.7950,N,00227.4166,W,3.14,100.17,161011,,,A*78
$GPGGA,102140.000,5034.7950,N,00227.4151,W,1,06,1.7,4.08,M,48.8,M,,0000*7F
$GPGSA,M,3,23,29,31,16,21,30,,,,,,,2.5,1.7,1.9*38
$GPRMC,102140.000,A,5034.7950,N,00227.4151,W,3.51,88.64,161011,,,A*46
$GPGGA,102141.000,5034.7950,N,00227.4133,W,1,07,1.3,4.33,M,48.8,M,,0000*77
$GPGSA,M,3,25,23,29,31,16,21,30,,,,,,2.0,1.3,1.5*32
$GPGSV,3,1,12,30,86,106,36,29,65,064,35,31,61,229,42,21,34,163,38*7A
$GPGSV,3,2,12,25,32,108,41,16,14,289,41,23,13,318,44,06,10,243,37*7A
$GPGSV,3,3,12,05,09,062,34,02,06,033,,13,05,342,36,12,02,107,37*75
$GPRMC,102141.000,A,5034.7950,N,00227.4133,W,4.35,88.79,161011,,,A*4A
$GPGGA,102142.000,5034.7953,N,00227.4114,W,1,07,1.3,4.52,M,48.8,M,,0000*75
$GPGSA,M,3,25,23,29,31,16,21,30,,,,,,2.0,1.3,1.5*32
$GPRMC,102142.000,A,5034.7953,N,00227.4114,W,4.43,69.51,161011,,,A*4B
$GPGGA,102143.000,5034.7957,N,00227.4095,W,1,07,1.3,4.72,M,48.8,M,,0000*7A
$GPGSA,M,3,25,23,29,31,16,21,30,,,,,,2.0,1.3,1.5*32
$GPRMC,102143.000,A,5034.7957,N,00227.4095,W,4.52,71.83,161011,,,A*40
$GPGGA,102144.000,5034.7960,N,00227.4076,W,1,07,1.3,4.75,M,48.8,M,,0000*73
$GPGSA,M,3,25,23,29,31,16,21,30,,,,,,2.0,1.3,1.5*32
$GPRMC,102144.000,A,5034.7960,N,00227.4076,W,4.33,72.92,161011,,,A*4A
$GPGGA,102145.000,5034.7963,N,00227.4057,W,1,07,1.3,4.90,M,48.8,M,,0000*79
$GPGSA,M,3,25,23,29,31,16,21,30,,,,,,2.0,1.3,1.5*32
$GPRMC,102145.000,A,5034.7963,N,00227.4057,W,4.28,83.37,161011,,,A*40
$GPGGA,102146.000,5034.7963,N,00227.4039,W,1,07,1.3,4.73,M,48.8,M,,0000*7F
$GPGSA,M,3,25,23,29,31,16,21,30,,,,,,2.0,1.3,1.5*32
$GPGSV,3,1,12,30,86,106,38,29,65,064,38,31,61,229,42,21,34,163,42*74
$GPGSV,3,2,12,25,32,108,41,16,14,289,37,23,13,318,32,06,10,243,42*78
$GPGSV,3,3,12,05,09,062,30,02,06,033,,13,05,342,35,12,02,107,41*73
$GPRMC,102146.000,A,5034.7963,N,00227.4039,W,3.83,94.06,161011,,,A*49
$GPGGA,102147.000,5034.7961,N,00227.4020,W,1,07,1.3,4.83,M,48.8,M,,0000*7B
$GPGSA,M,3,25,23,29,31,16,21,30,,,,,,2.0,1.3,1.5*32
$GPRMC,102147.000,A,5034.7961,N,00227.4020,W,4.64,93.28,161011,,,A*47
$GPGGA,102148.000,5034.7961,N,00227.4002,W,1,07,1.3,4.92,M,48.8,M,,0000*74
$GPGSA,M,3,25,23,29,31,16,21,30,,,,,,2.0,1.3,1.5*32
$GPRMC,102148.000,A,5034.7961,N,00227.4002,W,3.55,92.05,161011,,,A*43
$GPGGA,102149.000,5034.7961,N,00227.3987,W,1,07,1.3,5.24,M,48.8,M,,0000*7A
$GPGSA,M,3,25,23,29,31,16,21,30,,,,,,2.0,1.3,1.5*32
$GPRMC,102149.000,A,5034.7961,N,00227.3987,W,3.80,89.81,161011,,,A*4F
$GPGGA,102150.000,5034.7960,N,00227.3969,W,1,07,1.3,5.09,M,48.8,M,,0000*7C
$GPGSA,M,3,25,23,29,31,16,21,30,,,,,,2.0,1.3,1.5*32
$GPRMC,102150.000,A,5034.7960,N,00227.3969,W,4.32,87.15,161011,,,A*4B
$GPGGA,102151.000,5034.7961,N,00227.3952,W,1,07,1.3,5.03,M,48.8,M,,0000*7E
$GPGSA,M,3,25,23,29,31,16,21,30,,,,,,2.0,1.3,1.5*32
$GPGSV,3,1,12,30,86,106,39,29,65,064,37,31,61,229,43,21,34,163,38*76
$GPGSV,3,2,12,25,32,108,38,16,14,289,43,23,13,318,40,06,10,243,44*76
$GPGSV,3,3,12,05,09,062,32,02,06,033,,13,05,342,39,12,02,107,41*7D
$GPRMC,102151.000,A,5034.7961,N,00227.3952,W,3.63,80.53,161011,,,A*45
$GPGGA,102152.000,5034.7962,N,00227.3936,W,1,07,1.3,5.16,M,48.8,M,,0000*78
$GPGSA,M,3,25,23,29,31,16,21,30,,,,,,2.0,1.3,1.5*32
$GPRMC,102152.000,A,5034.7962,N,00227.3936,W,4.16,89.03,161011,,,A*4E
$GPGGA,102153.000,5034.7962,N,00227.3919,W,1,07,1.3,5.19,M,48.8,M,,0000*7B
$GPGSA,M,3,25,23,29,31,16,21,30,,,,,,2.0,1.3,1.5*32
$GPRMC,102153.000,A,5034.7962,N,00227.3919,W,4.12,84.85,161011,,,A*45
$GPGGA,102154.000,5034.7964,N,00227.3902,W,1,07,1.3,5.11,M,48.8,M,,0000*78
$GPGSA,M,3,25,23,29,31,16,21,30,,,,,,2.0,1.3,1.5*32
$GPRMC,102154.000,A,5034.7964,N,00227.3902,W,4.02,70.49,161011,,,A*44
$GPGGA,102155.000,5034.7967,N,00227.3885,W,1,07,1.3,5.25,M,48.8,M,,0000*73
$GPGSA,M,3,25,23,29,31,16,21,30,,,,,,2.0,1.3,1.5*32
$GPRMC,102155.000,A,5034.7967,N,00227.3885,W,3.99,78.88,161011,,,A*48
$GPGGA,102156.000,5034.7968,N,00227.3869,W,1,07,1.3,5.32,M,48.8,M,,0000*7B
$GPGSA,M,3,25,23,29,31,16,21,30,,,,,,2.0,1.3,1.5*32
$GPGSV,3,1,12,30,86,106,39,29,65,064,34,31,61,229,42,21,34,163,38*74
$GPGSV,3,2,12,25,32,108,40,16,14,289,42,23,13,318,39,06,10,243,40*72
$GPGSV,3,3,12,05,09,062,31,02,06,033,,13,05,342,36,12,02,107,38*7F
$GPRMC,102156.000,A,5034.7968,N,00227.3869,W,3.98,84.59,161011,,,A*48
$GPGGA,102157.000,5034.7970,N,00227.3854,W,1,07,1.3,5.58,M,48.8,M,,0000*71
$GPGSA,M,3,25,23,29,31,16,21,30,,,,,,2.0,1.3,1.5*32
$GPRMC,102157.000,A,5034.7970,N,00227.3854,W,3.16,78.38,161011,,,A*4C
$GPGGA,102158.000,5034.7971,N,00227.3837,W,1,07,1.3,5.43,M,48.8,M,,0000*70
$GPGSA,M,3,25,23,29,31,16,21,30,,,,,,2.0,1.3,1.5*32
$GPRMC,102158.000,A,5034.7971,N,00227.3837,W,4.80,69.86,161011,,,A*4A
$GPGGA,102159.000,5034.7974,N,00227.3817,W,1,07,1.3,5.32,M,48.8,M,,0000*70
$GPGSA,M,3,25,23,29,31,16,21,30,,,,,,2.0,1.3,1.5*32
$GPRMC,102159.000,A,5034.7974,N,00227.3817,W,5.04,82.05,161011,,,A*4F
$GPGGA,102200.000,5034.7974,N,00227.3797,W,1,07,1.3,5.24,M,48.8,M,,0000*7F
$GPGSA,M,3,25,23,29,31,16,21,30,,,,,,2.0,1.3,1.5*32
$GPRMC,102200.000,A,5034.7974,N,00227.3797,W,4.56,92.20,161011,,,A*47
$GPGGA,102201.000,5034.7974,N,00227.3778,W,1,07,1.3,5.21,M,48.8,M,,0000*7A
$GPGSA,M,3,25,23,29,31,16,21,30,,,,,,2.0,1.3,1.5*32
$GPGSV,3,1,12,30,86,106,39,29,65,064,34,31,61,229,41,21,34,163,37*78
$GPGSV,3,2,12,25,32,108,40,16,14,289,43,23,13,318,37,06,10,243,42*7F
$GPGSV,3,3,12,05,09,062,32,02,06,033,,13,05,342,34,12,02,107,39*7F
$GPRMC,102201.000,A,5034.7974,N,00227.3778,W,4.09,95.99,161011,,,A*48
$GPGGA,102202.000,5034.7972,N,00227.3759,W,1,07,1.3,5.41,M,48.8,M,,0000*7A
$GPGSA,M,3,25,23,29,31,16,21,30,,,,,,2.0,1.3,1.5*32
$GPRMC,102202.000,A,5034.7972,N,00227.3759,W,4.48,99.94,161011,,,A*4A
$GPGGA,102203.000,5034.7968,N,00227.3741,W,1,07,1.3,5.35,M,48.8,M,,0000*7A
$GPGSA,M,3,25,23,29,31,16,21,30,,,,,,2.0,1.3,1.5*32
$GPRMC,102203.000,A,5034.7968,N,00227.3741,W,4.42,110.56,161011,,,A*7D
$GPGGA,102204.000,5034.7963,N,00227.3722,W,1,08,1.1,5.10,M,48.8,M,,0000*79
$GPGSA,M,3,25,23,29,31,16,21,30,06,,,,,1.8,1.1,1.4*3C
$GPRMC,102204.000,A,5034.7963,N,00227.3722,W,5.05,109.55,161011,,,A*7D
$GPGGA,102205.000,5034.7958,N,00227.3702,W,1,08,1.1,4.98,M,48.8,M,,0000*73
$GPGSA,M,3,25,23,29,31,16,21,30,06,,,,,1.8,1.1,1.4*3C
$GPRMC,102205.000,A,5034.7958,N,00227.3702,W,4.74,109.69,161011,,,A*7E
$GPGGA,102206.000,5034.7953,N,00227.3685,W,1,08,1.1,4.97,M,48.8,M,,0000*7A
$GPGSA,M,3,25,23,29,31,16,21,30,06,,,,,1.8,1.1,1.4*3C
$GPGSV,3,1,12,30,86,106,39,29,65,064,35,31,61,229,41,21,34,163,39*77
$GPGSV,3,2,12,25,32,108,33,16,14,289,40,23,13,318,36,06,10,243,42*79
$GPGSV,3,3,12,05,09,062,32,02,06,033,,13,05,342,35,12,02,107,40*70
$GPRMC,102206.000,A,5034.7953,N,00227.3685,W,4.25,110.15,161011,,,A*7F
$GPGGA,102207.000,5034.7948,N,00227.3667,W,1,08,1.1,4.86,M,48.8,M,,0000*7D
$GPGSA,M,3,25,23,29,31,16,21,30,06,,,,,1.8,1.1,1.4*3C
$GPRMC,102207.000,A,5034.7948,N,00227.3667,W,4.70,119.63,161011,,,A*70
$GPGGA,102208.000,5034.7942,N,00227.3649,W,1,08,1.1,4.94,M,48.8,M,,0000*77
$GPGSA,M,3,25,23,29,31,16,21,30,06,,,,,1.8,1.1,1.4*3C
$GPRMC,102208.000,A,5034.7942,N,00227.3649,W,4.59,110.36,161011,,,A*7B
$GPGGA,102209.000,5034.7938,N,00227.3631,W,1,08,1.1,4.93,M,48.8,M,,0000*73
$GPGSA,M,3,25,23,29,31,16,21,30,06,,,,,1.8,1.1,1.4*3C
$GPRMC,102209.000,A,5034.7938,N,00227.3631,W,4.46,109.67,161011,,,A*7A
$GPGGA,102210.000,5034.7935,N,00227.3612,W,1,08,1.1,4.83,M,48.8,M,,0000*76
$GPGSA,M,3,25,23,29,31,16,21,30,06,,,,,1.8,1.1,1.4*3C
$GPRMC,102210.000,A,5034.7935,N,00227.3612,W,4.18,99.57,161011,,,A*4E
$GPGGA,102211.000,5034.7934,N,00227.3593,W,1,08,1.1,4.94,M,48.8,M,,0000*7A
$GPGSA,M,3,25,23,29,31,16,21,30,06,,,,,1.8,1.1,1.4*3C
$GPGSV,3,1,12,30,86,106,40,29,65,064,36,31,61,229,41,21,34,163,36*75
$GPGSV,3,2,12,25,32,108,39,16,14,289,41,23,13,318,41,06,10,243,44*74
$GPGSV,3,3,12,05,09,062,34,02,06,033,,13,05,342,36,12,02,107,32*70
$GPRMC,102211.000,A,5034.7934,N,00227.3593,W,4.71,96.17,161011,,,A*40
$GPGGA,102212.000,5034.7931,N,00227.3575,W,1,08,1.1,4.81,M,48.8,M,,0000*70
$GPGSA,M,3,25,23,29,31,16,21,30,06,,,,,1.8,1.1,1.4*3C
$GPRMC,102212.000,A,5034.7931,N,00227.3575,W,3.89,98.64,161011,,,A*44
$GPGGA,102213.000,5034.7930,N,00227.3558,W,1,08,1.1,4.87,M,48.8,M,,0000*79
$GPGSA,M,3,25,23,29,31,16,21,30,06,,,,,1.8,1.1,1.4*3C
$GPRMC,102213.000,A,5034.7930,N,00227.3558,W,4.40,90.72,161011,,,A*46
$GPGGA,102214.000,5034.7930,N,00227.3539,W,1,08,1.1,4.97,M,48.8,M,,0000*78
$GPGSA,M,3,25,23,29,31,16,21,30,06,,,,,1.8,1.1,1.4*3C
$GPRMC,102214.000,A,5034.7930,N,00227.3539,W,4.51,88.57,161011,,,A*48
$GPGGA,102215.000,5034.7931,N,00227.3519,W,1,08,1.1,5.11,M,48.8,M,,0000*75
$GPGSA,M,3,25,23,29,31,16,21,30,06,,,,,1.8,1.1,1.4*3C
$GPRMC,102215.000,A,5034.7931,N,00227.3519,W,4.60,82.59,161011,,,A*4C
$GPGGA,102216.000,5034.7930,N,00227.3499,W,1,08,1.1,4.93,M,48.8,M,,0000*75
$GPGSA,M,3,25,23,29,31,16,21,30,06,,,,,1.8,1.1,1.4*3C
$GPGSV,3,1,12,30,86,108,39,29,64,064,37,31,61,228,40,21,34,162,41*74
$GPGSV,3,2,12,25,32,108,41,16,15,290,36,23,13,318,38,06,10,243,43*7B
$GPGSV,3,3,12,05,09,062,36,13,06,342,28,02,05,033,,12,02,108,42*75
$GPRMC,102216.000,A,5034.7930,N,00227.3499,W,4.18,111.27,161011,,,A*7A
$GPGGA,102217.000,5034.7926,N,00227.3482,W,1,08,1.1,4.99,M,48.8,M,,0000*73
$GPGSA,M,3,25,23,29,31,16,21,30,06,,,,,1.8,1.1,1.4*3C
$GPRMC,102217.000,A,5034.7926,N,00227.3482,W,3.90,95.93,161011,,,A*43
$GPGGA,102218.000,5034.7922,N,00227.3466,W,1,08,1.1,4.82,M,48.8,M,,0000*78
$GPGSA,M,3,25,23,29,31,16,21,30,06,,,,,1.8,1.1,1.4*3C
$GPRMC,102218.000,A,5034.7922,N,00227.3466,W,3.73,126.26,161011,,,A*78
$GPGGA,102219.000,5034.7917,N,00227.3450,W,1,08,1.1,4.79,M,48.8,M,,0000*7E
$GPGSA,M,3,25,23,29,31,16,21,30,06,,,,,1.8,1.1,1.4*3C
$GPRMC,102219.000,A,5034.7917,N,00227.3450,W,4.57,109.61,161011,,,A*75
$GPGGA,102220.000,5034.7912,N,00227.3431,W,1,08,1.1,4.92,M,48.8,M,,0000*73
$GPGSA,M,3,25,23,29,31,16,21,30,06,,,,,1.8,1.1,1.4*3C
$GPRMC,102220.000,A,5034.7912,N,00227.3431,W,4.70,106.23,161011,,,A*71
$GPGGA,102221.000,5034.7908,N,00227.3413,W,1,08,1.1,4.86,M,48.8,M,,0000*7C
$GPGSA,M,3,25,23,29,31,16,21,30,06,,,,,1.8,1.1,1.4*3C
$GPGSV,3,1,12,30,86,108,39,29,64,064,35,31,61,228,40,21,34,162,37*77
$GPGSV,3,2,12,25,32,108,39,16,15,290,39,23,13,318,41,06,10,243,41*77
$GPGSV,3,3,12,05,09,062,40,13,06,342,37,02,05,033,,12,02,108,45*7D
$GPRMC,102221.000,A,5034.7908,N,00227.3413,W,4.10,111.70,161011,,,A*7D
$GPGGA,102222.000,5034.7902,N,00227.3394,W,1,08,1.1,4.65,M,48.8,M,,0000*70
$GPGSA,M,3,25,23,29,31,16,21,30,06,,,,,1.8,1.1,1.4*3C
$GPRMC,102222.000,A,5034.7902,N,00227.3394,W,5.25,107.64,161011,,,A*79
$GPGGA,102223.000,5034.7896,N,00227.3374,W,1,08,1.1,4.49,M,48.8,M,,0000*7D
$GPGSA,M,3,25,23,29,31,16,21,30,06,,,,,1.8,1.1,1.4*3C
$GPRMC,102223.000,A,5034.7896,N,00227.3374,W,4.72,122.08,161011,,,A*74
$GPGGA,102224.000,5034.7891,N,00227.3356,W,1,08,1.1,4.37,M,48.8,M,,0000*74
$GPGSA,M,3,25,23,29,31,16,21,30,06,,,,,1.8,1.1,1.4*3C
$GPRMC,102224.000,A,5034.7891,N,00227.3356,W,4.12,105.48,161011,,,A*73
$GPGGA,102225.000,5034.7886,N,00227.3340,W,1,08,1.1,4.17,M,48.8,M,,0000*76
$GPGSA,M,3,25,23,29,31,16,21,30,06,,,,,1.8,1.1,1.4*3C
$GPRMC,102225.000,A,5034.7886,N,00227.3340,W,3.96,127.12,161011,,,A*77
$GPGGA,102226.000,5034.7879,N,00227.3324,W,1,08,1.1,4.00,M,48.8,M,,0000*71
$GPGSA,M,3,25,23,29,31,16,21,30,06,,,,,1.8,1.1,1.4*3C
$GPGSV,3,1,12,30,86,108,37,29,64,064,36,31,61,228,38,21,34,162,39*7B
$GPGSV,3,2,12,25,32,108,37,16,15,290,41,23,13,318,38,06,10,243,43*7A
$GPGSV,3,3,12,05,09,062,36,13,06,342,36,02,05,033,,12,02,108,38*77
$GPRMC,102226.000,A,5034.7879,N,00227.3324,W,4.88,126.10,161011,,,A*7D
$GPGGA,102227.000,5034.7870,N,00227.3306,W,1,08,1.1,3.77,M,48.8,M,,0000*7E
$GPGSA,M,3,25,23,29,31,16,21,30,06,,,,,1.8,1.1,1.4*3C
$GPRMC,102227.000,A,5034.7870,N,00227.3306,W,5.23,126.28,161011,,,A*7E
$GPGGA,102228.000,5034.7862,N,00227.3288,W,1,08,1.1,3.82,M,48.8,M,,0000*7F
$GPGSA,M,3,25,23,29,31,16,21,30,06,,,,,1.8,1.1,1.4*3C
$GPRMC,102228.000,A,5034.7862,N,00227.3288,W,5.03,122.92,161011,,,A*72
$GPGGA,102229.000,5034.7857,N,00227.3270,W,1,08,1.1,3.77,M,48.8,M,,0000*75
$GPGSA,M,3,25,23,29,31,16,21,30,06,,,,,1.8,1.1,1.4*3C
$GPRMC,102229.000,A,5034.7857,N,00227.3270,W,4.47,107.25,161011,,,A*78
$GPGGA,102230.000,5034.7852,N,00227.3252,W,1,08,1.1,3.82,M,48.8,M,,0000*72
$GPGSA,M,3,25,23,29,31,16,21,30,06,,,,,1.8,1.1,1.4*3C
$GPRMC,102230.000,A,5034.7852,N,00227.3252,W,4.71,115.12,161011,,,A*77
$GPGGA,102231.000,5034.7847,N,00227.3235,W,1,08,1.1,3.90,M,48.8,M,,0000*75
$GPGSA,M,3,25,23,29,31,16,21,30,06,,,,,1.8,1.1,1.4*3C
$GPGSV,3,1,12,30,86,108,32,29,64,064,32,31,61,228,38,21,34,162,39*7A
$GPGSV,3,2,12,25,32,108,41,16,15,290,39,23,13,318,42,06,10,243,36*7B
$GPGSV,3,3,12,05,09,062,39,13,06,342,39,02,05,033,,12,02,108,44*7C
$GPRMC,102231.000,A,5034.7847,N,00227.3235,W,3.97,114.65,161011,,,A*7D
$GPGGA,102232.000,5034.7840,N,00227.3219,W,1,08,1.1,3.89,M,48.8,M,,0000*77
$GPGSA,M,3,25,23,29,31,16,21,30,06,,,,,1.8,1.1,1.4*3C
$GPRMC,102232.000,A,5034.7840,N,00227.3219,W,5.09,127.23,161011,,,A*74
$GPGGA,102233.000,5034.7832,N,00227.3202,W,1,08,1.1,3.90,M,48.8,M,,0000*71
$GPGSA,M,3,25,23,29,31,16,21,30,06,,,,,1.8,1.1,1.4*3C
$GPRMC,102233.000,A,5034.7832,N,00227.3202,W,4.61,125.84,161011,,,A*7A
$GPGGA,102234.000,5034.7824,N,00227.3185,W,1,08,1.1,4.07,M,48.8,M,,0000*74
$GPGSA,M,3,25,23,29,31,16,21,30,06,,,,,1.8,1.1,1.4*3C
$GPRMC,102234.000,A,5034.7824,N,00227.3185,W,4.71,124.13,161011,,,A*78
$GPGGA,102235.000,5034.7818,N,00227.3168,W,1,08,1.1,4.07,M,48.8,M,,0000*79
$GPGSA,M,3,25,23,29,31,16,21,30,06,,,,,1.8,1.1,1.4*3C
$GPRMC,102235.000,A,5034.7818,N,00227.3168,W,4.52,117.98,161011,,,A*77
$GPGGA,102236.000,5034.7814,N,00227.3152,W,1,08,1.1,4.02,M,48.8,M,,0000*7A
$GPGSA,M,3,25,23,29,31,16,21,30,06,,,,,1.8,1.1,1.4*3C
$GPGSV,3,1,12,30,86,108,38,29,64,064,36,31,61,228,39,21,34,162,38*74
$GPGSV,3,2,12,25,32,108,41,16,15,290,38,23,13,318,46,06,10,243,35*7D
$GPGSV,3,3,12,05,09,062,32,13,06,342,40,02,05,033,,12,02,108,42*7F
$GPRMC,102236.000,A,5034.7814,N,00227.3152,W,3.72,99.59,161011,,,A*4E
$GPGGA,102237.000,5034.7812,N,00227.3135,W,1,08,1.1,4.02,M,48.8,M,,0000*7C
$GPGSA,M,3,25,23,29,31,16,21,30,06,,,,,1.8,1.1,1.4*3C
$GPRMC,102237.000,A,5034.7812,N,00227.3135,W,4.00,102.71,161011,,,A*73
$GPGGA,102238.000,5034.7809,N,00227.3120,W,1,08,1.1,4.17,M,48.8,M,,0000*79
$GPGSA,M,3,25,23,29,31,16,21,30,06,,,,,1.8,1.1,1.4*3C
$GPRMC,102238.000,A,5034.7809,N,00227.3120,W,3.49,103.13,161011,,,A*7D
$GPGGA,102239.000,5034.7807,N,00227.3104,W,1,08,1.1,4.20,M,48.8,M,,0000*74
$GPGSA,M,3,25,23,29,31,16,21,30,06,,,,,1.8,1.1,1.4*3C
$GPRMC,102239.000,A,5034.7807,N,00227.3104,W,3.82,101.33,161011,,,A*73
$GPGGA,102240.000,5034.7806,N,00227.3089,W,1,08,1.1,4.25,M,48.8,M,,0000*7A
$GPGSA,M,3,25,23,29,31,16,21,30,06,,,,,1.8,1.1,1.4*3C
$GPRMC,102240.000,A,5034.7806,N,00227.3089,W,3.67,94.69,161011,,,A*41
$GPGGA,102241.000,5034.7805,N,00227.3073,W,1,08,1.1,4.28,M,48.8,M,,0000*70
$GPGSA,M,3,25,23,29,31,16,21,30,06,,,,,1.8,1.1,1.4*3C
$GPGSV,3,1,12,30,86,108,38,29,64,064,38,31,61,228,39,21,34,162,39*7B
$GPGSV,3,2,12,25,32,108,39,16,15,290,42,23,13,318,47,06,10,243,39*72
$GPGSV,3,3,12,05,09,062,23,13,06,342,42,02,05,033,,12,02,108,41*7E
$GPRMC,102241.000,A,5034.7805,N,00227.3073,W,3.74,93.86,161011,,,A*42
$GPGGA,102242.000,5034.7804,N,00227.3057,W,1,08,1.1,4.48,M,48.8,M,,0000*72
$GPGSA,M,3,25,23,29,31,16,21,30,06,,,,,1.8,1.1,1.4*3C
$GPRMC,102242.000,A,5034.7804,N,00227.3057,W,3.76,95.65,161011,,,A*4F
$GPGGA,102243.000,5034.7802,N,00227.3041,W,1,08,1.1,4.78,M,48.8,M,,0000*71
$GPGSA,M,3,25,23,29,31,16,21,30,06,,,,,1.8,1.1,1.4*3C
$GPRMC,102243.000,A,5034.7802,N,00227.3041,W,3.72,99.87,161011,,,A*4B
$GPGGA,102244.000,5034.7800,N,00227.3027,W,1,08,1.1,5.10,M,48.8,M,,0000*7B
$GPGSA,M,3,25,23,29,31,16,21,30,06,,,,,1.8,1.1,1.4*3C
$GPRMC,102244.000,A,5034.7800,N,00227.3027,W,3.42,106.02,161011,,,A*77
$GPGGA,102245.000,5034.7797,N,00227.3011,W,1,08,1.1,4.70,M,48.8,M,,0000*79
$GPGSA,M,3,25,23,29,31,16,21,30,06,,,,,1.8,1.1,1.4*3C
$GPRMC,102245.000,A,5034.7797,N,00227.3011,W,3.50,106.93,161011,,,A*79
$GPGGA,102246.000,5034.7793,N,00227.2997,W,1,08,1.1,4.17,M,48.8,M,,0000*79
$GPGSA,M,3,25,23,29,31,16,21,30,06,,,,,1.8,1.1,1.4*3C
$GPGSV,3,1,12,30,86,108,35,29,64,064,34,31,61,228,32,21,34,162,38*70
$GPGSV,3,2,12,25,32,108,43,16,15,290,40,23,13,318,40,06,10,243,30*73
$GPGSV,3,3,12,05,09,062,40,13,06,342,38,02,05,033,,12,02,108,42*75
$GPRMC,102246.000,A,5034.7793,N,00227.2997,W,3.30,116.08,161011,,,A*7D
$GPGGA,102247.000,5034.7787,N,00227.2985,W,1,08,1.1,3.97,M,48.8,M,,0000*71
$GPGSA,M,3,25,23,29,31,16,21,30,06,,,,,1.8,1.1,1.4*3C
$GPRMC,102247.000,A,5034.7787,N,00227.2985,W,3.25,127.71,161011,,,A*72
$GPGGA,102248.000,5034.7782,N,00227.2973,W,1,08,1.1,3.66,M,48.8,M,,0000*7C
$GPGSA,M,3,25,23,29,31,16,21,30,06,,,,,1.8,1.1,1.4*3C
$GPRMC,102248.000,A,5034.7782,N,00227.2973,W,3.61,127.73,161011,,,A*73
$GPGGA,102249.000,5034.7773,N,00227.2961,W,1,08,1.1,3.63,M,48.8,M,,0000*75
$GPGSA,M,3,25,23,29,31,16,21,30,06,,,,,1.8,1.1,1.4*3C
$GPRMC,102249.000,A,5034.7773,N,00227.2961,W,4.35,140.76,161011,,,A*7D
$GPGGA,102250.000,5034.7762,N,00227.2950,W,1,08,1.1,3.58,M,48.8,M,,0000*77
$GPGSA,M,3,25,23,29,31,16,21,30,06,,,,,1.8,1.1,1.4*3C
$GPRMC,102250.000,A,5034.7762,N,00227.2950,W,4.99,144.83,161011,,,A*7F
$GPGGA,102251.000,5034.7750,N,00227.2936,W,1,08,1.1,3.53,M,48.8,M,,0000*7C
$GPGSA,M,3,25,23,29,31,16,21,30,06,,,,,1.8,1.1,1.4*3C
$GPGSV,3,1,12,30,86,108,41,29,64,064,34,31,61,228,38,21,34,162,35*74
$GPGSV,3,2,12,25,32,108,39,16,15,290,43,23,13,318,35,06,10,243,44*7C
$GPGSV,3,3,12,05,09,062,34,13,06,342,39,02,05,033,,12,02,108,35*77
$GPRMC,102251.000,A,5034.7750,N,00227.2936,W,5.59,137.57,161011,,,A*7F
$GPGGA,102252.000,5034.7739,N,00227.2919,W,1,08,1.1,3.45,M,48.8,M,,0000*7A
$GPGSA,M,3,25,23,29,31,16,21,30,06,,,,,1.8,1.1,1.4*3C
$GPRMC,102252.000,A,5034.7739,N,00227.2919,W,5.27,130.52,161011,,,A*75
$GPGGA,102253.000,5034.7730,N,00227.2902,W,1,08,1.1,3.35,M,48.8,M,,0000*7F
$GPGSA,M,3,25,23,29,31,16,21,30,06,,,,,1.8,1.1,1.4*3C
$GPRMC,102253.000,A,5034.7730,N,00227.2902,W,5.15,129.77,161011,,,A*79
$GPGGA,102254.000,5034.7720,N,00227.2885,W,1,08,1.1,3.52,M,48.8,M,,0000*76
$GPGSA,M,3,25,23,29,31,16,21,30,06,,,,,1.8,1.1,1.4*3C
$GPRMC,102254.000,A,5034.7720,N,00227.2885,W,5.59,126.65,161011,,,A*75
$GPGGA,102255.000,5034.7712,N,00227.2866,W,1,08,1.1,3.52,M,48.8,M,,0000*7B
$GPGSA,M,3,25,23,29,31,16,21,30,06,,,,,1.8,1.1,1.4*3C
$GPRMC,102255.000,A,5034.7712,N,00227.2866,W,4.82,117.73,161011,,,A*7A
$GPGGA,102256.000,5034.7706,N,00227.2847,W,1,08,1.1,3.50,M,48.8,M,,0000*7C
$GPGSA,M,3,25,23,29,31,16,21,30,06,,,,,1.8,1.1,1.4*3C
$GPGSV,3,1,12,30,86,108,35,29,64,064,38,31,61,228,37,21,34,162,36*77
$GPGSV,3,2,12,25,32,108,37,16,15,290,39,23,13,318,45,06,10,243,41*7D
$GPGSV,3,3,12,05,09,062,28,13,06,342,39,02,05,033,,12,02,108,43*7B
$GPRMC,102256.000,A,5034.7706,N,00227.2847,W,4.71,114.96,161011,,,A*7B
$GPGGA,102257.000,5034.7700,N,00227.2830,W,1,08,1.1,3.62,M,48.8,M,,0000*7A
$GPGSA,M,3,25,23,29,31,16,21,30,06,,,,,1.8,1.1,1.4*3C
$GPRMC,102257.000,A,5034.7700,N,00227.2830,W,4.40,120.57,161011,,,A*74
$GPGGA,102258.000,5034.7694,N,00227.2813,W,1,08,1.1,3.70,M,48.8,M,,0000*7B
$GPGSA,M,3,25,23,29,31,16,21,30,06,,,,,1.8,1.1,1.4*3C
$GPRMC,102258.000,A,5034.7694,N,00227.2813,W,4.34,117.22,161011,,,A*73
$GPGGA,102259.000,5034.7688,N,00227.2796,W,1,08,1.1,3.61,M,48.8,M,,0000*75
$GPGSA,M,3,25,23,29,31,16,21,30,06,,,,,1.8,1.1,1.4*3C
$GPRMC,102259.000,A,5034.7688,N,00227.2796,W,4.69,118.99,161011,,,A*7A
$GPGGA,102300.000,5034.7681,N,00227.2780,W,1,08,1.1,3.69,M,48.8,M,,0000*7E
$GPGSA,M,3,25,23,29,31,16,21,30,06,,,,,1.8,1.1,1.4*3C
$GPRMC,102300.000,A,5034.7681,N,00227.2780,W,3.96,126.25,161011,,,A*74
$GPGGA,102301.000,5034.7674,N,00227.2768,W,1,08,1.1,3.73,M,48.8,M,,0000*78
$GPGSA,M,3,25,23,29,31,16,21,30,06,,,,,1.8,1.1,1.4*3C
$GPGSV,3,1,12,30,86,108,41,29,64,064,37,31,61,228,42,21,34,162,38*77
$GPGSV,3,2,12,25,32,108,38,16,15,290,39,23,13,318,42,06,10,243,34*77
$GPGSV,3,3,12,05,09,062,40,13,06,342,32,02,05,033,,12,02,108,35*7F
$GPRMC,102301.000,A,5034.7674,N,00227.2768,W,3.56,132.58,161011,,,A*7A
$GPGGA,102302.000,5034.7667,N,00227.2757,W,1,08,1.1,3.80,M,48.8,M,,0000*79
$GPGSA,M,3,25,23,29,31,16,21,30,06,,,,,1.8,1.1,1.4*3C
$GPRMC,102302.000,A,5034.7667,N,00227.2757,W,3.41,128.39,161011,,,A*7D
$GPGGA,102303.000,5034.7659,N,00227.2746,W,1,08,1.1,3.97,M,48.8,M,,0000*73
$GPGSA,M,3,25,23,29,31,16,21,30,06,,,,,1.8,1.1,1.4*3C
$GPRMC,102303.000,A,5034.7659,N,00227.2746,W,4.30,145.30,161011,,,A*72
$GPGGA,102304.000,5034.7650,N,00227.2737,W,1,08,1.1,4.07,M,48.8,M,,0000*75
$GPGSA,M,3,25,23,29,31,16,21,30,06,,,,,1.8,1.1,1.4*3C
$GPRMC,102304.000,A,5034.7650,N,00227.2737,W,3.95,145.53,161011,,,A*77
$GPGGA,102305.000,5034.7639,N,00227.2727,W,1,08,1.1,4.32,M,48.8,M,,0000*7C
$GPGSA,M,3,25,23,29,31,16,21,30,06,,,,,1.8,1.1,1.4*3C
$GPRMC,102305.000,A,5034.7639,N,00227.2727,W,4.89,147.51,161011,,,A*72
$GPGGA,102306.000,5034.7629,N,00227.2717,W,1,08,1.1,4.62,M,48.8,M,,0000*78
$GPGSA,M,3,25,23,29,31,16,21,30,06,,,,,1.8,1.1,1.4*3C
$GPGSV,3,1,12,30,86,108,39,29,64,064,37,31,61,228,41,21,34,162,38*7B
$GPGSV,3,2,12,25,32,108,37,16,15,290,42,23,13,318,49,06,10,243,37*7C
$GPGSV,3,3,12,05,09,062,27,13,06,342,42,02,05,033,,12,02,108,40*7B
$GPRMC,102306.000,A,5034.7629,N,00227.2717,W,4.36,144.89,161011,,,A*71
$GPGGA,102307.000,5034.7619,N,00227.2705,W,1,08,1.1,4.66,M,48.8,M,,0000*7D
$GPGSA,M,3,25,23,29,31,16,21,30,06,,,,,1.8,1.1,1.4*3C
$GPRMC,102307.000,A,5034.7619,N,00227.2705,W,4.16,139.52,161011,,,A*7E
$GPGGA,102308.000,5034.7611,N,00227.2693,W,1,08,1.1,4.86,M,48.8,M,,0000*7A
$GPGSA,M,3,25,23,29,31,16,21,30,06,,,,,1.8,1.1,1.4*3C
$GPRMC,102308.000,A,5034.7611,N,00227.2693,W,4.23,136.53,161011,,,A*7F
$GPGGA,102309.000,5034.7603,N,00227.2680,W,1,08,1.1,4.99,M,48.8,M,,0000*74
$GPGSA,M,3,25,23,29,31,16,21,30,06,,,,,1.8,1.1,1.4*3C
$GPRMC,102309.000,A,5034.7603,N,00227.2680,W,4.59,133.79,161011,,,A*7F
$GPGGA,102310.000,5034.7593,N,00227.2666,W,1,08,1.1,4.95,M,48.8,M,,0000*72
$GPGSA,M,3,25,23,29,31,16,21,30,06,,,,,1.8,1.1,1.4*3C
$GPRMC,102310.000,A,5034.7593,N,00227.2666,W,4.58,141.45,161011,,,A*7E
$GPGGA,102311.000,5034.7585,N,00227.2655,W,1,08,1.1,4.99,M,48.8,M,,0000*78
$GPGSA,M,3,25,23,29,31,16,21,30,06,,,,,1.8,1.1,1.4*3C
$GPGSV,3,1,12,30,86,108,41,29,64,064,33,31,61,228,40,21,34,162,35*7C
$GPGSV,3,2,12,25,32,108,40,16,15,290,41,23,13,318,48,06,10,243,37*7E
$GPGSV,3,3,12,05,09,062,28,13,06,342,42,02,05,033,,12,02,108,41*75
$GPRMC,102311.000,A,5034.7585,N,00227.2655,W,3.72,134.06,161011,,,A*72
$GPGGA,102312.000,5034.7577,N,00227.2644,W,1,08,1.1,5.05,M,48.8,M,,0000*72
$GPGSA,M,3,25,23,29,31,16,21,30,06,,,,,1.8,1.1,1.4*3C
$GPRMC,102312.000,A,5034.7577,N,00227.2644,W,3.64,136.94,161011,,,A*72
$GPGGA,102313.000,5034.7568,N,00227.2633,W,1,08,1.1,5.06,M,48.8,M,,0000*7E
$GPGSA,M,3,25,23,29,31,16,21,30,06,,,,,1.8,1.1,1.4*3C
$GPRMC,102313.000,A,5034.7568,N,00227.2633,W,4.34,143.25,161011,,,A*77
$GPGGA,102314.000,5034.7558,N,00227.2622,W,1,08,1.1,5.03,M,48.8,M,,0000*7F
$GPGSA,M,3,25,23,29,31,16,21,30,06,,,,,1.8,1.1,1.4*3C
$GPRMC,102314.000,A,5034.7558,N,00227.2622,W,4.59,144.18,161011,,,A*71
$GPGGA,102315.000,5034.7548,N,00227.2611,W,1,08,1.1,5.12,M,48.8,M,,0000*7F
$GPGSA,M,3,25,23,29,31,16,21,30,06,,,,,1.8,1.1,1.4*3C
$GPRMC,102315.000,A,5034.7548,N,00227.2611,W,4.67,142.87,161011,,,A*7C
$GPGGA,102316.000,5034.7537,N,00227.2597,W,1,07,1.2,5.14,M,48.8,M,,0000*73
$GPGSA,M,3,25,23,31,16,21,30,06,,,,,,1.9,1.2,1.5*34
$GPGSV,3,1,12,30,86,108,38,29,64,064,,31,61,228,39,21,34,162,34*7D
$GPGSV,3,2,12,25,32,108,39,16,15,290,36,23,13,318,49,06,10,243,37*71
$GPGSV,3,3,12,05,09,062,27,13,06,342,42,02,05,033,,12,02,108,43*78
$GPRMC,102316.000,A,5034.7537,N,00227.2597,W,4.90,139.14,161011,,,A*74
$GPGGA,102317.000,5034.7528,N,00227.2584,W,1,07,1.2,5.10,M,48.8,M,,0000*7A
$GPGSA,M,3,25,23,31,16,21,30,06,,,,,,1.9,1.2,1.5*34
$GPRMC,102317.000,A,5034.7528,N,00227.2584,W,4.15,129.41,161011,,,A*75
$GPGGA,102318.000,5034.7520,N,00227.2571,W,1,07,1.2,5.21,M,48.8,M,,0000*75
$GPGSA,M,3,25,23,31,16,21,30,06,,,,,,1.9,1.2,1.5*34
$GPRMC,102318.000,A,5034.7520,N,00227.2571,W,4.15,139.11,161011,,,A*7C
$GPGGA,102319.000,5034.7512,N,00227.2561,W,1,07,1.2,5.40,M,48.8,M,,0000*73
$GPGSA,M,3,25,23,31,16,21,30,06,,,,,,1.9,1.2,1.5*34
$GPRMC,102319.000,A,5034.7512,N,00227.2561,W,3.61,136.47,161011,,,A*75
$GPGGA,102320.000,5034.7505,N,00227.2552,W,1,07,1.2,5.45,M,48.8,M,,0000*7A
$GPGSA,M,3,25,23,31,16,21,30,06,,,,,,1.9,1.2,1.5*34
$GPRMC,102320.000,A,5034.7505,N,00227.2552,W,3.19,137.20,161011,,,A*76
$GPGGA,102321.000,5034.7498,N,00227.2543,W,1,07,1.2,5.59,M,48.8,M,,0000*73
$GPGSA,M,3,25,23,31,16,21,30,06,,,,,,1.9,1.2,1.5*34
$GPGSV,3,1,12,30,86,108,39,29,64,064,,31,61,228,42,21,34,162,38*7C
$GPGSV,3,2,12,25,32,108,36,16,15,290,41,23,13,318,49,06,10,243,36*7F
$GPGSV,3,3,12,05,09,062,29,13,06,342,44,02,05,033,41,12,02,108,40*76
$GPRMC,102321.000,A,5034.7498,N,00227.2543,W,3.27,144.11,161011,,,A*79
$GPGGA,102322.000,5034.7489,N,00227.2534,W,1,07,1.2,5.56,M,48.8,M,,0000*7F
$GPGSA,M,3,25,23,31,16,21,30,06,,,,,,1.9,1.2,1.5*34
$GPRMC,102322.000,A,5034.7489,N,00227.2534,W,4.10,146.93,161011,,,A*71
$GPGGA,102323.000,5034.7480,N,00227.2524,W,1,07,1.2,5.60,M,48.8,M,,0000*73
$GPGSA,M,3,25,23,31,16,21,30,06,,,,,,1.9,1.2,1.5*34
$GPRMC,102323.000,A,5034.7480,N,00227.2524,W,4.02,147.11,161011,,,A*70
$GPGGA,102324.000,5034.7470,N,00227.2515,W,1,07,1.2,5.56,M,48.8,M,,0000*7C
$GPGSA,M,3,25,23,31,16,21,30,06,,,,,,1.9,1.2,1.5*34
$GPRMC,102324.000,A,5034.7470,N,00227.2515,W,4.04,145.95,161011,,,A*72
$GPGGA,102325.000,5034.7460,N,00227.2504,W,1,07,1.2,5.39,M,48.8,M,,0000*75
$GPGSA,M,3,25,23,31,16,21,30,06,,,,,,1.9,1.2,1.5*34
$GPRMC,102325.000,A,5034.7460,N,00227.2504,W,4.28,144.22,161011,,,A*71
$GPGGA,102326.000,5034.7451,N,00227.2494,W,1,07,1.2,5.55,M,48.8,M,,0000*76
$GPGSA,M,3,25,23,31,16,21,30,06,,,,,,1.9,1.2,1.5*34
$GPGSV,3,1,12,30,86,108,32,29,64,064,,31,61,228,40,21,34,162,38*75
$GPGSV,3,2,12,25,32,108,41,16,15,290,40,23,13,318,49,06,10,243,37*7F
$GPGSV,3,3,12,05,09,062,22,13,06,342,43,02,05,033,33,12,02,108,41*7E
$GPRMC,102326.000,A,5034.7451,N,00227.2494,W,4.17,149.10,161011,,,A*78
$GPGGA,102327.000,5034.7440,N,00227.2484,W,1,07,1.2,5.41,M,48.8,M,,0000*73
$GPGSA,M,3,25,23,31,16,21,30,06,,,,,,1.9,1.2,1.5*34
$GPRMC,102327.000,A,5034.7440,N,00227.2484,W,4.27,143.52,161011,,,A*77
$GPGGA,102328.000,5034.7431,N,00227.2472,W,1,07,1.2,5.38,M,48.8,M,,0000*7D
$GPGSA,M,3,25,23,31,16,21,30,06,,,,,,1.9,1.2,1.5*34
$GPRMC,102328.000,A,5034.7431,N,00227.2472,W,4.40,135.92,161011,,,A*7B
$GPGGA,102329.000,5034.7423,N,00227.2460,W,1,07,1.2,5.49,M,48.8,M,,0000*7A
$GPGSA,M,3,25,23,31,16,21,30,06,,,,,,1.9,1.2,1.5*34
$GPRMC,102329.000,A,5034.7423,N,00227.2460,W,3.98,137.24,161011,,,A*77
$GPGGA,102330.000,5034.7414,N,00227.2450,W,1,07,1.2,5.51,M,48.8,M,,0000*7C
$GPGSA,M,3,25,23,31,16,21,30,06,,,,,,1.9,1.2,1.5*34
$GPRMC,102330.000,A,5034.7414,N,00227.2450,W,3.79,145.64,161011,,,A*76
$GPGGA,102331.000,5034.7405,N,00227.2441,W,1,07,1.2,5.47,M,48.8,M,,0000*7A
$GPGSA,M,3,25,23,31,16,21,30,06,,,,,,1.9,1.2,1.5*34
$GPGSV,3,1,12,30,86,108,35,29,64,064,,31,61,228,40,21,34,162,40*7D
$GPGSV,3,2,12,25,32,108,36,16,15,290,41,23,13,318,49,06,10,243,37*7E
$GPGSV,3,3,12,05,09,062,26,13,06,342,42,02,05,033,,12,02,108,42*78
$GPRMC,102331.000,A,5034.7405,N,00227.2441,W,3.89,144.72,161011,,,A*7E
$GPGGA,102332.000,5034.7397,N,00227.2432,W,1,07,1.2,5.46,M,48.8,M,,0000*70
$GPGSA,M,3,25,23,31,16,21,30,06,,,,,,1.9,1.2,1.5*34
$GPRMC,102332.000,A,5034.7397,N,00227.2432,W,3.34,146.34,161011,,,A*73
$GPGGA,102333.000,5034.7388,N,00227.2424,W,1,07,1.2,5.24,M,48.8,M,,0000*7C
$GPGSA,M,3,25,23,31,16,21,30,06,,,,,,1.9,1.2,1.5*34
$GPRMC,102333.000,A,5034.7388,N,00227.2424,W,3.42,147.38,161011,,,A*77
$GPGGA,102334.000,5034.7379,N,00227.2417,W,1,07,1.2,5.21,M,48.8,M,,0000*70
$GPGSA,M,3,25,23,31,16,21,30,06,,,,,,1.9,1.2,1.5*34
$GPRMC,102334.000,A,5034.7379,N,00227.2417,W,3.75,150.38,161011,,,A*7C
$GPGGA,102335.000,5034.7370,N,00227.2408,W,1,08,1.1,5.09,M,48.8,M,,0000*70
$GPGSA,M,3,25,23,29,31,16,21,30,06,,,,,1.8,1.1,1.4*3C
$GPRMC,102335.000,A,5034.7370,N,00227.2408,W,4.11,146.26,161011,,,A*77
$GPGGA,102336.000,5034.7361,N,00227.2398,W,1,08,1.1,5.20,M,48.8,M,,0000*76
$GPGSA,M,3,25,23,29,31,16,21,30,06,,,,,1.8,1.1,1.4*3C
$GPGSV,3,1,12,30,85,111,36,29,64,064,33,31,60,227,40,21,35,162,37*7A
$GPGSV,3,2,12,25,32,108,37,16,15,290,41,23,13,317,48,06,10,243,37*71
$GPGSV,3,3,12,05,09,062,,13,06,341,43,02,05,033,40,12,01,108,38*74
$GPRMC,102336.000,A,5034.7361,N,00227.2398,W,3.61,141.28,161011,,,A*73
$GPGGA,102337.000,5034.7353,N,00227.2389,W,1,08,1.1,5.18,M,48.8,M,,0000*7D
$GPGSA,M,3,25,23,29,31,16,21,30,06,,,,,1.8,1.1,1.4*3C
$GPRMC,102337.000,A,5034.7353,N,00227.2389,W,3.47,139.93,161011,,,A*78
$GPGGA,102338.000,5034.7345,N,00227.2379,W,1,08,1.1,5.12,M,48.8,M,,0000*70
$GPGSA,M,3,25,23,29,31,16,21,30,06,,,,,1.8,1.1,1.4*3C
$GPRMC,102338.000,A,5034.7345,N,00227.2379,W,3.95,140.41,161011,,,A*71
$GPGGA,102339.000,5034.7336,N,00227.2368,W,1,08,1.1,5.15,M,48.8,M,,0000*72
$GPGSA,M,3,25,23,29,31,16,21,30,06,,,,,1.8,1.1,1.4*3C
$GPRMC,102339.000,A,5034.7336,N,00227.2368,W,4.10,139.57,161011,,,A*77
$GPGGA,102340.000,5034.7327,N,00227.2357,W,1,08,1.1,4.94,M,48.8,M,,0000*78
$GPGSA,M,3,25,23,29,31,16,21,30,06,,,,,1.8,1.1,1.4*3C
$GPRMC,102340.000,A,5034.7327,N,00227.2357,W,3.72,140.71,161011,,,A*7C
$GPGGA,102341.000,5034.7319,N,00227.2349,W,1,08,1.1,5.02,M,48.8,M,,0000*75
$GPGSA,M,3,25,23,29,31,16,21,30,06,,,,,1.8,1.1,1.4*3C
$GPGSV,3,1,12,30,85,111,38,29,64,064,35,31,60,227,40,21,35,162,36*73
$GPGSV,3,2,12,25,32,108,36,16,15,290,42,23,13,317,46,06,10,243,37*7D
$GPGSV,3,3,12,05,09,062,,13,06,341,37,02,05,033,30,12,01,108,35*7D
$GPRMC,102341.000,A,5034.7319,N,00227.2349,W,3.22,149.48,161011,,,A*79
$GPGGA,102342.000,5034.7310,N,00227.2342,W,1,08,1.1,5.07,M,48.8,M,,0000*71
$GPGSA,M,3,25,23,29,31,16,21,30,06,,,,,1.8,1.1,1.4*3C
$GPRMC,102342.000,A,5034.7310,N,00227.2342,W,3.98,151.03,161011,,,A*7F
$GPGGA,102343.000,5034.7300,N,00227.2333,W,1,08,1.1,5.17,M,48.8,M,,0000*76
$GPGSA,M,3,25,23,29,31,16,21,30,06,,,,,1.8,1.1,1.4*3C
$GPRMC,102343.000,A,5034.7300,N,00227.2333,W,4.33,149.78,161011,,,A*7A
$GPGGA,102344.000,5034.7290,N,00227.2325,W,1,08,1.1,5.42,M,48.8,M,,0000*7E
$GPGSA,M,3,25,23,29,31,16,21,30,06,,,,,1.8,1.1,1.4*3C
$GPRMC,102344.000,A,5034.7290,N,00227.2325,W,3.80,151.47,161011,,,A*78
$GPGGA,102345.000,5034.7281,N,00227.2316,W,1,08,1.1,5.46,M,48.8,M,,0000*7B
$GPGSA,M,3,25,23,29,31,16,21,30,06,,,,,1.8,1.1,1.4*3C
$GPRMC,102345.000,A,5034.7281,N,00227.2316,W,3.64,146.69,161011,,,A*79
$GPGGA,102346.000,5034.7273,N,00227.2307,W,1,08,1.1,5.56,M,48.8,M,,0000*74
$GPGSA,M,3,25,23,29,31,16,21,30,06,,,,,1.8,1.1,1.4*3C
$GPGSV,3,1,12,30,85,111,38,29,63,064,31,31,60,227,40,21,35,162,38*7E
$GPGSV,3,2,12,25,31,108,41,16,15,290,41,23,13,317,48,06,11,244,33*71
$GPGSV,3,3,12,05,09,061,,13,06,341,42,02,05,033,33,10,01,010,33*73
$GPRMC,102346.000,A,5034.7273,N,00227.2307,W,3.44,141.11,161011,,,A*7D
$GPGGA,102347.000,5034.7265,N,00227.2296,W,1,07,1.2,5.60,M,48.8,M,,0000*72
$GPGSA,M,3,25,23,31,16,21,30,06,,,,,,1.9,1.2,1.5*34
$GPRMC,102347.000,A,5034.7265,N,00227.2296,W,4.14,137.21,161011,,,A*72
$GPGGA,102348.000,5034.7257,N,00227.2285,W,1,08,1.1,5.65,M,48.8,M,,0000*77
$GPGSA,M,3,25,23,29,31,16,21,30,06,,,,,1.8,1.1,1.4*3C
$GPRMC,102348.000,A,5034.7257,N,00227.2285,W,3.27,132.73,161011,,,A*7B
$GPGGA,102349.000,5034.7251,N,00227.2275,W,1,08,1.1,5.59,M,48.8,M,,0000*70
$GPGSA,M,3,25,23,29,31,16,21,30,06,,,,,1.8,1.1,1.4*3C
$GPRMC,102349.000,A,5034.7251,N,00227.2275,W,3.00,137.09,161011,,,A*7E
$GPGGA,102350.000,5034.7243,N,00227.2266,W,1,08,1.1,5.37,M,48.8,M,,0000*71
$GPGSA,M,3,25,23,29,31,16,21,30,06,,,,,1.8,1.1,1.4*3C
$GPRMC,102350.000,A,5034.7243,N,00227.2266,W,3.55,137.73,161011,,,A*7A
$GPGGA,102351.000,5034.7235,N,00227.2254,W,1,08,1.1,5.34,M,48.8,M,,0000*73
$GPGSA,M,3,25,23,29,31,16,21,30,06,,,,,1.8,1.1,1.4*3C
$GPGSV,3,1,12,30,85,111,39,29,63,064,37,31,60,227,41,21,35,162,37*77
$GPGSV,3,2,12,25,31,108,37,16,15,290,42,23,13,317,42,06,11,244,37*7D
$GPGSV,3,3,12,05,09,061,,13,06,341,43,02,05,033,32,10,01,010,40*77
$GPRMC,102351.000,A,5034.7235,N,00227.2254,W,4.40,130.81,161011,,,A*72
$GPGGA,102352.000,5034.7228,N,00227.2238,W,1,08,1.1,5.28,M,48.8,M,,0000*7B
$GPGSA,M,3,25,23,29,31,16,21,30,06,,,,,1.8,1.1,1.4*3C
$GPRMC,102352.000,A,5034.7228,N,00227.2238,W,4.41,118.94,161011,,,A*78
$GPGGA,102353.000,5034.7223,N,00227.2221,W,1,08,1.1,5.37,M,48.8,M,,0000*77
$GPGSA,M,3,25,23,29,31,16,21,30,06,,,,,1.8,1.1,1.4*3C
$GPRMC,102353.000,A,5034.7223,N,00227.2221,W,4.76,109.79,161011,,,A*7D
$GPGGA,102354.000,5034.7219,N,00227.2202,W,1,08,1.1,5.60,M,48.8,M,,0000*7A
$GPGSA,M,3,25,23,29,31,16,21,30,06,,,,,1.8,1.1,1.4*3C
$GPRMC,102354.000,A,5034.7219,N,00227.2202,W,4.70,111.81,161011,,,A*7A
$GPGGA,102355.000,5034.7215,N,00227.2184,W,1,08,1.1,5.77,M,48.8,M,,0000*7C
$GPGSA,M,3,25,23,29,31,16,21,30,06,,,,,1.8,1.1,1.4*3C
$GPRMC,102355.000,A,5034.7215,N,00227.2184,W,4.50,109.31,161011,,,A*7A
$GPGGA,102356.000,5034.7210,N,00227.2167,W,1,08,1.1,5.90,M,48.8,M,,0000*7E
$GPGSA,M,3,25,23,29,31,16,21,30,06,,,,,1.8,1.1,1.4*3C
$GPGSV,3,1,12,30,85,111,34,29,63,064,40,31,60,227,41,21,35,162,37*7A
$GPGSV,3,2,12,25,31,108,35,16,15,290,43,23,13,317,39,06,11,244,37*72
$GPGSV,3,3,12,05,09,061,,13,06,341,27,02,05,033,31,10,01,010,36*77
$GPRMC,102356.000,A,5034.7210,N,00227.2167,W,4.37,116.74,161011,,,A*7F
$GPGGA,102357.000,5034.7202,N,00227.2151,W,1,08,1.1,5.79,M,48.8,M,,0000*7E
$GPGSA,M,3,25,23,29,31,16,21,30,06,,,,,1.8,1.1,1.4*3C
$GPRMC,102357.000,A,5034.7202,N,00227.2151,W,4.51,121.60,161011,,,A*79
$GPGGA,102358.000,5034.7194,N,00227.2135,W,1,08,1.1,5.61,M,48.8,M,,0000*76
$GPGSA,M,3,25,23,29,31,16,21,30,06,,,,,1.8,1.1,1.4*3C
$GPRMC,102358.000,A,5034.7194,N,00227.2135,W,4.58,125.96,161011,,,A*7C
$GPGGA,102359.000,5034.7186,N,00227.2119,W,1,08,1.1,5.74,M,48.8,M,,0000*7E
$GPGSA,M,3,25,23,29,31,16,21,30,06,,,,,1.8,1.1,1.4*3C
$GPRMC,102359.000,A,5034.7186,N,00227.2119,W,5.29,126.93,161011,,,A*71
$GPGGA,102400.000,5034.7178,N,00227.2101,W,1,08,1.1,5.75,M,48.8,M,,0000*7C
$GPGSA,M,3,25,23,29,31,16,21,30,06,,,,,1.8,1.1,1.4*3C
$GPRMC,102400.000,A,5034.7178,N,00227.2101,W,4.52,119.25,161011,,,A*7E
$GPGGA,102401.000,5034.7172,N,00227.2085,W,1,08,1.1,5.71,M,48.8,M,,0000*7E
$GPGSA,M,3,25,23,29,31,16,21,30,06,,,,,1.8,1.1,1.4*3C
$GPGSV,3,1,12,30,85,111,38,29,63,064,38,31,60,227,39,21,35,162,36*77
$GPGSV,3,2,12,25,31,108,39,16,15,290,42,23,13,317,48,06,11,244,40*79
$GPGSV,3,3,12,05,09,061,,13,06,341,41,02,05,033,32,10,01,010,36*74
$GPRMC,102401.000,A,5034.7172,N,00227.2085,W,4.38,121.72,161011,,,A*7D
$GPGGA,102402.000,5034.7164,N,00227.2068,W,1,08,1.1,5.44,M,48.8,M,,0000*7F
$GPGSA,M,3,25,23,29,31,16,21,30,06,,,,,1.8,1.1,1.4*3C
$GPRMC,102402.000,A,5034.7164,N,00227.2068,W,4.67,124.92,161011,,,A*7B
$GPGGA,102403.000,5034.7157,N,00227.2051,W,1,08,1.1,5.32,M,48.8,M,,0000*75
$GPGSA,M,3,25,23,29,31,16,21,30,06,,,,,1.8,1.1,1.4*3C
$GPRMC,102403.000,A,5034.7157,N,00227.2051,W,4.61,118.59,161011,,,A*7E
$GPGGA,102404.000,5034.7150,N,00227.2034,W,1,08,1.1,5.31,M,48.8,M,,0000*75
$GPGSA,M,3,25,23,29,31,16,21,30,06,,,,,1.8,1.1,1.4*3C
$GPRMC,102404.000,A,5034.7150,N,00227.2034,W,4.59,119.41,161011,,,A*7E
$GPGGA,102405.000,5034.7144,N,00227.2018,W,1,08,1.1,5.28,M,48.8,M,,0000*77
$GPGSA,M,3,25,23,29,31,16,21,30,06,,,,,1.8,1.1,1.4*3C
$GPRMC,102405.000,A,5034.7144,N,00227.2018,W,4.21,121.62,161011,,,A*71
$GPGGA,102406.000,5034.7137,N,00227.2002,W,1,08,1.1,5.22,M,48.8,M,,0000*71
$GPGSA,M,3,25,23,29,31,16,21,30,06,,,,,1.8,1.1,1.4*3C
$GPGSV,3,1,12,30,85,111,38,29,63,064,33,31,60,227,40,21,35,162,37*73
$GPGSV,3,2,12,25,31,108,37,16,15,290,42,23,13,317,47,06,11,244,40*78
$GPGSV,3,3,12,05,09,061,,13,06,341,41,02,05,033,32,10,01,010,37*75
$GPRMC,102406.000,A,5034.7137,N,00227.2002,W,4.20,121.30,161011,,,A*7B
$GPGGA,102407.000,5034.7131,N,00227.1990,W,1,08,1.1,5.25,M,48.8,M,,0000*70
$GPGSA,M,3,25,23,29,31,16,21,30,06,,,,,1.8,1.1,1.4*3C
