$GPGGA,091020.143,,,,,0,00,,,M,0.0,M,,0000*5A
$GPGSA,M,1,,,,,,,,,,,,,,,*12
$GPRMC,091020.143,V,,,,,,,161011,,,N*47
$GPGGA,091021.143,,,,,0,00,,,M,0.0,M,,0000*5B
$GPGSA,M,1,,,,,,,,,,,,,,,*12
$GPGSV,3,1,10,29,75,177,29,25,62,083,46,30,59,288,,31,55,295,*72
$GPGSV,3,2,10,12,28,089,46,02,25,053,43,14,19,220,44,21,04,172,*79
$GPGSV,3,3,10,23,01,342,,10,00,038,*77
$GPRMC,091021.143,V,,,,,,,161011,,,N*46
$GPGGA,091022.143,,,,,0,00,,,M,0.0,M,,0000*58
$GPGSA,M,1,,,,,,,,,,,,,,,*12
$GPRMC,091022.143,V,,,,,,,161011,,,N*45
$GPGGA,091023.143,,,,,0,00,,,M,0.0,M,,0000*59
$GPGSA,M,1,,,,,,,,,,,,,,,*12
$GPRMC,091023.143,V,,,,,,,161011,,,N*44
$GPGGA,091024.143,,,,,0,00,,,M,0.0,M,,0000*5E
$GPGSA,M,1,,,,,,,,,,,,,,,*12
$GPRMC,091024.143,V,,,,,,,161011,,,N*43
$GPGGA,091025.143,,,,,0,00,,,M,0.0,M,,0000*5F
$GPGSA,M,1,,,,,,,,,,,,,,,*12
$GPRMC,091025.143,V,,,,,,,161011,,,N*42
$GPGGA,091026.143,,,,,0,00,,,M,0.0,M,,0000*5C
$GPGSA,M,1,,,,,,,,,,,,,,,*12
$GPGSV,3,1,10,29,75,177,32,25,62,083,46,30,59,288,,31,55,295,*78
$GPGSV,3,2,10,12,28,089,47,02,25,053,45,14,19,220,44,21,04,172,*7E
$GPGSV,3,3,10,23,01,342,,10,00,038,*77
$GPRMC,091026.143,V,,,,,,,161011,,,N*41
$GPGGA,091027.143,,,,,0,00,,,M,0.0,M,,0000*5D
$GPGSA,M,1,,,,,,,,,,,,,,,*12
$GPRMC,091027.143,V,,,,,,,161011,,,N*40
$GPGGA,091028.143,,,,,0,00,,,M,0.0,M,,0000*52
$GPGSA,M,1,,,,,,,,,,,,,,,*12
$GPRMC,091028.143,V,,,,,,,161011,,,N*4F
$GPGGA,091029.143,,,,,0,00,,,M,0.0,M,,0000*53
$GPGSA,M,1,,,,,,,,,,,,,,,*12
$GPRMC,091029.143,V,,,,,,,161011,,,N*4E
$GPGGA,091030.143,,,,,0,00,,,M,0.0,M,,0000*5B
$GPGSA,M,1,,,,,,,,,,,,,,,*12
$GPRMC,091030.143,V,,,,,,,161011,,,N*46
$GPGGA,091031.143,,,,,0,00,,,M,0.0,M,,0000*5A
$GPGSA,M,1,,,,,,,,,,,,,,,*12
$GPGSV,3,1,10,29,75,177,35,25,62,083,46,30,59,288,,31,55,295,*7F
$GPGSV,3,2,10,12,28,089,47,02,25,053,45,14,19,220,42,21,04,172,*78
$GPGSV,3,3,10,23,01,342,,10,00,038,*77
$GPRMC,091031.143,V,,,,,,,161011,,,N*47
$GPGGA,091032.143,,,,,0,00,,,M,0.0,M,,0000*59
$GPGSA,M,1,,,,,,,,,,,,,,,*12
$GPRMC,091032.143,V,,,,,,,161011,,,N*44
$GPGGA,091033.143,5034.2769,N,00227.3720,W,1,04,2.8,4.40,M,48.8,M,,0000*73
$GPGSA,M,3,12,14,02,25,,,,,,,,,3.8,2.8,2.5*3B
$GPRMC,091033.143,A,5034.2769,N,00227.3720,W,0.31,163.54,161011,,,A*7A
$GPGGA,091034.143,5034.2768,N,00227.3720,W,1,04,2.8,4.66,M,48.8,M,,0000*71
$GPGSA,M,3,12,14,02,25,,,,,,,,,3.8,2.8,2.5*3B
$GPRMC,091034.143,A,5034.2768,N,00227.3720,W,0.28,329.04,161011,,,A*7D
$GPGGA,091035.000,5034.2768,N,00227.3720,W,1,04,2.8,4.79,M,48.8,M,,0000*78
$GPGSA,M,3,12,14,02,25,,,,,,,,,3.8,2.8,2.5*3B
$GPRMC,091035.000,A,5034.2768,N,00227.3720,W,0.09,345.92,161011,,,A*7C
$GPGGA,091036.000,5034.2768,N,00227.3721,W,1,04,2.8,4.85,M,48.8,M,,0000*79
$GPGSA,M,3,12,14,02,25,,,,,,,,,3.8,2.8,2.5*3B
$GPGSV,3,1,10,25,62,083,47,12,28,089,46,02,25,052,45,14,19,220,40*71
$GPGSV,3,2,10,29,75,177,45,30,59,288,42,31,55,295,42,21,04,171,*71
$GPGSV,3,3,10,23,01,342,,10,00,038,37*73
$GPRMC,091036.000,A,5034.2768,N,00227.3721,W,0.55,247.14,161011,,,A*7A
$GPGGA,091037.000,5034.2767,N,00227.3725,W,1,04,2.8,4.85,M,48.8,M,,0000*73
$GPGSA,M,3,12,14,02,25,,,,,,,,,3.8,2.8,2.5*3B
$GPRMC,091037.000,A,5034.2767,N,00227.3725,W,0.94,252.40,161011,,,A*78
$GPGGA,091038.000,5034.2767,N,00227.3727,W,1,04,2.8,4.77,M,48.8,M,,0000*73
$GPGSA,M,3,12,14,02,25,,,,,,,,,3.8,2.8,2.5*3B
$GPRMC,091038.000,A,5034.2767,N,00227.3727,W,0.32,306.54,161011,,,A*7C
$GPGGA,091039.000,5034.2767,N,00227.3726,W,1,04,2.8,4.75,M,48.8,M,,0000*71
$GPGSA,M,3,12,14,02,25,,,,,,,,,3.8,2.8,2.5*3B
$GPRMC,091039.000,A,5034.2767,N,00227.3726,W,0.35,96.56,161011,,,A*43
$GPGGA,091040.000,5034.2762,N,00227.3722,W,1,04,2.8,5.24,M,48.8,M,,0000*7B
$GPGSA,M,3,12,14,02,25,,,,,,,,,3.8,2.8,2.5*3B
$GPRMC,091040.000,A,5034.2762,N,00227.3722,W,0.53,1.42,161011,,,A*77
$GPGGA,091041.000,5034.2763,N,00227.3722,W,1,04,2.8,5.23,M,48.8,M,,0000*7C
$GPGSA,M,3,12,14,02,25,,,,,,,,,3.8,2.8,2.5*3B
$GPGSV,3,1,10,29,75,177,39,25,62,084,39,30,59,288,44,31,55,294,44*7D
$GPGSV,3,2,10,12,28,089,38,02,25,052,35,14,19,220,39,21,05,171,20*7A
$GPGSV,3,3,10,23,01,342,36,10,00,037,32*7C
$GPRMC,091041.000,A,5034.2763,N,00227.3722,W,0.65,336.85,161011,,,A*7E
$GPGGA,091042.000,5034.2764,N,00227.3723,W,1,04,2.8,5.19,M,48.8,M,,0000*70
$GPGSA,M,3,12,14,02,25,,,,,,,,,3.8,2.8,2.5*3B
$GPRMC,091042.000,A,5034.2764,N,00227.3723,W,0.33,331.57,161011,,,A*70
$GPGGA,091043.000,5034.2764,N,00227.3724,W,1,04,2.8,5.26,M,48.8,M,,0000*7A
$GPGSA,M,3,12,14,02,25,,,,,,,,,3.8,2.8,2.5*3B
$GPRMC,091043.000,A,5034.2764,N,00227.3724,W,0.34,299.34,161011,,,A*77
$GPGGA,091044.000,5034.2772,N,00227.3738,W,1,04,2.8,6.15,M,48.8,M,,0000*74
$GPGSA,M,3,12,14,02,25,,,,,,,,,3.8,2.8,2.5*3B
$GPRMC,091044.000,A,5034.2772,N,00227.3738,W,0.12,84.89,161011,,,A*46
$GPGGA,091045.000,5034.2774,N,00227.3742,W,1,04,2.8,6.50,M,48.8,M,,0000*7F
$GPGSA,M,3,12,14,02,25,,,,,,,,,3.8,2.8,2.5*3B
$GPRMC,091045.000,A,5034.2774,N,00227.3742,W,0.07,23.93,161011,,,A*4E
$GPGGA,091046.000,5034.2775,N,00227.3745,W,1,04,2.8,6.88,M,48.8,M,,0000*7F
$GPGSA,M,3,12,14,02,25,,,,,,,,,3.8,2.8,2.5*3B
$GPGSV,3,1,10,29,75,176,39,25,62,084,35,30,59,288,44,31,55,294,45*71
$GPGSV,3,2,10,12,28,089,34,02,25,052,36,14,19,220,41,21,05,171,23*79
$GPGSV,3,3,10,23,01,342,42,10,00,037,31*7C
$GPRMC,091046.000,A,5034.2775,N,00227.3745,W,0.59,325.76,161011,,,A*7E
$GPGGA,091047.000,5034.2769,N,00227.3740,W,1,04,2.8,7.26,M,48.8,M,,0000*73
$GPGSA,M,3,12,14,02,25,,,,,,,,,3.8,2.8,2.5*3B
$GPRMC,091047.000,A,5034.2769,N,00227.3740,W,0.07,115.08,161011,,,A*74
$GPGGA,091048.000,5034.2765,N,00227.3737,W,1,04,2.8,7.53,M,48.8,M,,0000*72
$GPGSA,M,3,12,14,02,25,,,,,,,,,3.8,2.8,2.5*3B
$GPRMC,091048.000,A,5034.2765,N,00227.3737,W,0.09,105.67,161011,,,A*71
$GPGGA,091049.000,5034.2762,N,00227.3734,W,1,04,2.8,7.86,M,48.8,M,,0000*7F
$GPGSA,M,3,12,14,02,25,,,,,,,,,3.8,2.8,2.5*3B
$GPRMC,091049.000,A,5034.2762,N,00227.3734,W,0.29,215.87,161011,,,A*7A
$GPGGA,091050.000,5034.2761,N,00227.3732,W,1,04,2.8,8.89,M,48.8,M,,0000*72
$GPGSA,M,3,12,14,02,25,,,,,,,,,3.8,2.8,2.5*3B
$GPRMC,091050.000,A,5034.2761,N,00227.3732,W,0.31,333.40,161011,,,A*70
$GPGGA,091051.000,5034.2762,N,00227.3731,W,1,04,2.8,9.73,M,48.8,M,,0000*77
$GPGSA,M,3,12,14,02,25,,,,,,,,,3.8,2.8,2.5*3B
$GPGSV,3,1,10,29,75,176,31,25,62,084,28,30,59,288,42,31,55,294,44*72
$GPGSV,3,2,10,12,28,089,32,02,25,052,34,14,19,220,29,21,05,171,17*74
$GPGSV,3,3,10,23,01,342,39,10,00,037,33*72
$GPRMC,091051.000,A,5034.2762,N,00227.3731,W,0.31,327.87,161011,,,A*7F
$GPGGA,091052.000,5034.2761,N,00227.3730,W,1,04,2.8,10.58,M,48.8,M,,0000*47
$GPGSA,M,3,12,14,02,25,,,,,,,,,3.8,2.8,2.5*3B
$GPRMC,091052.000,A,5034.2761,N,00227.3730,W,0.04,318.80,161011,,,A*73
$GPGGA,091053.000,5034.2762,N,00227.3728,W,1,04,2.8,11.17,M,48.8,M,,0000*46
$GPGSA,M,3,12,14,02,25,,,,,,,,,3.8,2.8,2.5*3B
$GPRMC,091053.000,A,5034.2762,N,00227.3728,W,0.41,332.71,161011,,,A*7F
$GPGGA,091054.000,5034.2762,N,00227.3729,W,1,04,2.8,11.17,M,48.8,M,,0000*40
$GPGSA,M,3,12,14,02,25,,,,,,,,,3.8,2.8,2.5*3B
$GPRMC,091054.000,A,5034.2762,N,00227.3729,W,0.25,303.45,161011,,,A*7E
$GPGGA,091055.000,5034.2762,N,00227.3729,W,1,04,2.8,11.28,M,48.8,M,,0000*4D
$GPGSA,M,3,12,14,02,25,,,,,,,,,3.8,2.8,2.5*3B
$GPRMC,091055.000,A,5034.2762,N,00227.3729,W,0.68,295.13,161011,,,A*7B
$GPGGA,091056.000,5034.2774,N,00227.3746,W,1,04,2.8,12.10,M,48.8,M,,0000*48
$GPGSA,M,3,12,14,02,25,,,,,,,,,3.8,2.8,2.5*3B
$GPGSV,3,1,10,29,75,176,31,25,62,084,43,30,59,288,35,31,55,294,34*78
$GPGSV,3,2,10,12,28,089,25,02,25,052,45,14,19,220,23,21,05,171,16*7F
$GPGSV,3,3,10,23,01,342,37,10,00,037,43*7B
$GPRMC,091056.000,A,5034.2774,N,00227.3746,W,0.46,272.14,161011,,,A*74
$GPGGA,091057.000,5034.2778,N,00227.3747,W,1,04,2.8,13.12,M,48.8,M,,0000*47
$GPGSA,M,3,12,14,02,25,,,,,,,,,3.8,2.8,2.5*3B
$GPRMC,091057.000,A,5034.2778,N,00227.3747,W,0.11,293.39,161011,,,A*7A
$GPGGA,091058.000,5034.2780,N,00227.3742,W,1,04,2.8,13.94,M,48.8,M,,0000*44
$GPGSA,M,3,12,14,02,25,,,,,,,,,3.8,2.8,2.5*3B
$GPRMC,091058.000,A,5034.2780,N,00227.3742,W,0.14,224.26,161011,,,A*70
$GPGGA,091059.000,5034.2779,N,00227.3736,W,1,04,2.8,14.48,M,48.8,M,,0000*46
$GPGSA,M,3,12,14,02,25,,,,,,,,,3.8,2.8,2.5*3B
$GPRMC,091059.000,A,5034.2779,N,00227.3736,W,0.13,67.61,161011,,,A*45
$GPGGA,091100.000,5034.2779,N,00227.3729,W,1,04,2.8,14.66,M,48.8,M,,0000*49
$GPGSA,M,3,12,14,02,25,,,,,,,,,3.8,2.8,2.5*3B
$GPRMC,091100.000,A,5034.2779,N,00227.3729,W,0.26,79.72,161011,,,A*4D
$GPGGA,091101.000,5034.2780,N,00227.3719,W,1,04,2.8,15.42,M,48.8,M,,0000*4A
$GPGSA,M,3,12,14,02,25,,,,,,,,,3.8,2.8,2.5*3B
$GPGSV,3,1,10,29,75,176,36,25,62,084,41,30,59,288,35,31,55,294,29*71
$GPGSV,3,2,10,12,28,089,43,02,25,052,40,14,19,220,26,21,05,171,21*7B
$GPGSV,3,3,10,23,01,342,31,10,00,037,43*7D
$GPRMC,091101.000,A,5034.2780,N,00227.3719,W,0.18,50.52,161011,,,A*4D
$GPGGA,091102.000,5034.2780,N,00227.3714,W,1,04,2.8,15.68,M,48.8,M,,0000*4C
$GPGSA,M,3,12,14,02,25,,,,,,,,,3.8,2.8,2.5*3B
$GPRMC,091102.000,A,5034.2780,N,00227.3714,W,0.14,16.71,161011,,,A*4C
$GPGGA,091103.000,5034.2780,N,00227.3713,W,1,04,2.8,15.62,M,48.8,M,,0000*40
$GPGSA,M,3,12,14,02,25,,,,,,,,,3.8,2.8,2.5*3B
$GPRMC,091103.000,A,5034.2780,N,00227.3713,W,0.04,212.16,161011,,,A*7C
$GPGGA,091104.000,5034.2779,N,00227.3713,W,1,04,2.8,15.53,M,48.8,M,,0000*43
$GPGSA,M,3,12,14,02,25,,,,,,,,,3.8,2.8,2.5*3B
$GPRMC,091104.000,A,5034.2779,N,00227.3713,W,0.19,53.91,161011,,,A*49
$GPGGA,091105.000,5034.2778,N,00227.3714,W,1,04,2.8,15.10,M,48.8,M,,0000*43
$GPGSA,M,3,12,14,02,25,,,,,,,,,3.8,2.8,2.5*3B
$GPRMC,091105.000,A,5034.2778,N,00227.3714,W,0.11,325.79,161011,,,A*72
$GPGGA,091106.000,5034.2777,N,00227.3715,W,1,04,2.8,14.83,M,48.8,M,,0000*45
$GPGSA,M,3,12,14,02,25,,,,,,,,,3.8,2.8,2.5*3B
$GPGSV,3,1,10,29,75,176,35,25,62,084,47,30,59,288,39,31,55,294,41*76
$GPGSV,3,2,10,12,28,089,45,02,25,052,40,14,19,220,29,21,05,171,20*73
$GPGSV,3,3,10,23,01,342,38,10,00,037,42*75
$GPRMC,091106.000,A,5034.2777,N,00227.3715,W,0.22,318.89,161011,,,A*7E
$GPGGA,091107.000,5034.2776,N,00227.3716,W,1,04,2.8,14.55,M,48.8,M,,0000*4D
$GPGSA,M,3,12,14,02,25,,,,,,,,,3.8,2.8,2.5*3B
$GPRMC,091107.000,A,5034.2776,N,00227.3716,W,0.11,302.40,161011,,,A*73
$GPGGA,091108.000,5034.2776,N,00227.3713,W,1,04,2.8,14.77,M,48.8,M,,0000*47
$GPGSA,M,3,12,14,02,25,,,,,,,,,3.8,2.8,2.5*3B
$GPRMC,091108.000,A,5034.2776,N,00227.3713,W,0.08,103.34,161011,,,A*71
$GPGGA,091109.000,5034.2777,N,00227.3708,W,1,04,2.8,15.18,M,48.8,M,,0000*45
$GPGSA,M,3,12,14,02,25,,,,,,,,,3.8,2.8,2.5*3B
$GPRMC,091109.000,A,5034.2777,N,00227.3708,W,0.19,12.75,161011,,,A*4F
$GPGGA,091110.000,5034.2776,N,00227.3705,W,1,04,2.8,15.12,M,48.8,M,,0000*4B
$GPGSA,M,3,12,14,02,25,,,,,,,,,3.8,2.8,2.5*3B
$GPRMC,091110.000,A,5034.2776,N,00227.3705,W,0.30,79.22,161011,,,A*4F
$GPGGA,091111.000,5034.2776,N,00227.3703,W,1,04,2.8,15.00,M,48.8,M,,0000*4F
$GPGSA,M,3,12,14,02,25,,,,,,,,,3.8,2.8,2.5*3B
$GPGSV,3,1,10,29,75,176,42,25,61,084,44,30,60,288,37,31,56,294,34*73
$GPGSV,3,2,10,12,28,089,43,02,25,052,43,14,18,219,27,21,05,171,21*72
$GPGSV,3,3,10,23,01,342,30,10,00,037,38*70
$GPRMC,091111.000,A,5034.2776,N,00227.3703,W,0.22,86.97,161011,,,A*45
$GPGGA,091112.000,5034.2774,N,00227.3704,W,1,04,2.8,14.46,M,48.8,M,,0000*4A
$GPGSA,M,3,12,14,02,25,,,,,,,,,3.8,2.8,2.5*3B
$GPRMC,091112.000,A,5034.2774,N,00227.3704,W,0.60,150.96,161011,,,A*7E
$GPGGA,091113.000,5034.2775,N,00227.3705,W,1,04,2.8,13.99,M,48.8,M,,0000*4E
$GPGSA,M,3,12,14,02,25,,,,,,,,,3.8,2.8,2.5*3B
$GPRMC,091113.000,A,5034.2775,N,00227.3705,W,0.19,151.04,161011,,,A*7B
$GPGGA,091114.000,5034.2773,N,00227.3705,W,1,04,2.8,13.66,M,48.8,M,,0000*4F
$GPGSA,M,3,12,14,02,25,,,,,,,,,3.8,2.8,2.5*3B
$GPRMC,091114.000,A,5034.2773,N,00227.3705,W,0.26,141.82,161011,,,A*79
$GPGGA,091115.000,5034.2773,N,00227.3705,W,1,04,2.8,13.65,M,48.8,M,,0000*4D
$GPGSA,M,3,12,14,02,25,,,,,,,,,3.8,2.8,2.5*3B
$GPRMC,091115.000,A,5034.2773,N,00227.3705,W,0.49,313.27,161011,,,A*7B
$GPGGA,091116.000,5034.2772,N,00227.3708,W,1,04,2.8,13.37,M,48.8,M,,0000*45
$GPGSA,M,3,12,14,02,25,,,,,,,,,3.8,2.8,2.5*3B
$GPGSV,3,1,10,29,75,176,36,25,61,084,39,30,60,288,31,31,56,294,32*7A
$GPGSV,3,2,10,12,28,089,46,02,25,052,34,14,18,219,32,21,05,171,17*76
$GPGSV,3,3,10,23,01,342,27,10,00,037,35*7B
$GPRMC,091116.000,A,5034.2772,N,00227.3708,W,0.37,292.15,161011,,,A*74
$GPGGA,091117.000,5034.2771,N,00227.3709,W,1,04,2.8,13.21,M,48.8,M,,0000*41
$GPGSA,M,3,12,14,02,25,,,,,,,,,3.8,2.8,2.5*3B
$GPRMC,091117.000,A,5034.2771,N,00227.3709,W,0.18,300.21,161011,,,A*77
$GPGGA,091118.000,5034.2770,N,00227.3710,W,1,04,2.8,13.05,M,48.8,M,,0000*41
$GPGSA,M,3,12,14,02,25,,,,,,,,,3.8,2.8,2.5*3B
$GPRMC,091118.000,A,5034.2770,N,00227.3710,W,0.12,307.82,161011,,,A*75
$GPGGA,091119.000,5034.2770,N,00227.3710,W,1,04,2.8,12.83,M,48.8,M,,0000*4F
$GPGSA,M,3,12,14,02,25,,,,,,,,,3.8,2.8,2.5*3B
$GPRMC,091119.000,A,5034.2770,N,00227.3710,W,0.11,137.30,161011,,,A*7F
$GPGGA,091120.000,5034.2769,N,00227.3711,W,1,04,2.8,12.61,M,48.8,M,,0000*40
$GPGSA,M,3,12,14,02,25,,,,,,,,,3.8,2.8,2.5*3B
$GPRMC,091120.000,A,5034.2769,N,00227.3711,W,0.22,349.19,161011,,,A*7C
$GPGGA,091121.000,5034.2769,N,00227.3711,W,1,05,2.8,12.32,M,48.8,M,,0000*46
$GPGSA,M,3,12,14,02,25,29,,,,,,,,3.3,2.8,1.7*3A
$GPGSV,3,1,10,29,75,176,42,25,61,084,45,30,60,288,36,31,56,294,32*75
$GPGSV,3,2,10,12,28,089,46,02,25,052,43,14,18,219,39,21,05,171,19*73
$GPGSV,3,3,10,23,01,342,,10,00,037,32*79
$GPRMC,091121.000,A,5034.2769,N,00227.3711,W,0.09,231.49,161011,,,A*7F
$GPGGA,091122.000,5034.2769,N,00227.3711,W,1,05,2.8,11.91,M,48.8,M,,0000*4F
$GPGSA,M,3,12,14,02,25,29,,,,,,,,3.3,2.8,1.7*3A
$GPRMC,091122.000,A,5034.2769,N,00227.3711,W,0.26,14.84,161011,,,A*45
$GPGGA,091123.000,5034.2768,N,00227.3712,W,1,05,2.8,11.77,M,48.8,M,,0000*44
$GPGSA,M,3,12,14,02,25,29,,,,,,,,3.3,2.8,1.7*3A
$GPRMC,091123.000,A,5034.2768,N,00227.3712,W,0.46,147.57,161011,,,A*79
$GPGGA,091124.000,5034.2767,N,00227.3712,W,1,05,2.8,11.57,M,48.8,M,,0000*4E
$GPGSA,M,3,12,14,02,25,29,,,,,,,,3.3,2.8,1.7*3A
$GPRMC,091124.000,A,5034.2767,N,00227.3712,W,0.21,147.41,161011,,,A*77
$GPGGA,091125.000,5034.2767,N,00227.3710,W,1,05,2.7,10.98,M,48.8,M,,0000*40
$GPGSA,M,3,12,14,02,25,29,,,,,,,,3.3,2.7,1.7*35
$GPRMC,091125.000,A,5034.2767,N,00227.3710,W,0.08,97.51,161011,,,A*42
$GPGGA,091126.000,5034.2767,N,00227.3710,W,1,05,2.7,10.92,M,48.8,M,,0000*49
$GPGSA,M,3,12,14,02,25,29,,,,,,,,3.3,2.7,1.7*35
$GPGSV,3,1,10,29,75,176,30,25,61,084,35,30,60,288,32,31,56,294,28*78
$GPGSV,3,2,10,12,28,090,37,02,25,052,37,14,18,219,34,21,05,171,20*79
$GPGSV,3,3,10,23,01,342,31,10,00,037,23*7B
$GPRMC,091126.000,A,5034.2767,N,00227.3710,W,0.25,316.58,161011,,,A*7D
$GPGGA,091127.000,5034.2767,N,00227.3709,W,1,05,2.7,10.39,M,48.8,M,,0000*41
$GPGSA,M,3,12,14,02,25,29,,,,,,,,3.3,2.7,1.7*35
$GPRMC,091127.000,A,5034.2767,N,00227.3709,W,0.14,262.11,161011,,,A*79
$GPGGA,091128.000,5034.2767,N,00227.3710,W,1,05,2.7,9.95,M,48.8,M,,0000*78
$GPGSA,M,3,12,14,02,25,29,,,,,,,,3.3,2.7,1.7*35
$GPRMC,091128.000,A,5034.2767,N,00227.3710,W,0.36,317.16,161011,,,A*7A
$GPGGA,091129.000,5034.2768,N,00227.3710,W,1,05,2.7,9.62,M,48.8,M,,0000*7E
$GPGSA,M,3,12,14,02,25,29,,,,,,,,3.3,2.7,1.7*35
$GPRMC,091129.000,A,5034.2768,N,00227.3710,W,0.14,317.25,161011,,,A*74
$GPGGA,091130.000,5034.2770,N,00227.3711,W,1,05,2.7,9.26,M,48.8,M,,0000*7E
$GPGSA,M,3,12,14,02,25,29,,,,,,,,3.3,2.7,1.7*35
$GPRMC,091130.000,A,5034.2770,N,00227.3711,W,0.35,344.11,161011,,,A*76
$GPGGA,091131.000,5034.2771,N,00227.3712,W,1,05,2.7,8.92,M,48.8,M,,0000*73
$GPGSA,M,3,12,14,02,25,29,,,,,,,,3.3,2.7,1.7*35
$GPGSV,3,1,10,29,75,176,44,25,61,084,44,30,60,288,40,31,56,294,40*76
$GPGSV,3,2,10,12,28,090,43,02,25,052,37,14,18,219,37,21,05,171,22*7B
$GPGSV,3,3,10,23,01,342,24,10,00,037,30*7D
$GPRMC,091131.000,A,5034.2771,N,00227.3712,W,0.27,337.81,161011,,,A*7B
$GPGGA,091132.000,5034.2773,N,00227.3713,W,1,05,2.7,8.64,M,48.8,M,,0000*7A
$GPGSA,M,3,12,14,02,25,29,,,,,,,,3.2,2.7,1.7*34
$GPRMC,091132.000,A,5034.2773,N,00227.3713,W,0.19,289.69,161011,,,A*74
$GPGGA,091133.000,5034.2774,N,00227.3716,W,1,05,2.7,8.36,M,48.8,M,,0000*7E
$GPGSA,M,3,12,14,02,25,29,,,,,,,,3.2,2.7,1.7*34
$GPRMC,091133.000,A,5034.2774,N,00227.3716,W,0.67,321.00,161011,,,A*72
$GPGGA,091134.000,5034.2776,N,00227.3717,W,1,04,2.7,8.10,M,48.8,M,,0000*7F
$GPGSA,M,3,12,14,02,29,,,,,,,,,3.4,2.7,2.0*31
$GPRMC,091134.000,A,5034.2776,N,00227.3717,W,0.43,319.21,161011,,,A*78
$GPGGA,091135.000,5034.2777,N,00227.3717,W,1,05,2.7,8.07,M,48.8,M,,0000*78
$GPGSA,M,3,12,14,02,25,29,,,,,,,,3.2,2.7,1.7*34
$GPRMC,091135.000,A,5034.2777,N,00227.3717,W,0.26,340.03,161011,,,A*77
$GPGGA,091136.000,5034.2778,N,00227.3716,W,1,05,2.7,8.07,M,48.8,M,,0000*75
$GPGSA,M,3,12,14,02,25,29,,,,,,,,3.2,2.7,1.7*34
$GPGSV,3,1,10,29,75,176,38,25,61,084,41,30,60,288,32,31,56,294,35*7F
$GPGSV,3,2,10,12,28,090,38,02,25,052,34,14,18,219,26,21,05,171,11*74
$GPGSV,3,3,10,23,01,342,35,10,00,037,33*7E
$GPRMC,091136.000,A,5034.2778,N,00227.3716,W,0.24,347.09,161011,,,A*75
$GPGGA,091137.000,5034.2780,N,00227.3716,W,1,05,2.7,7.91,M,48.8,M,,0000*73
$GPGSA,M,3,12,14,02,25,29,,,,,,,,3.2,2.7,1.7*34
$GPRMC,091137.000,A,5034.2780,N,00227.3716,W,0.38,2.80,161011,,,A*7D
$GPGGA,091138.000,5034.2781,N,00227.3714,W,1,05,2.7,7.99,M,48.8,M,,0000*77
$GPGSA,M,3,12,14,02,25,29,,,,,,,,3.2,2.7,1.7*34
$GPRMC,091138.000,A,5034.2781,N,00227.3714,W,0.10,242.93,161011,,,A*7F
$GPGGA,091139.000,5034.2783,N,00227.3711,W,1,05,2.7,8.32,M,48.8,M,,0000*7F
$GPGSA,M,3,12,14,02,25,29,,,,,,,,3.2,2.7,1.7*34
$GPRMC,091139.000,A,5034.2783,N,00227.3711,W,0.29,5.12,161011,,,A*7B
$GPGGA,091140.000,5034.2784,N,00227.3707,W,1,05,2.7,8.76,M,48.8,M,,0000*71
$GPGSA,M,3,12,14,02,25,29,,,,,,,,3.2,2.7,1.7*34
$GPRMC,091140.000,A,5034.2784,N,00227.3707,W,0.40,13.01,161011,,,A*4F
$GPGGA,091141.000,5034.2784,N,00227.3705,W,1,05,2.7,9.02,M,48.8,M,,0000*70
$GPGSA,M,3,12,14,02,25,29,,,,,,,,3.2,2.7,1.7*34
$GPGSV,3,1,10,29,75,176,38,25,61,084,42,30,60,288,33,31,56,294,34*7C
$GPGSV,3,2,10,12,28,090,43,02,25,052,33,14,18,219,29,21,05,171,*70
$GPGSV,3,3,10,23,01,342,35,10,00,037,29*75
$GPRMC,091141.000,A,5034.2784,N,00227.3705,W,0.07,96.07,161011,,,A*44
$GPGGA,091142.000,5034.2785,N,00227.3703,W,1,05,2.7,9.39,M,48.8,M,,0000*7C
$GPGSA,M,3,12,14,02,25,29,,,,,,,,3.2,2.7,1.7*34
$GPRMC,091142.000,A,5034.2785,N,00227.3703,W,0.06,218.86,161011,,,A*7C
$GPGGA,091143.000,5034.2784,N,00227.3704,W,1,05,2.7,9.27,M,48.8,M,,0000*74
$GPGSA,M,3,12,14,02,25,29,,,,,,,,3.2,2.7,1.7*34
$GPRMC,091143.000,A,5034.2784,N,00227.3704,W,0.23,107.76,161011,,,A*7E
$GPGGA,091144.000,5034.2783,N,00227.3704,W,1,05,2.7,9.15,M,48.8,M,,0000*75
$GPGSA,M,3,12,14,02,25,29,,,,,,,,3.2,2.7,1.7*34
$GPRMC,091144.000,A,5034.2783,N,00227.3704,W,0.04,330.30,161011,,,A*7F
$GPGGA,091145.000,5034.2782,N,00227.3705,W,1,05,2.7,9.05,M,48.8,M,,0000*75
$GPGSA,M,3,12,14,02,25,29,,,,,,,,3.2,2.7,1.7*34
$GPRMC,091145.000,A,5034.2782,N,00227.3705,W,0.07,23.92,161011,,,A*44
$GPGGA,091146.000,5034.2777,N,00227.3701,W,1,05,2.7,9.39,M,48.8,M,,0000*77
$GPGSA,M,3,12,14,02,25,29,,,,,,,,3.2,2.7,1.7*34
$GPGSV,3,1,10,29,75,176,40,25,61,084,35,30,60,288,39,31,56,294,35*78
$GPGSV,3,2,10,12,28,090,43,02,25,052,27,14,18,219,41,21,05,171,25*7C
$GPGSV,3,3,10,23,01,342,32,10,00,037,34*7E
$GPRMC,091146.000,A,5034.2777,N,00227.3701,W,0.35,146.08,161011,,,A*79
$GPGGA,091147.000,5034.2772,N,00227.3697,W,1,05,2.7,9.66,M,48.8,M,,0000*77
$GPGSA,M,3,12,14,02,25,29,,,,,,,,3.2,2.7,1.7*34
$GPRMC,091147.000,A,5034.2772,N,00227.3697,W,0.84,146.26,161011,,,A*75
$GPGGA,091148.000,5034.2768,N,00227.3694,W,1,05,2.7,9.73,M,48.8,M,,0000*74
$GPGSA,M,3,12,14,02,25,29,,,,,,,,3.2,2.7,1.7*34
$GPRMC,091148.000,A,5034.2768,N,00227.3694,W,0.52,121.59,161011,,,A*70
$GPGGA,091149.000,5034.2765,N,00227.3691,W,1,05,2.7,9.83,M,48.8,M,,0000*72
$GPGSA,M,3,12,14,02,25,29,,,,,,,,3.2,2.7,1.7*34
$GPRMC,091149.000,A,5034.2765,N,00227.3691,W,0.52,145.69,161011,,,A*78
$GPGGA,091150.000,5034.2762,N,00227.3691,W,1,05,2.7,9.88,M,48.8,M,,0000*76
$GPGSA,M,3,12,14,02,25,29,,,,,,,,3.2,2.7,1.7*34
$GPRMC,091150.000,A,5034.2762,N,00227.3691,W,0.39,264.71,161011,,,A*73
$GPGGA,091151.000,5034.2758,N,00227.3692,W,1,05,2.7,10.03,M,48.8,M,,0000*46
$GPGSA,M,3,12,14,02,25,29,,,,,,,,3.2,2.7,1.7*34
$GPGSV,3,1,10,29,75,176,32,25,61,084,35,30,60,288,42,31,56,294,42*71
$GPGSV,3,2,10,12,28,090,26,02,25,052,29,14,18,219,31,21,05,171,11*71
$GPGSV,3,3,10,23,01,342,40,10,00,037,29*77
$GPRMC,091151.000,A,5034.2758,N,00227.3692,W,0.10,191.76,161011,,,A*7D
$GPGGA,091152.000,5034.2758,N,00227.3695,W,1,05,2.7,9.79,M,48.8,M,,0000*77
$GPGSA,M,3,12,14,02,25,29,,,,,,,,3.2,2.7,1.7*34
$GPRMC,091152.000,A,5034.2758,N,00227.3695,W,1.03,143.28,161011,,,A*7E
$GPGGA,091153.000,5034.2760,N,00227.3696,W,1,05,2.7,9.54,M,48.8,M,,0000*71
$GPGSA,M,3,12,14,02,25,29,,,,,,,,3.2,2.7,1.7*34
$GPRMC,091153.000,A,5034.2760,N,00227.3696,W,0.69,102.95,161011,,,A*79
$GPGGA,091154.000,5034.2762,N,00227.3699,W,1,05,2.7,9.45,M,48.8,M,,0000*7B
$GPGSA,M,3,12,14,02,25,29,,,,,,,,3.2,2.7,1.7*34
$GPRMC,091154.000,A,5034.2762,N,00227.3699,W,0.07,357.17,161011,,,A*73
$GPGGA,091155.000,5034.2764,N,00227.3705,W,1,05,2.7,9.49,M,48.8,M,,0000*74
$GPGSA,M,3,12,14,02,25,29,,,,,,,,3.2,2.7,1.7*34
$GPRMC,091155.000,A,5034.2764,N,00227.3705,W,0.63,275.77,161011,,,A*75
$GPGGA,091156.000,5034.2761,N,00227.3705,W,1,05,2.7,9.58,M,48.8,M,,0000*72
$GPGSA,M,3,12,14,02,25,29,,,,,,,,3.2,2.7,1.7*34
$GPGSV,3,1,10,29,75,176,39,25,61,084,37,30,60,288,41,31,56,294,38*76
$GPGSV,3,2,10,12,28,090,31,02,25,052,32,14,18,219,39,21,05,171,26*71
$GPGSV,3,3,10,23,01,342,37,10,00,037,36*79
$GPRMC,091156.000,A,5034.2761,N,00227.3705,W,0.55,85.42,161011,,,A*4D
$GPGGA,091157.000,5034.2764,N,00227.3712,W,1,05,2.7,9.58,M,48.8,M,,0000*70
$GPGSA,M,3,12,14,02,25,29,,,,,,,,3.2,2.7,1.7*34
$GPRMC,091157.000,A,5034.2764,N,00227.3712,W,0.53,332.49,161011,,,A*7D
$GPGGA,091158.000,5034.2765,N,00227.3718,W,1,05,2.7,9.68,M,48.8,M,,0000*77
$GPGSA,M,3,12,14,02,25,29,,,,,,,,3.2,2.7,1.7*34
$GPRMC,091158.000,A,5034.2765,N,00227.3718,W,0.50,300.37,161011,,,A*72
$GPGGA,091159.000,5034.2768,N,00227.3723,W,1,05,2.7,9.29,M,48.8,M,,0000*76
$GPGSA,M,3,12,14,02,25,29,,,,,,,,3.2,2.7,1.7*34
$GPRMC,091159.000,A,5034.2768,N,00227.3723,W,0.06,27.21,161011,,,A*44
$GPGGA,091200.000,5034.2768,N,00227.3723,W,1,05,2.7,9.10,M,48.8,M,,0000*73
$GPGSA,M,3,12,14,02,25,29,,,,,,,,3.2,2.7,1.7*34
$GPRMC,091200.000,A,5034.2768,N,00227.3723,W,1.08,121.43,161011,,,A*77
$GPGGA,091201.000,5034.2766,N,00227.3719,W,1,05,2.7,8.73,M,48.8,M,,0000*71
$GPGSA,M,3,12,14,02,25,29,,,,,,,,3.2,2.7,1.7*34
$GPGSV,3,1,10,29,75,176,37,25,61,084,45,30,60,288,40,31,56,294,38*7C
$GPGSV,3,2,10,12,28,090,40,02,25,052,47,14,18,219,33,21,05,171,21*78
$GPGSV,3,3,10,23,01,342,39,10,00,037,38*79
$GPRMC,091201.000,A,5034.2766,N,00227.3719,W,1.72,133.14,161011,,,A*7D
$GPGGA,091202.000,5034.2766,N,00227.3718,W,1,05,2.7,8.44,M,48.8,M,,0000*77
$GPGSA,M,3,12,14,02,25,29,,,,,,,,3.2,2.7,1.7*34
$GPRMC,091202.000,A,5034.2766,N,00227.3718,W,0.37,314.33,161011,,,A*7D
$GPGGA,091203.000,5034.2767,N,00227.3721,W,1,05,2.7,8.64,M,48.8,M,,0000*7F
$GPGSA,M,3,12,14,02,25,29,,,,,,,,3.2,2.7,1.7*34
$GPRMC,091203.000,A,5034.2767,N,00227.3721,W,0.56,308.48,161011,,,A*71
$GPGGA,091204.000,5034.2768,N,00227.3723,W,1,05,2.7,8.59,M,48.8,M,,0000*7B
$GPGSA,M,3,12,14,02,25,29,,,,,,,,3.2,2.7,1.7*34
$GPRMC,091204.000,A,5034.2768,N,00227.3723,W,0.82,338.61,161011,,,A*7A
$GPGGA,091205.000,5034.2770,N,00227.3725,W,1,05,2.7,8.61,M,48.8,M,,0000*7E
$GPGSA,M,3,12,14,02,25,29,,,,,,,,3.2,2.7,1.7*34
$GPRMC,091205.000,A,5034.2770,N,00227.3725,W,0.52,294.10,161011,,,A*78
$GPGGA,091206.000,5034.2771,N,00227.3726,W,1,05,2.7,8.54,M,48.8,M,,0000*79
$GPGSA,M,3,12,14,02,25,29,,,,,,,,3.2,2.7,1.7*34
$GPGSV,3,1,10,29,75,176,35,25,61,084,45,30,60,288,39,31,56,294,37*7F
$GPGSV,3,2,10,12,28,090,38,02,25,052,47,14,18,219,24,21,05,171,22*72
$GPGSV,3,3,10,23,01,342,32,10,00,037,47*7A
$GPRMC,091206.000,A,5034.2771,N,00227.3726,W,0.01,62.99,161011,,,A*45
$GPGGA,091207.000,5034.2774,N,00227.3733,W,1,05,2.7,8.53,M,48.8,M,,0000*7E
$GPGSA,M,3,12,14,02,25,29,,,,,,,,3.2,2.7,1.7*34
$GPRMC,091207.000,A,5034.2774,N,00227.3733,W,0.45,307.17,161011,,,A*73
$GPGGA,091208.000,5034.2777,N,00227.3738,W,1,05,2.7,8.36,M,48.8,M,,0000*7A
$GPGSA,M,3,12,14,02,25,29,,,,,,,,3.2,2.7,1.7*34
$GPRMC,091208.000,A,5034.2777,N,00227.3738,W,0.91,315.17,161011,,,A*7E
$GPGGA,091209.000,5034.2778,N,00227.3737,W,1,05,2.7,8.32,M,48.8,M,,0000*7F
$GPGSA,M,3,12,14,02,25,29,,,,,,,,3.2,2.7,1.7*34
$GPRMC,091209.000,A,5034.2778,N,00227.3737,W,0.15,315.18,161011,,,A*7C
$GPGGA,091210.000,5034.2779,N,00227.3737,W,1,05,2.7,8.38,M,48.8,M,,0000*7C
$GPGSA,M,3,12,14,02,25,29,,,,,,,,3.2,2.7,1.7*34
$GPRMC,091210.000,A,5034.2779,N,00227.3737,W,0.19,296.58,161011,,,A*77
$GPGGA,091211.000,5034.2781,N,00227.3739,W,1,05,2.7,8.46,M,48.8,M,,0000*7D
$GPGSA,M,3,12,14,02,25,29,,,,,,,,3.2,2.7,1.7*34
$GPGSV,3,1,10,29,75,175,36,25,61,084,44,30,60,288,39,31,56,294,38*71
$GPGSV,3,2,10,12,27,090,33,02,25,052,44,14,18,219,33,21,05,171,21*70
$GPGSV,3,3,10,23,02,342,20,10,00,037,45*78
$GPRMC,091211.000,A,5034.2781,N,00227.3739,W,0.28,318.64,161011,,,A*75
$GPGGA,091212.000,5034.2785,N,00227.3743,W,1,05,2.7,8.46,M,48.8,M,,0000*77
$GPGSA,M,3,12,14,02,25,29,,,,,,,,3.2,2.7,1.7*34
$GPRMC,091212.000,A,5034.2785,N,00227.3743,W,1.81,340.88,161011,,,A*72
$GPGGA,091213.000,5034.2788,N,00227.3745,W,1,05,2.7,8.62,M,48.8,M,,0000*7B
$GPGSA,M,3,12,14,02,25,29,,,,,,,,3.2,2.7,1.7*34
$GPRMC,091213.000,A,5034.2788,N,00227.3745,W,0.94,326.36,161011,,,A*78
$GPGGA,091214.000,5034.2788,N,00227.3746,W,1,05,2.7,8.75,M,48.8,M,,0000*79
$GPGSA,M,3,12,14,02,25,29,,,,,,,,3.2,2.7,1.7*34
$GPRMC,091214.000,A,5034.2788,N,00227.3746,W,0.44,299.05,161011,,,A*74
$GPGGA,091215.000,5034.2788,N,00227.3747,W,1,05,2.7,8.85,M,48.8,M,,0000*76
$GPGSA,M,3,12,14,02,25,29,,,,,,,,3.2,2.7,1.7*34
$GPRMC,091215.000,A,5034.2788,N,00227.3747,W,0.15,314.11,161011,,,A*71
$GPGGA,091216.000,5034.2788,N,00227.3749,W,1,05,2.7,8.89,M,48.8,M,,0000*77
$GPGSA,M,3,12,14,02,25,29,,,,,,,,3.2,2.7,1.7*34
$GPGSV,3,1,10,29,75,175,36,25,61,084,40,30,60,288,40,31,56,294,42*76
$GPGSV,3,2,10,12,27,090,33,02,25,052,41,14,18,219,32,21,05,171,19*7F
$GPGSV,3,3,10,23,02,342,24,10,00,037,42*7B
$GPRMC,091216.000,A,5034.2788,N,00227.3749,W,0.40,324.14,161011,,,A*7A
$GPGGA,091217.000,5034.2789,N,00227.3751,W,1,05,2.7,9.04,M,48.8,M,,0000*7A
$GPGSA,M,3,12,14,02,25,29,,,,,,,,3.2,2.7,1.7*34
$GPRMC,091217.000,A,5034.2789,N,00227.3751,W,0.34,321.58,161011,,,A*7D
$GPGGA,091218.000,5034.2790,N,00227.3752,W,1,05,2.7,9.01,M,48.8,M,,0000*7B
$GPGSA,M,3,12,14,02,25,29,,,,,,,,3.2,2.7,1.7*34
$GPRMC,091218.000,A,5034.2790,N,00227.3752,W,0.17,17.84,161011,,,A*4F
$GPGGA,091219.000,5034.2790,N,00227.3754,W,1,05,2.7,9.03,M,48.8,M,,0000*7E
$GPGSA,M,3,12,14,02,25,29,,,,,,,,3.2,2.7,1.7*34
$GPRMC,091219.000,A,5034.2790,N,00227.3754,W,0.50,105.03,161011,,,A*76
$GPGGA,091220.000,5034.2788,N,00227.3754,W,1,05,2.7,9.52,M,48.8,M,,0000*79
$GPGSA,M,3,12,14,02,25,29,,,,,,,,3.2,2.7,1.7*34
$GPRMC,091220.000,A,5034.2788,N,00227.3754,W,0.95,92.99,161011,,,A*40
$GPGGA,091221.000,5034.2787,N,00227.3754,W,1,06,1.7,9.61,M,48.8,M,,0000*77
$GPGSA,M,3,12,14,02,25,29,30,,,,,,,2.4,1.7,1.7*33
$GPGSV,3,1,10,29,75,175,41,25,61,084,42,30,60,288,40,31,56,294,41*77
$GPGSV,3,2,10,12,27,090,34,02,25,052,31,14,18,219,36,21,05,171,22*73
$GPGSV,3,3,10,23,02,342,32,10,00,037,30*79
$GPRMC,091221.000,A,5034.2787,N,00227.3754,W,0.19,282.57,161011,,,A*7B
$GPGGA,091222.000,5034.2785,N,00227.3754,W,1,06,1.7,9.54,M,48.8,M,,0000*70
$GPGSA,M,3,12,14,02,25,29,30,,,,,,,2.4,1.7,1.7*33
$GPRMC,091222.000,A,5034.2785,N,00227.3754,W,0.49,161.80,161011,,,A*7B
$GPGGA,091223.000,5034.2783,N,00227.3750,W,1,06,1.7,9.54,M,48.8,M,,0000*73
$GPGSA,M,3,12,14,02,25,29,30,,,,,,,2.4,1.7,1.7*33
$GPRMC,091223.000,A,5034.2783,N,00227.3750,W,0.15,11.26,161011,,,A*4B
$GPGGA,091224.000,5034.2780,N,00227.3746,W,1,06,1.7,9.48,M,48.8,M,,0000*7D
$GPGSA,M,3,12,14,02,25,29,30,,,,,,,2.4,1.7,1.7*33
$GPRMC,091224.000,A,5034.2780,N,00227.3746,W,0.08,110.74,161011,,,A*73
$GPGGA,091225.000,5034.2777,N,00227.3743,W,1,06,1.7,9.12,M,48.8,M,,0000*7E
$GPGSA,M,3,12,14,02,25,29,30,,,,,,,2.4,1.7,1.7*33
$GPRMC,091225.000,A,5034.2777,N,00227.3743,W,0.08,32.00,161011,,,A*4D
$GPGGA,091226.000,5034.2774,N,00227.3740,W,1,06,1.7,8.88,M,48.8,M,,0000*7F
$GPGSA,M,3,12,14,02,25,29,30,,,,,,,2.4,1.7,1.7*33
$GPGSV,3,1,10,29,76,175,44,25,61,084,42,30,60,289,41,31,56,294,42*72
$GPGSV,3,2,10,12,27,090,33,02,25,052,31,14,18,219,37,21,05,171,23*74
$GPGSV,3,3,10,23,02,342,31,10,00,037,*79
$GPRMC,091226.000,A,5034.2774,N,00227.3740,W,0.03,51.90,161011,,,A*49
$GPGGA,091227.000,5034.2772,N,00227.3737,W,1,07,1.4,8.74,M,48.8,M,,0000*79
$GPGSA,M,3,12,14,02,25,29,31,30,,,,,,2.2,1.4,1.7*34
$GPRMC,091227.000,A,5034.2772,N,00227.3737,W,0.05,115.86,161011,,,A*7E
$GPGGA,091228.000,5034.2771,N,00227.3735,W,1,07,1.4,8.59,M,48.8,M,,0000*78
$GPGSA,M,3,12,14,02,25,29,31,30,,,,,,2.2,1.4,1.7*34
$GPRMC,091228.000,A,5034.2771,N,00227.3735,W,0.04,113.84,161011,,,A*75
$GPGGA,091229.000,5034.2770,N,00227.3734,W,1,07,1.4,8.43,M,48.8,M,,0000*72
$GPGSA,M,3,12,14,02,25,29,31,30,,,,,,2.2,1.4,1.7*34
$GPRMC,091229.000,A,5034.2770,N,00227.3734,W,0.13,138.77,161011,,,A*77
$GPGGA,091230.000,5034.2769,N,00227.3733,W,1,07,1.4,8.29,M,48.8,M,,0000*79
$GPGSA,M,3,12,14,02,25,29,31,30,,,,,,2.2,1.4,1.7*34
$GPRMC,091230.000,A,5034.2769,N,00227.3733,W,0.14,188.38,161011,,,A*77
$GPGGA,091231.000,5034.2769,N,00227.3733,W,1,07,1.4,7.94,M,48.8,M,,0000*71
$GPGSA,M,3,12,14,02,25,29,31,30,,,,,,2.2,1.4,1.7*34
$GPGSV,3,1,10,29,76,175,41,25,61,084,44,30,60,289,34,31,56,294,40*71
$GPGSV,3,2,10,12,27,090,33,02,25,052,35,14,18,219,32,21,05,171,26*70
$GPGSV,3,3,10,23,02,342,32,10,00,037,*7A
$GPRMC,091231.000,A,5034.2769,N,00227.3733,W,0.56,282.68,161011,,,A*7C
$GPGGA,091232.000,5034.2769,N,00227.3734,W,1,07,1.4,7.75,M,48.8,M,,0000*7A
$GPGSA,M,3,12,14,02,25,29,31,30,,,,,,2.2,1.4,1.7*34
$GPRMC,091232.000,A,5034.2769,N,00227.3734,W,0.31,150.97,161011,,,A*75
$GPGGA,091233.000,5034.2769,N,00227.3734,W,1,07,1.4,7.93,M,48.8,M,,0000*73
$GPGSA,M,3,12,14,02,25,29,31,30,,,,,,2.2,1.4,1.7*34
$GPRMC,091233.000,A,5034.2769,N,00227.3734,W,0.29,270.70,161011,,,A*75
$GPGGA,091234.000,5034.2769,N,00227.3735,W,1,07,1.4,8.00,M,48.8,M,,0000*70
$GPGSA,M,3,12,14,02,25,29,31,30,,,,,,2.2,1.4,1.7*34
$GPRMC,091234.000,A,5034.2769,N,00227.3735,W,0.11,7.59,161011,,,A*71
$GPGGA,091235.000,5034.2769,N,00227.3735,W,1,07,1.4,8.08,M,48.8,M,,0000*79
$GPGSA,M,3,12,14,02,25,29,31,30,,,,,,2.2,1.4,1.7*34
$GPRMC,091235.000,A,5034.2769,N,00227.3735,W,0.19,34.98,161011,,,A*45
$GPGGA,091236.000,5034.2769,N,00227.3735,W,1,07,1.4,8.14,M,48.8,M,,0000*77
$GPGSA,M,3,12,14,02,25,29,31,30,,,,,,2.2,1.4,1.7*34
$GPGSV,3,1,10,29,76,175,47,25,61,084,48,30,60,289,45,31,56,294,46*7B
$GPGSV,3,2,10,12,27,090,37,02,25,052,39,14,18,219,40,21,05,171,24*7F
$GPGSV,3,3,10,23,02,342,35,10,00,037,34*7A
$GPRMC,091236.000,A,5034.2769,N,00227.3735,W,0.16,29.13,161011,,,A*46
$GPGGA,091237.000,5034.2769,N,00227.3736,W,1,07,1.4,8.25,M,48.8,M,,0000*77
$GPGSA,M,3,12,14,02,25,29,31,30,,,,,,2.2,1.4,1.7*34
$GPRMC,091237.000,A,5034.2769,N,00227.3736,W,0.15,152.97,161011,,,A*76
$GPGGA,091238.000,5034.2769,N,00227.3736,W,1,07,1.4,8.23,M,48.8,M,,0000*7E
$GPGSA,M,3,12,14,02,25,29,31,30,,,,,,2.2,1.4,1.7*34
$GPRMC,091238.000,A,5034.2769,N,00227.3736,W,0.36,184.56,161011,,,A*7E
$GPGGA,091239.000,5034.2770,N,00227.3736,W,1,07,1.4,8.33,M,48.8,M,,0000*76
$GPGSA,M,3,12,14,02,25,29,31,30,,,,,,2.2,1.4,1.7*34
$GPRMC,091239.000,A,5034.2770,N,00227.3736,W,0.42,78.41,161011,,,A*40
$GPGGA,091240.000,5034.2770,N,00227.3735,W,1,07,1.4,8.35,M,48.8,M,,0000*7D
$GPGSA,M,3,12,14,02,25,29,31,30,,,,,,2.2,1.4,1.7*34
$GPRMC,091240.000,A,5034.2770,N,00227.3735,W,0.12,74.46,161011,,,A*43
$GPGGA,091241.000,5034.2771,N,00227.3736,W,1,07,1.4,8.44,M,48.8,M,,0000*78
$GPGSA,M,3,12,14,02,25,29,31,30,,,,,,2.2,1.4,1.7*34
$GPGSV,3,1,10,29,76,175,44,25,61,084,45,30,60,289,40,31,56,294,38*79
$GPGSV,3,2,10,12,27,090,41,02,25,052,34,14,18,219,37,21,05,171,23*74
$GPGSV,3,3,10,23,02,342,32,10,00,037,36*7F
$GPRMC,091241.000,A,5034.2771,N,00227.3736,W,0.18,188.82,161011,,,A*70
$GPGGA,091242.000,5034.2771,N,00227.3736,W,1,07,1.4,8.43,M,48.8,M,,0000*7C
$GPGSA,M,3,12,14,02,25,29,31,30,,,,,,2.2,1.4,1.7*34
$GPRMC,091242.000,A,5034.2771,N,00227.3736,W,0.20,39.53,161011,,,A*4F
$GPGGA,091243.000,5034.2772,N,00227.3736,W,1,07,1.4,8.47,M,48.8,M,,0000*7A
$GPGSA,M,3,12,14,02,25,29,31,30,,,,,,2.2,1.4,1.7*34
$GPRMC,091243.000,A,5034.2772,N,00227.3736,W,0.12,216.55,161011,,,A*75
$GPGGA,091244.000,5034.2772,N,00227.3736,W,1,07,1.4,8.77,M,48.8,M,,0000*7E
$GPGSA,M,3,12,14,02,25,29,31,30,,,,,,2.2,1.4,1.7*34
$GPRMC,091244.000,A,5034.2772,N,00227.3736,W,0.06,129.34,161011,,,A*7F
$GPGGA,091245.000,5034.2771,N,00227.3736,W,1,07,1.4,8.54,M,48.8,M,,0000*7D
$GPGSA,M,3,12,14,02,25,29,31,30,,,,,,2.2,1.4,1.7*34
$GPRMC,091245.000,A,5034.2771,N,00227.3736,W,0.15,112.59,161011,,,A*7C
$GPGGA,091246.000,5034.2771,N,00227.3736,W,1,07,1.4,8.24,M,48.8,M,,0000*79
$GPGSA,M,3,12,14,02,25,29,31,30,,,,,,2.2,1.4,1.7*34
$GPGSV,3,1,10,29,76,174,42,25,61,084,39,30,60,289,41,31,56,293,39*72
$GPGSV,3,2,10,12,27,090,30,02,25,052,28,14,18,219,38,21,05,171,15*75
$GPGSV,3,3,10,23,02,342,34,10,00,037,20*7E
$GPRMC,091246.000,A,5034.2771,N,00227.3736,W,0.21,251.97,161011,,,A*7E
$GPGGA,091247.000,5034.2770,N,00227.3736,W,1,07,1.4,8.07,M,48.8,M,,0000*78
$GPGSA,M,3,12,14,02,25,29,31,30,,,,,,2.2,1.4,1.7*34
$GPRMC,091247.000,A,5034.2770,N,00227.3736,W,0.25,184.53,161011,,,A*79
$GPGGA,091248.000,5034.2769,N,00227.3737,W,1,07,1.4,8.09,M,48.8,M,,0000*70
$GPGSA,M,3,12,14,02,25,29,31,30,,,,,,2.2,1.4,1.7*34
$GPRMC,091248.000,A,5034.2769,N,00227.3737,W,0.29,135.13,161011,,,A*7D
$GPGGA,091249.000,5034.2769,N,00227.3735,W,1,07,1.4,7.88,M,48.8,M,,0000*75
$GPGSA,M,3,12,14,02,25,29,31,30,,,,,,2.2,1.4,1.7*34
$GPRMC,091249.000,A,5034.2769,N,00227.3735,W,0.23,62.17,161011,,,A*43
$GPGGA,091250.000,5034.2769,N,00227.3734,W,1,07,1.4,7.61,M,48.8,M,,0000*7B
$GPGSA,M,3,12,14,02,25,29,31,30,,,,,,2.2,1.4,1.7*34
$GPRMC,091250.000,A,5034.2769,N,00227.3734,W,0.17,196.41,161011,,,A*74
$GPGGA,091251.000,5034.2766,N,00227.3735,W,1,07,1.4,7.54,M,48.8,M,,0000*72
$GPGSA,M,3,12,14,02,25,29,31,30,,,,,,2.2,1.4,1.7*34
$GPGSV,3,1,10,29,76,174,41,25,61,084,35,30,60,289,41,31,56,293,40*73
$GPGSV,3,2,10,12,27,090,28,02,25,052,27,14,18,219,25,21,05,171,22*7B
$GPGSV,3,3,10,23,02,342,35,10,00,037,30*7E
$GPRMC,091251.000,A,5034.2766,N,00227.3735,W,0.35,190.87,161011,,,A*77
$GPGGA,091252.000,5034.2765,N,00227.3734,W,1,07,1.4,7.56,M,48.8,M,,0000*71
$GPGSA,M,3,12,14,02,25,29,31,30,,,,,,2.2,1.4,1.7*34
$GPRMC,091252.000,A,5034.2765,N,00227.3734,W,0.01,313.25,161011,,,A*70
$GPGGA,091253.000,5034.2764,N,00227.3733,W,1,07,1.4,6.97,M,48.8,M,,0000*7A
$GPGSA,M,3,12,14,02,25,29,31,30,,,,,,2.2,1.4,1.7*34
$GPRMC,091253.000,A,5034.2764,N,00227.3733,W,0.17,63.57,161011,,,A*41
$GPGGA,091254.000,5034.2765,N,00227.3732,W,1,07,1.4,6.38,M,48.8,M,,0000*78
$GPGSA,M,3,12,14,02,25,29,31,30,,,,,,2.2,1.4,1.7*34
$GPRMC,091254.000,A,5034.2765,N,00227.3732,W,0.12,28.01,161011,,,A*4F
$GPGGA,091255.000,5034.2766,N,00227.3732,W,1,07,1.4,6.34,M,48.8,M,,0000*76
$GPGSA,M,3,12,14,02,25,29,31,30,,,,,,2.2,1.4,1.7*34
$GPRMC,091255.000,A,5034.2766,N,00227.3732,W,0.32,262.13,161011,,,A*70
$GPGGA,091256.000,5034.2766,N,00227.3733,W,1,07,1.4,6.10,M,48.8,M,,0000*72
$GPGSA,M,3,12,14,02,25,29,31,30,,,,,,2.2,1.4,1.7*34
$GPGSV,3,1,10,29,76,174,42,25,61,084,45,30,60,289,43,31,56,293,41*74
$GPGSV,3,2,10,12,27,090,31,02,25,052,38,14,18,219,38,21,05,171,23*70
$GPGSV,3,3,10,23,02,342,27,10,00,037,35*78
$GPRMC,091256.000,A,5034.2766,N,00227.3733,W,0.23,234.75,161011,,,A*71
$GPGGA,091257.000,5034.2767,N,00227.3734,W,1,07,1.4,5.99,M,48.8,M,,0000*77
$GPGSA,M,3,12,14,02,25,29,31,30,,,,,,2.2,1.4,1.7*34
$GPRMC,091257.000,A,5034.2767,N,00227.3734,W,0.38,321.64,161011,,,A*79
$GPGGA,091258.000,5034.2768,N,00227.3734,W,1,07,1.4,6.02,M,48.8,M,,0000*76
$GPGSA,M,3,12,14,02,25,29,31,30,,,,,,2.2,1.4,1.7*34
$GPRMC,091258.000,A,5034.2768,N,00227.3734,W,0.34,324.15,161011,,,A*76
$GPGGA,091259.000,5034.2769,N,00227.3734,W,1,07,1.4,5.93,M,48.8,M,,0000*7D
$GPGSA,M,3,12,14,02,25,29,31,30,,,,,,2.2,1.4,1.7*34
$GPRMC,091259.000,A,5034.2769,N,00227.3734,W,0.42,67.50,161011,,,A*42
$GPGGA,091300.000,5034.2770,N,00227.3733,W,1,07,1.4,5.79,M,48.8,M,,0000*7B
$GPGSA,M,3,12,14,02,25,29,31,30,,,,,,2.2,1.4,1.7*34
$GPRMC,091300.000,A,5034.2770,N,00227.3733,W,0.03,142.26,161011,,,A*72
$GPGGA,091301.000,5034.2771,N,00227.3733,W,1,07,1.4,5.71,M,48.8,M,,0000*73
$GPGSA,M,3,12,14,02,25,29,31,30,,,,,,2.2,1.4,1.7*34
$GPGSV,3,1,10,29,76,174,42,25,61,084,45,30,60,289,42,31,56,293,41*75
$GPGSV,3,2,10,12,27,090,37,02,25,052,33,14,18,219,27,21,05,171,23*73
$GPGSV,3,3,10,23,02,342,35,10,00,037,23*7C
$GPRMC,091301.000,A,5034.2771,N,00227.3733,W,0.07,231.88,161011,,,A*75
$GPGGA,091302.000,5034.2771,N,00227.3733,W,1,07,1.4,5.67,M,48.8,M,,0000*77
$GPGSA,M,3,12,14,02,25,29,31,30,,,,,,2.2,1.4,1.7*34
$GPRMC,091302.000,A,5034.2771,N,00227.3733,W,0.16,78.95,161011,,,A*45
$GPGGA,091303.000,5034.2771,N,00227.3733,W,1,07,1.4,5.65,M,48.8,M,,0000*74
$GPGSA,M,3,12,14,02,25,29,31,30,,,,,,2.2,1.4,1.7*34
$GPRMC,091303.000,A,5034.2771,N,00227.3733,W,0.03,315.23,161011,,,A*75
$GPGGA,091304.000,5034.2772,N,00227.3734,W,1,07,1.4,5.61,M,48.8,M,,0000*73
$GPGSA,M,3,12,14,02,25,29,31,30,,,,,,2.2,1.4,1.7*34
$GPRMC,091304.000,A,5034.2772,N,00227.3734,W,1.26,329.43,161011,,,A*79
$GPGGA,091305.000,5034.2778,N,00227.3736,W,1,07,1.4,5.88,M,48.8,M,,0000*7D
$GPGSA,M,3,12,14,02,25,29,31,30,,,,,,2.2,1.4,1.7*34
$GPRMC,091305.000,A,5034.2778,N,00227.3736,W,2.09,333.19,161011,,,A*7A
$GPGGA,091306.000,5034.2780,N,00227.3737,W,1,07,1.4,5.67,M,48.8,M,,0000*79
$GPGSA,M,3,12,14,02,25,29,31,30,,,,,,2.2,1.4,1.7*34
$GPGSV,3,1,10,29,76,174,39,25,61,085,39,30,60,289,37,31,56,293,41*71
$GPGSV,3,2,10,12,27,090,28,02,25,051,35,14,18,219,28,21,05,171,21*75
$GPGSV,3,3,10,23,02,342,37,10,00,037,32*7E
$GPRMC,091306.000,A,5034.2780,N,00227.3737,W,0.21,46.11,161011,,,A*4E
$GPGGA,091307.000,5034.2780,N,00227.3735,W,1,07,1.4,5.54,M,48.8,M,,0000*7A
$GPGSA,M,3,12,14,02,25,29,31,30,,,,,,2.2,1.4,1.7*34
$GPRMC,091307.000,A,5034.2780,N,00227.3735,W,0.22,139.55,161011,,,A*77
$GPGGA,091308.000,5034.2780,N,00227.3733,W,1,06,1.6,5.77,M,48.8,M,,0000*71
$GPGSA,M,3,12,14,02,25,29,31,,,,,,,2.3,1.6,1.7*34
$GPRMC,091308.000,A,5034.2780,N,00227.3733,W,0.46,141.17,161011,,,A*75
$GPGGA,091309.000,5034.2779,N,00227.3732,W,1,07,1.4,5.84,M,48.8,M,,0000*78
$GPGSA,M,3,12,14,02,25,29,31,30,,,,,,2.2,1.4,1.7*34
$GPRMC,091309.000,A,5034.2779,N,00227.3732,W,0.08,125.44,161011,,,A*7D
$GPGGA,091310.000,5034.2780,N,00227.3733,W,1,07,1.4,5.78,M,48.8,M,,0000*74
$GPGSA,M,3,12,14,02,25,29,31,30,,,,,,2.2,1.4,1.7*34
$GPRMC,091310.000,A,5034.2780,N,00227.3733,W,0.20,325.45,161011,,,A*7B
$GPGGA,091311.000,5034.2778,N,00227.3735,W,1,07,1.4,5.21,M,48.8,M,,0000*78
$GPGSA,M,3,12,14,02,25,29,31,30,,,,,,2.2,1.4,1.7*34
$GPGSV,3,1,10,29,76,174,30,25,61,085,32,30,60,289,26,31,56,293,33*76
$GPGSV,3,2,10,12,27,090,30,02,25,051,34,14,18,219,27,21,05,171,22*71
$GPGSV,3,3,10,23,02,342,39,10,00,037,37*75
$GPRMC,091311.000,A,5034.2778,N,00227.3735,W,0.20,152.74,161011,,,A*7B
$GPGGA,091312.000,5034.2778,N,00227.3736,W,1,07,1.4,5.43,M,48.8,M,,0000*7C
$GPGSA,M,3,12,14,02,25,29,31,30,,,,,,2.2,1.4,1.7*34
$GPRMC,091312.000,A,5034.2778,N,00227.3736,W,0.16,178.58,161011,,,A*78
$GPGGA,091313.000,5034.2777,N,00227.3737,W,1,07,1.4,5.02,M,48.8,M,,0000*76
$GPGSA,M,3,12,14,02,25,29,31,30,,,,,,2.2,1.4,1.7*34
$GPRMC,091313.000,A,5034.2777,N,00227.3737,W,0.03,79.46,161011,,,A*4C
$GPGGA,091314.000,5034.2777,N,00227.3736,W,1,07,1.4,4.88,M,48.8,M,,0000*73
$GPGSA,M,3,12,14,02,25,29,31,30,,,,,,2.2,1.4,1.7*34
$GPRMC,091314.000,A,5034.2777,N,00227.3736,W,0.15,74.28,161011,,,A*48
$GPGGA,091315.000,5034.2777,N,00227.3736,W,1,07,1.4,4.53,M,48.8,M,,0000*74
$GPGSA,M,3,12,14,02,25,29,31,30,,,,,,2.2,1.4,1.7*34
$GPRMC,091315.000,A,5034.2777,N,00227.3736,W,0.33,21.27,161011,,,A*42
$GPGGA,091316.000,5034.2777,N,00227.3738,W,1,07,1.4,4.51,M,48.8,M,,0000*7B
$GPGSA,M,3,12,14,02,25,29,31,30,,,,,,2.2,1.4,1.7*34
$GPGSV,3,1,10,29,76,174,35,25,61,085,32,30,60,289,28,31,56,293,28*77
$GPGSV,3,2,10,12,27,090,32,02,25,051,35,14,18,219,30,21,05,171,21*77
$GPGSV,3,3,10,23,02,342,28,10,00,037,24*77
$GPRMC,091316.000,A,5034.2777,N,00227.3738,W,0.17,298.19,161011,,,A*74
$GPGGA,091317.000,5034.2777,N,00227.3740,W,1,07,1.4,4.42,M,48.8,M,,0000*77
$GPGSA,M,3,12,14,02,25,29,31,30,,,,,,2.2,1.4,1.7*34
$GPRMC,091317.000,A,5034.2777,N,00227.3740,W,0.12,314.56,161011,,,A*71
$GPGGA,091318.000,5034.2777,N,00227.3740,W,1,07,1.4,4.41,M,48.8,M,,0000*7B
$GPGSA,M,3,12,14,02,25,29,31,30,,,,,,2.2,1.4,1.7*34
$GPRMC,091318.000,A,5034.2777,N,00227.3740,W,0.07,306.03,161011,,,A*79
$GPGGA,091319.000,5034.2777,N,00227.3741,W,1,07,1.4,4.32,M,48.8,M,,0000*7F
$GPGSA,M,3,12,14,02,25,29,31,30,,,,,,2.2,1.4,1.7*34
$GPRMC,091319.000,A,5034.2777,N,00227.3741,W,0.04,66.31,161011,,,A*4E
$GPGGA,091320.000,5034.2776,N,00227.3741,W,1,05,1.7,4.10,M,48.8,M,,0000*75
$GPGSA,M,3,12,14,02,25,31,,,,,,,,2.8,1.7,2.3*32
$GPRMC,091320.000,A,5034.2776,N,00227.3741,W,0.07,181.25,161011,,,A*7B
$GPGGA,091321.000,5034.2776,N,00227.3742,W,1,05,1.7,3.96,M,48.8,M,,0000*7E
$GPGSA,M,3,12,14,02,25,31,,,,,,,,2.8,1.7,2.3*32
$GPGSV,3,1,10,29,76,174,,25,61,085,38,30,60,289,,31,56,293,38*70
$GPGSV,3,2,10,12,27,090,32,02,25,051,35,14,18,219,27,21,05,171,*72
$GPGSV,3,3,10,23,02,342,,10,00,037,26*7F
$GPRMC,091321.000,A,5034.2776,N,00227.3742,W,0.10,166.30,161011,,,A*72
$GPGGA,091322.000,5034.2776,N,00227.3742,W,1,07,1.4,3.82,M,48.8,M,,0000*79
$GPGSA,M,3,12,14,02,25,29,31,30,,,,,,2.2,1.4,1.7*34
$GPRMC,091322.000,A,5034.2776,N,00227.3742,W,0.20,49.69,161011,,,A*42
$GPGGA,091323.000,5034.2775,N,00227.3741,W,1,07,1.4,3.85,M,48.8,M,,0000*7F
$GPGSA,M,3,12,14,02,25,29,31,30,,,,,,2.2,1.4,1.7*34
$GPRMC,091323.000,A,5034.2775,N,00227.3741,W,0.12,155.11,161011,,,A*71
$GPGGA,091324.000,5034.2775,N,00227.3741,W,1,07,1.4,3.97,M,48.8,M,,0000*7B
$GPGSA,M,3,12,14,02,25,29,31,30,,,,,,2.2,1.4,1.7*34
$GPRMC,091324.000,A,5034.2775,N,00227.3741,W,0.13,169.63,161011,,,A*7D
$GPGGA,091325.000,5034.2775,N,00227.3740,W,1,07,1.4,3.91,M,48.8,M,,0000*7D
$GPGSA,M,3,12,14,02,25,29,31,30,,,,,,2.2,1.4,1.7*34
$GPRMC,091325.000,A,5034.2775,N,00227.3740,W,0.64,58.61,161011,,,A*4C
$GPGGA,091326.000,5034.2777,N,00227.3737,W,1,06,2.9,3.94,M,48.8,M,,0000*76
$GPGSA,M,3,12,02,25,29,31,30,,,,,,,5.1,2.9,4.2*3B
$GPGSV,3,1,10,29,76,174,46,25,61,085,47,30,60,289,43,31,56,293,42*70
$GPGSV,3,2,10,12,27,090,46,02,25,051,46,14,18,219,,21,05,171,30*73
$GPGSV,3,3,10,23,02,342,38,10,00,037,37*74
$GPRMC,091326.000,A,5034.2777,N,00227.3737,W,1.01,70.73,161011,,,A*46
$GPGGA,091327.000,5034.2781,N,00227.3736,W,1,07,1.4,3.98,M,48.8,M,,0000*7C
$GPGSA,M,3,12,14,02,25,29,31,30,,,,,,2.2,1.4,1.7*34
$GPRMC,091327.000,A,5034.2781,N,00227.3736,W,2.31,348.01,161011,,,A*72
$GPGGA,091328.000,5034.2788,N,00227.3740,W,1,07,1.4,4.21,M,48.8,M,,0000*7E
$GPGSA,M,3,12,14,02,25,29,31,30,,,,,,2.2,1.4,1.7*34
$GPRMC,091328.000,A,5034.2788,N,00227.3740,W,2.81,330.81,161011,,,A*79
$GPGGA,091329.000,5034.2794,N,00227.3747,W,1,07,1.4,4.41,M,48.8,M,,0000*73
$GPGSA,M,3,12,14,02,25,29,31,30,,,,,,2.2,1.4,1.7*34
$GPRMC,091329.000,A,5034.2794,N,00227.3747,W,2.99,314.97,161011,,,A*7A
$GPGGA,091330.000,5034.2799,N,00227.3758,W,1,07,1.4,4.63,M,48.8,M,,0000*78
$GPGSA,M,3,12,14,02,25,29,31,30,,,,,,2.2,1.4,1.7*34
$GPRMC,091330.000,A,5034.2799,N,00227.3758,W,3.21,302.68,161011,,,A*74
$GPGGA,091331.000,5034.2802,N,00227.3769,W,1,07,1.4,4.65,M,48.8,M,,0000*70
$GPGSA,M,3,12,14,02,25,29,31,30,,,,,,2.2,1.4,1.7*34
$GPGSV,3,1,10,29,76,174,41,25,61,085,47,30,60,289,39,31,56,293,39*76
$GPGSV,3,2,10,12,27,090,48,02,25,051,46,14,18,219,30,21,05,171,33*7D
$GPGSV,3,3,10,23,02,342,35,10,00,037,30*7E
$GPRMC,091331.000,A,5034.2802,N,00227.3769,W,2.59,289.31,161011,,,A*7A
$GPGGA,091332.000,5034.2805,N,00227.3781,W,1,07,1.4,4.87,M,48.8,M,,0000*7E
$GPGSA,M,3,12,14,02,25,29,31,30,,,,,,2.2,1.4,1.7*34
$GPRMC,091332.000,A,5034.2805,N,00227.3781,W,3.31,295.59,161011,,,A*74
$GPGGA,091333.000,5034.2809,N,00227.3793,W,1,07,1.4,5.11,M,48.8,M,,0000*7E
$GPGSA,M,3,12,14,02,25,29,31,30,,,,,,2.2,1.4,1.7*34
$GPRMC,091333.000,A,5034.2809,N,00227.3793,W,2.68,293.80,161011,,,A*75
$GPGGA,091334.000,5034.2812,N,00227.3803,W,1,07,1.4,5.30,M,48.8,M,,0000*76
$GPGSA,M,3,12,14,02,25,29,31,30,,,,,,2.2,1.4,1.7*34
$GPRMC,091334.000,A,5034.2812,N,00227.3803,W,2.33,290.07,161011,,,A*7C
$GPGGA,091335.000,5034.2814,N,00227.3813,W,1,07,1.4,5.45,M,48.8,M,,0000*72
$GPGSA,M,3,12,14,02,25,29,31,30,,,,,,2.2,1.4,1.7*34
$GPRMC,091335.000,A,5034.2814,N,00227.3813,W,2.53,295.71,161011,,,A*78
$GPGGA,091336.000,5034.2818,N,00227.3821,W,1,07,1.4,5.65,M,48.8,M,,0000*7E
$GPGSA,M,3,12,14,02,25,29,31,30,,,,,,2.2,1.4,1.7*34
$GPGSV,3,1,10,29,76,174,41,25,61,085,47,30,60,289,40,31,56,293,40*76
$GPGSV,3,2,10,12,27,090,48,02,25,051,40,14,18,219,39,21,05,171,33*72
$GPGSV,3,3,10,23,02,342,27,10,00,037,28*74
$GPRMC,091336.000,A,5034.2818,N,00227.3821,W,2.06,303.89,161011,,,A*7F
$GPGGA,091337.000,5034.2821,N,00227.3828,W,1,07,1.4,5.90,M,48.8,M,,0000*76
$GPGSA,M,3,12,14,02,25,29,31,30,,,,,,2.2,1.4,1.7*34
$GPRMC,091337.000,A,5034.2821,N,00227.3828,W,2.12,323.44,161011,,,A*7B
$GPGGA,091338.000,5034.2827,N,00227.3833,W,1,07,1.4,5.80,M,48.8,M,,0000*74
$GPGSA,M,3,12,14,02,25,29,31,30,,,,,,2.2,1.4,1.7*34
$GPRMC,091338.000,A,5034.2827,N,00227.3833,W,2.73,334.25,161011,,,A*7E
$GPGGA,091339.000,5034.2835,N,00227.3838,W,1,07,1.4,5.73,M,48.8,M,,0000*71
$GPGSA,M,3,12,14,02,25,29,31,30,,,,,,2.2,1.4,1.7*34
$GPRMC,091339.000,A,5034.2835,N,00227.3838,W,2.68,346.11,161011,,,A*7F
$GPGGA,091340.000,5034.2842,N,00227.3839,W,1,07,1.4,5.71,M,48.8,M,,0000*7C
$GPGSA,M,3,12,14,02,25,29,31,30,,,,,,2.2,1.4,1.7*34
$GPRMC,091340.000,A,5034.2842,N,00227.3839,W,2.84,358.99,161011,,,A*7D
$GPGGA,091341.000,5034.2851,N,00227.3839,W,1,07,1.4,5.71,M,48.8,M,,0000*7F
$GPGSA,M,3,12,14,02,25,29,31,30,,,,,,2.2,1.4,1.7*34
$GPGSV,3,1,10,29,76,173,42,30,61,289,37,25,60,085,47,31,56,293,37*72
$GPGSV,3,2,10,12,27,090,45,02,25,051,45,14,17,219,43,21,06,171,36*7E
$GPGSV,3,3,10,23,02,341,29,10,00,036,27*77
$GPRMC,091341.000,A,5034.2851,N,00227.3839,W,3.23,359.37,161011,,,A*77
$GPGGA,091342.000,5034.2859,N,00227.3839,W,1,07,1.4,5.62,M,48.8,M,,0000*76
$GPGSA,M,3,12,14,02,25,29,31,30,,,,,,2.2,1.4,1.7*34
$GPRMC,091342.000,A,5034.2859,N,00227.3839,W,2.80,1.93,161011,,,A*74
$GPGGA,091343.000,5034.2868,N,00227.3840,W,1,07,1.4,5.47,M,48.8,M,,0000*7C
$GPGSA,M,3,12,14,02,25,29,31,30,,,,,,2.2,1.4,1.7*34
$GPRMC,091343.000,A,5034.2868,N,00227.3840,W,3.44,356.51,161011,,,A*7F
$GPGGA,091344.000,5034.2877,N,00227.3841,W,1,07,1.4,5.38,M,48.8,M,,0000*7C
$GPGSA,M,3,12,14,02,25,29,31,30,,,,,,2.2,1.4,1.7*34
$GPRMC,091344.000,A,5034.2877,N,00227.3841,W,2.76,353.82,161011,,,A*7C
$GPGGA,091345.000,5034.2884,N,00227.3842,W,1,07,1.4,5.33,M,48.8,M,,0000*79
$GPGSA,M,3,12,14,02,25,29,31,30,,,,,,2.2,1.4,1.7*34
$GPRMC,091345.000,A,5034.2884,N,00227.3842,W,2.71,353.26,161011,,,A*7B
$GPGGA,091346.000,5034.2892,N,00227.3842,W,1,07,1.4,5.40,M,48.8,M,,0000*79
$GPGSA,M,3,12,14,02,25,29,31,30,,,,,,2.2,1.4,1.7*34
$GPGSV,3,1,10,29,76,173,42,30,61,289,36,25,60,085,47,31,56,293,37*73
$GPGSV,3,2,10,12,27,090,45,02,25,051,45,14,17,219,39,21,06,171,40*72
$GPGSV,3,3,10,23,02,341,36,10,00,036,23*7D
$GPRMC,091346.000,A,5034.2892,N,00227.3842,W,2.83,7.33,161011,,,A*74
$GPGGA,091347.000,5034.2899,N,00227.3840,W,1,07,1.4,5.44,M,48.8,M,,0000*75
$GPGSA,M,3,12,14,02,25,29,31,30,,,,,,2.2,1.4,1.7*34
$GPRMC,091347.000,A,5034.2899,N,00227.3840,W,2.38,11.31,161011,,,A*49
$GPGGA,091348.000,5034.2906,N,00227.3836,W,1,07,1.4,5.39,M,48.8,M,,0000*76
$GPGSA,M,3,12,14,02,25,29,31,30,,,,,,2.2,1.4,1.7*34
$GPRMC,091348.000,A,5034.2906,N,00227.3836,W,3.01,21.83,161011,,,A*41
$GPGGA,091349.000,5034.2913,N,00227.3832,W,1,07,1.4,5.54,M,48.8,M,,0000*7C
$GPGSA,M,3,12,14,02,25,29,31,30,,,,,,2.2,1.4,1.7*34
$GPRMC,091349.000,A,5034.2913,N,00227.3832,W,2.70,16.56,161011,,,A*4B
$GPGGA,091350.000,5034.2920,N,00227.3829,W,1,07,1.4,5.49,M,48.8,M,,0000*72
$GPGSA,M,3,12,14,02,25,29,31,30,,,,,,2.2,1.4,1.7*34
$GPRMC,091350.000,A,5034.2920,N,00227.3829,W,2.41,11.22,161011,,,A*4F
$GPGGA,091351.000,5034.2926,N,00227.3827,W,1,07,1.4,5.52,M,48.8,M,,0000*71
$GPGSA,M,3,12,14,02,25,29,31,30,,,,,,2.2,1.4,1.7*34
$GPGSV,3,1,10,29,76,173,44,30,61,289,37,25,60,085,48,31,56,293,38*74
$GPGSV,3,2,10,12,27,090,45,02,25,051,44,14,17,219,40,21,06,171,41*7C
$GPGSV,3,3,10,23,02,341,,10,00,036,32*78
$GPRMC,091351.000,A,5034.2926,N,00227.3827,W,2.50,13.14,161011,,,A*41
$GPGGA,091352.000,5034.2932,N,00227.3825,W,1,07,1.4,5.40,M,48.8,M,,0000*76
$GPGSA,M,3,12,14,02,25,29,31,30,,,,,,2.2,1.4,1.7*34
$GPRMC,091352.000,A,5034.2932,N,00227.3825,W,2.02,2.66,161011,,,A*77
$GPGGA,091353.000,5034.2938,N,00227.3827,W,1,07,1.4,5.25,M,48.8,M,,0000*7C
$GPGSA,M,3,12,14,02,25,29,31,30,,,,,,2.2,1.4,1.7*34
$GPRMC,091353.000,A,5034.2938,N,00227.3827,W,2.44,345.34,161011,,,A*7B
$GPGGA,091354.000,5034.2943,N,00227.3829,W,1,07,1.4,4.91,M,48.8,M,,0000*77
$GPGSA,M,3,12,14,02,25,29,31,30,,,,,,2.2,1.4,1.7*34
$GPRMC,091354.000,A,5034.2943,N,00227.3829,W,1.40,348.67,161011,,,A*72
$GPGGA,091355.000,5034.2944,N,00227.3830,W,1,07,1.4,4.79,M,48.8,M,,0000*7F
$GPGSA,M,3,12,14,02,25,29,31,30,,,,,,2.2,1.4,1.7*34
$GPRMC,091355.000,A,5034.2944,N,00227.3830,W,0.55,232.61,161011,,,A*73
$GPGGA,091356.000,5034.2942,N,00227.3831,W,1,07,1.4,4.72,M,48.8,M,,0000*70
$GPGSA,M,3,12,14,02,25,29,31,30,,,,,,2.2,1.4,1.7*34
$GPGSV,3,1,10,29,76,173,43,30,61,289,37,25,60,085,47,31,56,293,32*76
$GPGSV,3,2,10,12,27,090,47,02,25,051,46,14,17,219,35,21,06,171,42*7D
$GPGSV,3,3,10,23,02,341,41,10,00,036,36*79
$GPRMC,091356.000,A,5034.2942,N,00227.3831,W,0.68,216.38,161011,,,A*73
$GPGGA,091357.000,5034.2941,N,00227.3832,W,1,07,1.4,4.86,M,48.8,M,,0000*7A
$GPGSA,M,3,12,14,02,25,29,31,30,,,,,,2.2,1.4,1.7*34
$GPRMC,091357.000,A,5034.2941,N,00227.3832,W,0.67,228.31,161011,,,A*79
$GPGGA,091358.000,5034.2939,N,00227.3834,W,1,07,1.4,4.90,M,48.8,M,,0000*7B
$GPGSA,M,3,12,14,02,25,29,31,30,,,,,,2.2,1.4,1.7*34
$GPRMC,091358.000,A,5034.2939,N,00227.3834,W,0.53,204.63,161011,,,A*71
$GPGGA,091359.000,5034.2937,N,00227.3835,W,1,07,1.4,4.98,M,48.8,M,,0000*7D
$GPGSA,M,3,12,14,02,25,29,31,30,,,,,,2.2,1.4,1.7*34
$GPRMC,091359.000,A,5034.2937,N,00227.3835,W,0.89,218.45,161011,,,A*71
$GPGGA,091400.000,5034.2935,N,00227.3837,W,1,07,1.4,5.17,M,48.8,M,,0000*70
$GPGSA,M,3,12,14,02,25,29,31,30,,,,,,2.2,1.4,1.7*34
$GPRMC,091400.000,A,5034.2935,N,00227.3837,W,0.89,264.67,161011,,,A*71
$GPGGA,091401.000,5034.2932,N,00227.3839,W,1,07,1.4,5.15,M,48.8,M,,0000*7A
$GPGSA,M,3,12,14,02,25,29,31,30,,,,,,2.2,1.4,1.7*34
$GPGSV,3,1,10,29,76,173,43,30,61,289,25,25,60,085,47,31,56,293,31*76
$GPGSV,3,2,10,12,27,090,46,02,25,051,43,14,17,219,33,21,06,171,42*7F
$GPGSV,3,3,10,23,02,341,30,10,00,036,35*7C
$GPRMC,091401.000,A,5034.2932,N,00227.3839,W,0.89,224.34,161011,,,A*7B
$GPGGA,091402.000,5034.2931,N,00227.3843,W,1,06,1.6,5.12,M,48.8,M,,0000*73
$GPGSA,M,3,12,14,02,25,29,31,,,,,,,2.3,1.6,1.7*34
$GPRMC,091402.000,A,5034.2931,N,00227.3843,W,1.38,230.51,161011,,,A*7B
$GPGGA,091403.000,5034.2930,N,00227.3846,W,1,05,2.6,5.48,M,48.8,M,,0000*79
$GPGSA,M,3,12,14,02,25,29,,,,,,,,3.1,2.6,1.7*36
$GPRMC,091403.000,A,5034.2930,N,00227.3846,W,0.88,232.09,161011,,,A*7B
$GPGGA,091404.000,5034.2928,N,00227.3848,W,1,06,1.6,5.61,M,48.8,M,,0000*72
$GPGSA,M,3,12,14,02,25,29,31,,,,,,,2.3,1.6,1.7*34
$GPRMC,091404.000,A,5034.2928,N,00227.3848,W,1.29,190.42,161011,,,A*75
$GPGGA,091405.000,5034.2926,N,00227.3851,W,1,07,1.4,5.64,M,48.8,M,,0000*73
$GPGSA,M,3,12,14,02,25,29,31,30,,,,,,2.2,1.4,1.7*34
$GPRMC,091405.000,A,5034.2926,N,00227.3851,W,0.66,210.40,161011,,,A*71
$GPGGA,091406.000,5034.2924,N,00227.3850,W,1,07,1.4,5.76,M,48.8,M,,0000*70
$GPGSA,M,3,12,14,02,25,29,31,30,,,,,,2.2,1.4,1.7*34
$GPGSV,3,1,10,29,76,173,36,30,61,289,34,25,60,085,47,31,56,293,37*72
$GPGSV,3,2,10,12,27,090,47,02,25,051,47,14,17,219,29,21,06,171,35*71
$GPGSV,3,3,10,23,02,341,31,10,00,036,27*7E
$GPRMC,091406.000,A,5034.2924,N,00227.3850,W,0.25,186.42,161011,,,A*78
$GPGGA,091407.000,5034.2924,N,00227.3851,W,1,07,1.4,5.78,M,48.8,M,,0000*7E
$GPGSA,M,3,12,14,02,25,29,31,30,,,,,,2.2,1.4,1.7*34
$GPRMC,091407.000,A,5034.2924,N,00227.3851,W,0.23,208.97,161011,,,A*73
$GPGGA,091408.000,5034.2923,N,00227.3852,W,1,07,1.4,5.71,M,48.8,M,,0000*7C
$GPGSA,M,3,12,14,02,25,29,31,30,,,,,,2.2,1.4,1.7*34
$GPRMC,091408.000,A,5034.2923,N,00227.3852,W,0.32,143.52,161011,,,A*7D
$GPGGA,091409.000,5034.2921,N,00227.3850,W,1,07,1.4,5.82,M,48.8,M,,0000*71
$GPGSA,M,3,12,14,02,25,29,31,30,,,,,,2.2,1.4,1.7*34
$GPRMC,091409.000,A,5034.2921,N,00227.3850,W,1.23,161.32,161011,,,A*7B
$GPGGA,091410.000,5034.2917,N,00227.3848,W,1,07,1.4,5.81,M,48.8,M,,0000*76
$GPGSA,M,3,12,14,02,25,29,31,30,,,,,,2.2,1.4,1.7*34
$GPRMC,091410.000,A,5034.2917,N,00227.3848,W,0.99,174.28,161011,,,A*70
$GPGGA,091411.000,5034.2915,N,00227.3848,W,1,07,1.4,5.87,M,48.8,M,,0000*73
$GPGSA,M,3,12,14,02,25,29,31,30,,,,,,2.2,1.4,1.7*34
$GPGSV,3,1,10,29,76,173,39,30,61,289,34,25,60,085,47,31,57,293,31*7A
$GPGSV,3,2,10,12,26,090,48,02,25,051,47,14,17,219,37,21,06,171,32*77
$GPGSV,3,3,10,23,02,341,31,10,00,036,36*7E
$GPRMC,091411.000,A,5034.2915,N,00227.3848,W,0.18,271.57,161011,,,A*74
$GPGGA,091412.000,5034.2916,N,00227.3852,W,1,07,1.4,5.67,M,48.8,M,,0000*76
$GPGSA,M,3,12,14,02,25,29,31,30,,,,,,2.2,1.4,1.7*34
$GPRMC,091412.000,A,5034.2916,N,00227.3852,W,0.54,275.55,161011,,,A*71
$GPGGA,091413.000,5034.2916,N,00227.3856,W,1,07,1.4,5.44,M,48.8,M,,0000*72
$GPGSA,M,3,12,14,02,25,29,31,30,,,,,,2.2,1.4,1.7*34
$GPRMC,091413.000,A,5034.2916,N,00227.3856,W,0.78,294.45,161011,,,A*74
$GPGGA,091414.000,5034.2918,N,00227.3857,W,1,07,1.4,5.62,M,48.8,M,,0000*7E
$GPGSA,M,3,12,14,02,25,29,31,30,,,,,,2.2,1.4,1.7*34
$GPRMC,091414.000,A,5034.2918,N,00227.3857,W,0.82,347.21,161011,,,A*74
$GPGGA,091415.000,5034.2920,N,00227.3860,W,1,07,1.4,4.99,M,48.8,M,,0000*75
$GPGSA,M,3,12,14,02,25,29,31,30,,,,,,2.2,1.4,1.7*34
$GPRMC,091415.000,A,5034.2920,N,00227.3860,W,1.13,331.01,161011,,,A*70
$GPGGA,091416.000,5034.2920,N,00227.3862,W,1,07,1.4,4.88,M,48.8,M,,0000*74
$GPGSA,M,3,12,14,02,25,29,31,30,,,,,,2.2,1.4,1.7*34
$GPGSV,3,1,10,29,76,173,42,30,61,289,38,25,60,085,47,31,57,293,43*7F
$GPGSV,3,2,10,12,26,090,47,02,25,051,46,14,17,219,32,21,06,171,32*7C
$GPGSV,3,3,10,23,02,341,43,10,00,036,36*7B
$GPRMC,091416.000,A,5034.2920,N,00227.3862,W,0.72,218.47,161011,,,A*7F
$GPGGA,091417.000,5034.2919,N,00227.3863,W,1,07,1.4,4.83,M,48.8,M,,0000*75
$GPGSA,M,3,12,14,02,25,29,31,30,,,,,,2.2,1.4,1.7*34
$GPRMC,091417.000,A,5034.2919,N,00227.3863,W,0.45,200.00,161011,,,A*7B
$GPGGA,091418.000,5034.2918,N,00227.3863,W,1,07,1.4,4.78,M,48.8,M,,0000*7F
$GPGSA,M,3,12,14,02,25,29,31,30,,,,,,2.2,1.4,1.7*34
$GPRMC,091418.000,A,5034.2918,N,00227.3863,W,0.09,261.33,161011,,,A*7A
$GPGGA,091419.000,5034.2919,N,00227.3864,W,1,07,1.4,4.88,M,48.8,M,,0000*77
$GPGSA,M,3,12,14,02,25,29,31,30,,,,,,2.2,1.4,1.7*34
$GPRMC,091419.000,A,5034.2919,N,00227.3864,W,0.53,319.48,161011,,,A*70
$GPGGA,091420.000,5034.2921,N,00227.3867,W,1,07,1.4,5.07,M,48.8,M,,0000*73
$GPGSA,M,3,12,14,02,25,29,31,30,,,,,,2.2,1.4,1.7*34
$GPRMC,091420.000,A,5034.2921,N,00227.3867,W,0.57,288.98,161011,,,A*72
$GPGGA,091421.000,5034.2921,N,00227.3869,W,1,07,1.4,5.06,M,48.8,M,,0000*7D
$GPGSA,M,3,12,14,02,25,29,31,30,,,,,,2.2,1.4,1.7*34
$GPGSV,3,1,10,29,76,173,42,30,61,289,40,25,60,085,47,31,57,293,41*72
$GPGSV,3,2,10,12,26,090,48,02,25,051,47,14,17,219,31,21,06,171,24*76
$GPGSV,3,3,10,23,02,341,38,10,00,036,38*79
$GPRMC,091421.000,A,5034.2921,N,00227.3869,W,0.31,285.73,161011,,,A*75
$GPGGA,091422.000,5034.2920,N,00227.3870,W,1,07,1.4,5.16,M,48.8,M,,0000*76
$GPGSA,M,3,12,14,02,25,29,31,30,,,,,,2.2,1.4,1.7*34
$GPRMC,091422.000,A,5034.2920,N,00227.3870,W,0.38,212.92,161011,,,A*77
$GPGGA,091423.000,5034.2919,N,00227.3870,W,1,07,1.4,5.25,M,48.8,M,,0000*7D
$GPGSA,M,3,12,14,02,25,29,31,30,,,,,,2.2,1.4,1.7*34
$GPRMC,091423.000,A,5034.2919,N,00227.3870,W,0.12,210.86,161011,,,A*73
$GPGGA,091424.000,5034.2918,N,00227.3868,W,1,07,1.4,5.36,M,48.8,M,,0000*70
$GPGSA,M,3,12,14,02,25,29,31,30,,,,,,2.2,1.4,1.7*34
$GPRMC,091424.000,A,5034.2918,N,00227.3868,W,0.03,247.79,161011,,,A*7E
$GPGGA,091425.000,5034.2918,N,00227.3869,W,1,07,1.4,5.22,M,48.8,M,,0000*75
$GPGSA,M,3,12,14,02,25,29,31,30,,,,,,2.2,1.4,1.7*34
$GPRMC,091425.000,A,5034.2918,N,00227.3869,W,0.28,313.42,161011,,,A*7F
$GPGGA,091426.000,5034.2917,N,00227.3871,W,1,07,1.4,4.86,M,48.8,M,,0000*7F
$GPGSA,M,3,12,14,02,25,29,31,30,,,,,,2.2,1.4,1.7*34
$GPGSV,3,1,10,29,76,173,41,30,61,289,38,25,60,085,46,31,57,293,35*7C
$GPGSV,3,2,10,12,26,090,47,02,25,051,41,14,17,219,40,21,06,171,39*75
$GPGSV,3,3,10,23,02,341,32,10,00,036,32*79
$GPRMC,091426.000,A,5034.2917,N,00227.3871,W,0.49,306.65,161011,,,A*7C
$GPGGA,091427.000,5034.2918,N,00227.3873,W,1,07,1.4,4.69,M,48.8,M,,0000*72
$GPGSA,M,3,12,14,02,25,29,31,30,,,,,,2.2,1.4,1.7*34
$GPRMC,091427.000,A,5034.2918,N,00227.3873,W,0.93,320.29,161011,,,A*7B
$GPGGA,091428.000,5034.2920,N,00227.3874,W,1,07,1.4,4.64,M,48.8,M,,0000*7C
$GPGSA,M,3,12,14,02,25,29,31,30,,,,,,2.2,1.4,1.7*34
$GPRMC,091428.000,A,5034.2920,N,00227.3874,W,0.65,323.43,161011,,,A*7E
$GPGGA,091429.000,5034.2920,N,00227.3876,W,1,07,1.4,4.41,M,48.8,M,,0000*78
$GPGSA,M,3,12,14,02,25,29,31,30,,,,,,2.2,1.4,1.7*34
$GPRMC,091429.000,A,5034.2920,N,00227.3876,W,0.62,333.38,161011,,,A*77
$GPGGA,091430.000,5034.2923,N,00227.3880,W,1,07,1.4,4.00,M,48.8,M,,0000*7F
$GPGSA,M,3,12,14,02,25,29,31,30,,,,,,2.2,1.4,1.7*34
$GPRMC,091430.000,A,5034.2923,N,00227.3880,W,2.07,330.27,161011,,,A*79
$GPGGA,091431.000,5034.2925,N,00227.3885,W,1,07,1.4,3.80,M,48.8,M,,0000*72
$GPGSA,M,3,12,14,02,25,29,31,30,,,,,,2.2,1.4,1.7*34
$GPGSV,3,1,10,29,76,173,41,30,61,289,38,25,60,085,46,31,57,293,38*71
$GPGSV,3,2,10,12,26,090,47,02,25,051,44,14,17,219,37,21,06,171,33*7A
$GPGSV,3,3,10,23,02,341,45,10,00,036,33*78
$GPRMC,091431.000,A,5034.2925,N,00227.3885,W,1.29,273.77,161011,,,A*77
$GPGGA,091432.000,5034.2924,N,00227.3891,W,1,07,1.4,3.71,M,48.8,M,,0000*7B
$GPGSA,M,3,12,14,02,25,29,31,30,,,,,,2.2,1.4,1.7*34
$GPRMC,091432.000,A,5034.2924,N,00227.3891,W,1.27,248.79,161011,,,A*78
$GPGGA,091433.000,5034.2922,N,00227.3897,W,1,07,1.4,3.60,M,48.8,M,,0000*7A
$GPGSA,M,3,12,14,02,25,29,31,30,,,,,,2.2,1.4,1.7*34
$GPRMC,091433.000,A,5034.2922,N,00227.3897,W,1.94,232.31,161011,,,A*70
$GPGGA,091434.000,5034.2917,N,00227.3905,W,1,07,1.4,3.37,M,48.8,M,,0000*73
$GPGSA,M,3,12,14,02,25,29,31,30,,,,,,2.2,1.4,1.7*34
$GPRMC,091434.000,A,5034.2917,N,00227.3905,W,2.61,233.66,161011,,,A*71
$GPGGA,091435.000,5034.2914,N,00227.3914,W,1,07,1.4,3.31,M,48.8,M,,0000*77
$GPGSA,M,3,12,14,02,25,29,31,30,,,,,,2.2,1.4,1.7*34
$GPRMC,091435.000,A,5034.2914,N,00227.3914,W,2.12,245.78,161011,,,A*79
$GPGGA,091436.000,5034.2912,N,00227.3921,W,1,07,1.4,3.33,M,48.8,M,,0000*76
$GPGSA,M,3,12,14,02,25,29,31,30,,,,,,2.2,1.4,1.7*34
$GPGSV,3,1,10,29,76,173,39,30,61,289,41,25,60,085,46,31,57,293,42*7D
$GPGSV,3,2,10,12,26,090,44,02,25,051,49,14,17,219,32,21,06,171,34*76
$GPGSV,3,3,10,23,02,341,46,10,00,036,20*79
$GPRMC,091436.000,A,5034.2912,N,00227.3921,W,1.64,250.55,161011,,,A*73
$GPGGA,091437.000,5034.2911,N,00227.3927,W,1,07,1.4,3.30,M,48.8,M,,0000*71
$GPGSA,M,3,12,14,02,25,29,31,30,,,,,,2.2,1.4,1.7*34
$GPRMC,091437.000,A,5034.2911,N,00227.3927,W,1.25,258.23,161011,,,A*7B
$GPGGA,091438.000,5034.2909,N,00227.3933,W,1,07,1.4,3.33,M,48.8,M,,0000*71
$GPGSA,M,3,12,14,02,25,29,31,30,,,,,,2.2,1.4,1.7*34
$GPRMC,091438.000,A,5034.2909,N,00227.3933,W,1.62,239.43,161011,,,A*7A
$GPGGA,091439.000,5034.2907,N,00227.3939,W,1,07,1.4,3.34,M,48.8,M,,0000*73
