$GPGGA,120226.000,5034.2745,N,00227.3743,W,1,08,1.2,12.96,M,48.8,M,,0000*4A
$GPGSA,M,3,06,16,29,18,31,21,30,03,,,,,2.3,1.2,2.0*3C
$GPGSV,3,1,12,21,66,104,41,16,57,298,35,06,50,268,37,30,37,142,45*71
$GPGSV,3,2,12,03,34,270,37,29,22,076,44,31,18,196,45,18,16,127,43*7D
$GPGSV,3,3,12,05,06,024,38,13,05,303,32,19,05,258,31,07,01,337,29*78
$GPRMC,120226.000,A,5034.2745,N,00227.3743,W,1.11,10.72,161011,,,A*48
$GPGGA,120227.000,5034.2747,N,00227.3742,W,1,08,1.2,12.76,M,48.8,M,,0000*46
$GPGSA,M,3,06,16,29,18,31,21,30,03,,,,,2.3,1.2,2.0*3C
$GPRMC,120227.000,A,5034.2747,N,00227.3742,W,0.28,151.88,161011,,,A*70
$GPGGA,120228.000,5034.2747,N,00227.3742,W,1,08,1.2,12.56,M,48.8,M,,0000*4B
$GPGSA,M,3,06,16,29,18,31,21,30,03,,,,,2.3,1.2,2.0*3C
$GPRMC,120228.000,A,5034.2747,N,00227.3742,W,0.21,294.21,161011,,,A*7F
$GPGGA,120229.000,5034.2748,N,00227.3742,W,1,08,1.2,12.43,M,48.8,M,,0000*41
$GPGSA,M,3,06,16,29,18,31,21,30,03,,,,,2.3,1.2,2.0*3C
$GPRMC,120229.000,A,5034.2748,N,00227.3742,W,0.12,0.74,161011,,,A*7E
$GPGGA,120230.000,5034.2748,N,00227.3742,W,1,08,1.2,12.65,M,48.8,M,,0000*4D
$GPGSA,M,3,06,16,29,18,31,21,30,03,,,,,2.3,1.2,2.0*3C
$GPRMC,120230.000,A,5034.2748,N,00227.3742,W,0.48,336.63,161011,,,A*79
$GPGGA,120231.000,5034.2751,N,00227.3743,W,1,08,1.2,12.55,M,48.8,M,,0000*46
$GPGSA,M,3,06,16,29,18,31,21,30,03,,,,,2.3,1.2,2.0*3C
$GPGSV,3,1,12,21,66,104,41,16,57,298,35,06,50,268,35,30,37,142,41*77
$GPGSV,3,2,12,03,34,270,39,29,22,076,45,31,18,196,35,18,16,127,45*73
$GPGSV,3,3,12,05,06,024,41,13,05,303,32,19,05,258,27,07,01,337,30*79
$GPRMC,120231.000,A,5034.2751,N,00227.3743,W,1.15,341.29,161011,,,A*76
$GPGGA,120232.000,5034.2750,N,00227.3745,W,1,08,1.2,12.53,M,48.8,M,,0000*44
$GPGSA,M,3,06,16,29,18,31,21,30,03,,,,,2.3,1.2,2.0*3C
$GPRMC,120232.000,A,5034.2750,N,00227.3745,W,1.59,201.86,161011,,,A*7A
$GPGGA,120233.000,5034.2749,N,00227.3743,W,1,08,1.2,12.27,M,48.8,M,,0000*48
$GPGSA,M,3,06,16,29,18,31,21,30,03,,,,,2.3,1.2,2.0*3C
$GPRMC,120233.000,A,5034.2749,N,00227.3743,W,0.70,73.56,161011,,,A*45
$GPGGA,120234.000,5034.2749,N,00227.3742,W,1,08,1.2,12.26,M,48.8,M,,0000*4F
$GPGSA,M,3,06,16,29,18,31,21,30,03,,,,,2.3,1.2,2.0*3C
$GPRMC,120234.000,A,5034.2749,N,00227.3742,W,0.19,187.21,161011,,,A*76
$GPGGA,120235.000,5034.2749,N,00227.3742,W,1,08,1.2,12.26,M,48.8,M,,0000*4E
$GPGSA,M,3,06,16,29,18,31,21,30,03,,,,,2.3,1.2,2.0*3C
$GPRMC,120235.000,A,5034.2749,N,00227.3742,W,0.12,342.18,161011,,,A*7D
$GPGGA,120236.000,5034.2749,N,00227.3743,W,1,08,1.2,12.22,M,48.8,M,,0000*48
$GPGSA,M,3,06,16,29,18,31,21,30,03,,,,,2.3,1.2,2.0*3C
$GPGSV,3,1,12,21,66,104,40,16,57,298,44,06,50,268,44,30,37,142,33*73
$GPGSV,3,2,12,03,34,270,48,29,22,076,30,31,18,196,41,18,16,127,33*75
$GPGSV,3,3,12,05,06,024,41,13,05,303,40,19,05,258,28,07,01,337,41*75
$GPRMC,120236.000,A,5034.2749,N,00227.3743,W,0.46,192.13,161011,,,A*7A
$GPGGA,120237.000,5034.2749,N,00227.3742,W,1,08,1.2,12.10,M,48.8,M,,0000*49
$GPGSA,M,3,06,16,29,18,31,21,30,03,,,,,2.3,1.2,2.0*3C
$GPRMC,120237.000,A,5034.2749,N,00227.3742,W,0.29,94.75,161011,,,A*44
$GPGGA,120238.000,5034.2749,N,00227.3742,W,1,08,1.2,12.09,M,48.8,M,,0000*4E
$GPGSA,M,3,06,16,29,18,31,21,30,03,,,,,2.3,1.2,2.0*3C
$GPRMC,120238.000,A,5034.2749,N,00227.3742,W,0.57,1.88,161011,,,A*7C
$GPGGA,120239.000,5034.2751,N,00227.3741,W,1,08,1.2,11.69,M,48.8,M,,0000*40
$GPGSA,M,3,06,16,29,18,31,21,30,03,,,,,2.3,1.2,2.0*3C
$GPRMC,120239.000,A,5034.2751,N,00227.3741,W,0.25,114.85,161011,,,A*7A
$GPGGA,120240.000,5034.2752,N,00227.3740,W,1,08,1.2,11.60,M,48.8,M,,0000*45
$GPGSA,M,3,06,16,29,18,31,21,30,03,,,,,2.3,1.2,2.0*3C
$GPRMC,120240.000,A,5034.2752,N,00227.3740,W,0.39,28.23,161011,,,A*49
$GPGGA,120241.000,5034.2753,N,00227.3739,W,1,08,1.2,11.27,M,48.8,M,,0000*48
$GPGSA,M,3,06,16,29,18,31,21,30,03,,,,,2.3,1.2,2.0*3C
$GPGSV,3,1,12,21,66,104,37,16,57,298,44,06,50,268,44,30,37,142,27*76
$GPGSV,3,2,12,03,34,270,47,29,22,076,30,31,18,196,36,18,16,127,27*7F
$GPGSV,3,3,12,05,06,024,42,13,05,303,40,19,05,258,30,07,01,337,41*7F
$GPRMC,120241.000,A,5034.2753,N,00227.3739,W,0.27,175.78,161011,,,A*7F
$GPGGA,120242.000,5034.2753,N,00227.3739,W,1,08,1.2,11.21,M,48.8,M,,0000*4D
$GPGSA,M,3,06,16,29,18,31,21,30,03,,,,,2.3,1.2,2.0*3C
$GPRMC,120242.000,A,5034.2753,N,00227.3739,W,0.34,12.78,161011,,,A*4E
$GPGGA,120243.000,5034.2754,N,00227.3738,W,1,08,1.2,11.08,M,48.8,M,,0000*41
$GPGSA,M,3,06,16,29,18,31,21,30,03,,,,,2.3,1.2,2.0*3C
$GPRMC,120243.000,A,5034.2754,N,00227.3738,W,0.42,51.79,161011,,,A*4E
$GPGGA,120244.000,5034.2755,N,00227.3738,W,1,08,1.2,10.86,M,48.8,M,,0000*40
$GPGSA,M,3,06,16,29,18,31,21,30,03,,,,,2.3,1.2,2.0*3C
$GPRMC,120244.000,A,5034.2755,N,00227.3738,W,0.24,211.64,161011,,,A*72
$GPGGA,120245.000,5034.2756,N,00227.3738,W,1,08,1.2,10.74,M,48.8,M,,0000*4F
$GPGSA,M,3,06,16,29,18,31,21,30,03,,,,,2.3,1.2,2.0*3C
$GPRMC,120245.000,A,5034.2756,N,00227.3738,W,0.28,41.35,161011,,,A*4F
$GPGGA,120246.000,5034.2757,N,00227.3738,W,1,08,1.2,10.54,M,48.8,M,,0000*4F
$GPGSA,M,3,06,16,29,18,31,21,30,03,,,,,2.3,1.2,2.0*3C
$GPGSV,3,1,12,21,66,104,41,16,57,298,43,06,50,268,44,30,37,142,30*76
$GPGSV,3,2,12,03,34,270,45,29,22,076,44,31,18,196,35,18,16,127,34*7F
$GPGSV,3,3,12,05,06,024,43,13,05,303,41,19,05,258,31,07,01,337,41*7E
$GPRMC,120246.000,A,5034.2757,N,00227.3738,W,0.12,270.25,161011,,,A*75
$GPGGA,120247.000,5034.2757,N,00227.3738,W,1,08,1.2,10.39,M,48.8,M,,0000*45
$GPGSA,M,3,06,16,29,18,31,21,30,03,,,,,2.3,1.2,2.0*3C
$GPRMC,120247.000,A,5034.2757,N,00227.3738,W,0.25,177.75,161011,,,A*71
$GPGGA,120248.000,5034.2758,N,00227.3739,W,1,08,1.2,10.25,M,48.8,M,,0000*49
$GPGSA,M,3,06,16,29,18,31,21,30,03,,,,,2.3,1.2,2.0*3C
$GPRMC,120248.000,A,5034.2758,N,00227.3739,W,0.26,169.70,161011,,,A*79
$GPGGA,120249.000,5034.2758,N,00227.3739,W,1,08,1.2,10.11,M,48.8,M,,0000*4F
$GPGSA,M,3,06,16,29,18,31,21,30,03,,,,,2.3,1.2,2.0*3C
$GPRMC,120249.000,A,5034.2758,N,00227.3739,W,0.32,162.41,161011,,,A*74
$GPGGA,120250.000,5034.2760,N,00227.3739,W,1,08,1.2,10.07,M,48.8,M,,0000*4B
$GPGSA,M,3,06,16,29,18,31,21,30,03,,,,,2.3,1.2,2.0*3C
$GPRMC,120250.000,A,5034.2760,N,00227.3739,W,0.46,22.63,161011,,,A*41
$GPGGA,120251.000,5034.2763,N,00227.3738,W,1,08,1.2,9.83,M,48.8,M,,0000*7C
$GPGSA,M,3,06,16,29,18,31,21,30,03,,,,,2.3,1.2,2.0*3C
$GPGSV,3,1,12,21,66,104,39,16,57,298,44,06,50,268,45,30,37,142,38*77
$GPGSV,3,2,12,03,34,270,46,29,22,076,41,31,18,196,42,18,16,127,39*74
$GPGSV,3,3,12,05,06,024,44,13,05,303,48,19,05,258,26,07,01,337,39*79
$GPRMC,120251.000,A,5034.2763,N,00227.3738,W,0.06,91.24,161011,,,A*4D
$GPGGA,120252.000,5034.2764,N,00227.3738,W,1,08,1.2,9.56,M,48.8,M,,0000*70
$GPGSA,M,3,06,16,29,18,31,21,30,03,,,,,2.3,1.2,2.0*3C
$GPRMC,120252.000,A,5034.2764,N,00227.3738,W,0.08,203.78,161011,,,A*77
$GPGGA,120253.000,5034.2765,N,00227.3738,W,1,08,1.2,9.46,M,48.8,M,,0000*71
$GPGSA,M,3,06,16,29,18,31,21,30,03,,,,,2.3,1.2,2.0*3C
$GPRMC,120253.000,A,5034.2765,N,00227.3738,W,0.11,207.18,161011,,,A*7D
$GPGGA,120254.000,5034.2765,N,00227.3738,W,1,08,1.2,9.28,M,48.8,M,,0000*7E
$GPGSA,M,3,06,16,29,18,31,21,30,03,,,,,2.3,1.2,2.0*3C
$GPRMC,120254.000,A,5034.2765,N,00227.3738,W,0.27,133.71,161011,,,A*74
$GPGGA,120255.000,5034.2766,N,00227.3738,W,1,08,1.2,9.16,M,48.8,M,,0000*71
$GPGSA,M,3,06,16,29,18,31,21,30,03,,,,,2.3,1.2,2.0*3C
$GPRMC,120255.000,A,5034.2766,N,00227.3738,W,0.04,122.67,161011,,,A*70
$GPGGA,120256.000,5034.2767,N,00227.3737,W,1,08,1.2,9.13,M,48.8,M,,0000*79
$GPGSA,M,3,06,16,29,18,31,21,30,03,,,,,2.3,1.2,2.0*3C
$GPGSV,3,1,12,21,66,104,39,16,57,298,44,06,50,268,45,30,37,142,39*76
$GPGSV,3,2,12,03,34,270,46,29,22,076,41,31,18,196,41,18,16,127,38*76
$GPGSV,3,3,12,05,06,024,45,13,05,303,48,19,05,258,27,07,01,337,38*78
$GPRMC,120256.000,A,5034.2767,N,00227.3737,W,0.28,77.41,161011,,,A*46
$GPGGA,120257.000,5034.2768,N,00227.3736,W,1,08,1.2,9.01,M,48.8,M,,0000*75
$GPGSA,M,3,06,16,29,18,31,21,30,03,,,,,2.3,1.2,2.0*3C
$GPRMC,120257.000,A,5034.2768,N,00227.3736,W,0.17,45.10,161011,,,A*40
$GPGGA,120258.000,5034.2769,N,00227.3736,W,1,08,1.2,8.90,M,48.8,M,,0000*72
$GPGSA,M,3,06,16,29,18,31,21,30,03,,,,,2.3,1.2,2.0*3C
$GPRMC,120258.000,A,5034.2769,N,00227.3736,W,0.09,306.86,161011,,,A*7A
$GPGGA,120259.000,5034.2770,N,00227.3735,W,1,08,1.2,8.76,M,48.8,M,,0000*70
$GPGSA,M,3,06,16,29,18,31,21,30,03,,,,,2.3,1.2,2.0*3C
$GPRMC,120259.000,A,5034.2770,N,00227.3735,W,0.65,100.92,161011,,,A*7B
$GPGGA,120300.000,5034.2770,N,00227.3733,W,1,08,1.2,8.67,M,48.8,M,,0000*7B
$GPGSA,M,3,06,16,29,18,31,21,30,03,,,,,2.3,1.2,2.0*3C
$GPRMC,120300.000,A,5034.2770,N,00227.3733,W,0.26,127.43,161011,,,A*7E
$GPGGA,120301.000,5034.2770,N,00227.3732,W,1,08,1.2,8.62,M,48.8,M,,0000*7E
$GPGSA,M,3,06,16,29,18,31,21,30,03,,,,,2.3,1.2,2.0*3C
$GPGSV,3,1,12,21,66,103,41,16,57,298,42,06,50,269,37,30,37,142,40*72
$GPGSV,3,2,12,03,34,270,40,29,22,076,47,31,18,196,36,18,16,127,44*7D
$GPGSV,3,3,12,05,06,023,44,19,05,258,27,13,05,302,37,07,01,337,31*7E
$GPRMC,120301.000,A,5034.2770,N,00227.3732,W,0.06,19.13,161011,,,A*45
$GPGGA,120302.000,5034.2771,N,00227.3732,W,1,08,1.2,8.57,M,48.8,M,,0000*7A
$GPGSA,M,3,06,16,29,18,31,21,30,03,,,,,2.3,1.2,2.0*3C
$GPRMC,120302.000,A,5034.2771,N,00227.3732,W,0.22,323.90,161011,,,A*70
$GPGGA,120303.000,5034.2771,N,00227.3732,W,1,08,1.2,8.61,M,48.8,M,,0000*7E
$GPGSA,M,3,06,16,29,18,31,21,30,03,,,,,2.3,1.2,2.0*3C
$GPRMC,120303.000,A,5034.2771,N,00227.3732,W,0.30,99.77,161011,,,A*49
$GPGGA,120304.000,5034.2771,N,00227.3731,W,1,08,1.2,8.53,M,48.8,M,,0000*7B
$GPGSA,M,3,06,16,29,18,31,21,30,03,,,,,2.3,1.2,2.0*3C
$GPRMC,120304.000,A,5034.2771,N,00227.3731,W,0.13,138.45,161011,,,A*77
$GPGGA,120305.000,5034.2772,N,00227.3732,W,1,08,1.2,8.41,M,48.8,M,,0000*79
$GPGSA,M,3,06,16,29,18,31,21,30,03,,,,,2.3,1.2,2.0*3C
$GPRMC,120305.000,A,5034.2772,N,00227.3732,W,0.54,305.70,161011,,,A*7F
$GPGGA,120306.000,5034.2773,N,00227.3733,W,1,08,1.2,8.29,M,48.8,M,,0000*74
$GPGSA,M,3,06,16,29,18,31,21,30,03,,,,,2.3,1.2,2.0*3C
$GPGSV,3,1,12,21,66,103,41,16,57,298,40,06,50,269,39,30,37,142,41*7F
$GPGSV,3,2,12,03,34,270,40,29,22,076,48,31,18,196,33,18,16,127,44*77
$GPGSV,3,3,12,05,06,023,44,19,05,258,27,13,05,302,38,07,01,337,29*78
$GPRMC,120306.000,A,5034.2773,N,00227.3733,W,0.13,150.96,161011,,,A*75
$GPGGA,120307.000,5034.2773,N,00227.3733,W,1,08,1.2,8.35,M,48.8,M,,0000*78
$GPGSA,M,3,06,16,29,18,31,21,30,03,,,,,2.3,1.2,2.0*3C
$GPRMC,120307.000,A,5034.2773,N,00227.3733,W,0.28,354.64,161011,,,A*77
$GPGGA,120308.000,5034.2774,N,00227.3733,W,1,08,1.2,8.30,M,48.8,M,,0000*75
$GPGSA,M,3,06,16,29,18,31,21,30,03,,,,,2.3,1.2,2.0*3C
$GPRMC,120308.000,A,5034.2774,N,00227.3733,W,0.19,117.71,161011,,,A*7C
$GPGGA,120309.000,5034.2774,N,00227.3733,W,1,08,1.2,8.25,M,48.8,M,,0000*70
$GPGSA,M,3,06,16,29,18,31,21,30,03,,,,,2.3,1.2,2.0*3C
$GPRMC,120309.000,A,5034.2774,N,00227.3733,W,0.30,158.57,161011,,,A*79
$GPGGA,120310.000,5034.2774,N,00227.3732,W,1,08,1.2,8.21,M,48.8,M,,0000*7D
$GPGSA,M,3,06,16,29,18,31,21,30,03,,,,,2.3,1.2,2.0*3C
$GPRMC,120310.000,A,5034.2774,N,00227.3732,W,0.12,3.63,161011,,,A*78
$GPGGA,120311.000,5034.2774,N,00227.3732,W,1,08,1.2,8.19,M,48.8,M,,0000*77
$GPGSA,M,3,06,16,29,18,31,21,30,03,,,,,2.3,1.2,2.0*3C
$GPGSV,3,1,12,21,66,103,45,16,57,298,30,06,50,269,33,30,37,142,46*71
$GPGSV,3,2,12,03,34,270,30,29,22,076,47,31,18,196,46,18,16,127,39*77
$GPGSV,3,3,12,05,06,023,44,19,05,258,21,13,05,302,29,07,01,337,*75
$GPRMC,120311.000,A,5034.2774,N,00227.3732,W,0.09,102.27,161011,,,A*73
$GPGGA,120312.000,5034.2774,N,00227.3732,W,1,07,1.3,8.22,M,48.8,M,,0000*72
$GPGSA,M,3,06,29,18,31,21,30,03,,,,,,2.3,1.3,2.0*3A
$GPRMC,120312.000,A,5034.2774,N,00227.3732,W,0.01,196.61,161011,,,A*77
$GPGGA,120313.000,5034.2775,N,00227.3732,W,1,06,1.5,8.25,M,48.8,M,,0000*72
$GPGSA,M,3,06,29,18,31,21,30,,,,,,,2.6,1.5,2.1*3B
$GPRMC,120313.000,A,5034.2775,N,00227.3732,W,0.08,115.43,161011,,,A*75
$GPGGA,120314.000,5034.2776,N,00227.3732,W,1,07,1.3,8.27,M,48.8,M,,0000*73
$GPGSA,M,3,06,16,29,18,31,21,30,,,,,,2.5,1.3,2.1*39
$GPRMC,120314.000,A,5034.2776,N,00227.3732,W,0.12,7.79,161011,,,A*71
$GPGGA,120315.000,5034.2777,N,00227.3734,W,1,08,1.2,8.30,M,48.8,M,,0000*7D
$GPGSA,M,3,06,16,29,18,31,21,30,03,,,,,2.3,1.2,2.0*3C
$GPRMC,120315.000,A,5034.2777,N,00227.3734,W,0.47,264.12,161011,,,A*7D
$GPGGA,120316.000,5034.2775,N,00227.3737,W,1,08,1.2,8.14,M,48.8,M,,0000*79
$GPGSA,M,3,06,16,29,18,31,21,30,03,,,,,2.3,1.2,2.0*3C
$GPGSV,3,1,12,21,66,103,42,16,57,298,42,06,50,269,44,30,37,142,35*77
$GPGSV,3,2,12,03,34,270,45,29,22,076,37,31,18,196,39,18,17,127,40*75
$GPGSV,3,3,12,05,06,023,44,19,05,258,29,13,05,302,46,07,01,337,*74
$GPRMC,120316.000,A,5034.2775,N,00227.3737,W,1.54,211.41,161011,,,A*78
$GPGGA,120317.000,5034.2772,N,00227.3737,W,1,08,1.2,8.35,M,48.8,M,,0000*7C
$GPGSA,M,3,06,16,29,18,31,21,30,03,,,,,2.3,1.2,2.0*3C
$GPRMC,120317.000,A,5034.2772,N,00227.3737,W,0.80,133.83,161011,,,A*7B
$GPGGA,120318.000,5034.2771,N,00227.3737,W,1,08,1.2,8.21,M,48.8,M,,0000*75
$GPGSA,M,3,06,16,29,18,31,21,30,03,,,,,2.3,1.2,2.0*3C
$GPRMC,120318.000,A,5034.2771,N,00227.3737,W,0.51,173.25,161011,,,A*73
$GPGGA,120319.000,5034.2770,N,00227.3737,W,1,08,1.2,8.28,M,48.8,M,,0000*7C
$GPGSA,M,3,06,16,29,18,31,21,30,03,,,,,2.3,1.2,2.0*3C
$GPRMC,120319.000,A,5034.2770,N,00227.3737,W,0.16,253.26,161011,,,A*72
$GPGGA,120320.000,5034.2771,N,00227.3739,W,1,08,1.2,8.43,M,48.8,M,,0000*74
$GPGSA,M,3,06,16,29,18,31,21,30,03,,,,,2.3,1.2,2.0*3C
$GPRMC,120320.000,A,5034.2771,N,00227.3739,W,0.29,307.29,161011,,,A*74
$GPGGA,120321.000,5034.2771,N,00227.3739,W,1,08,1.2,8.45,M,48.8,M,,0000*73
$GPGSA,M,3,06,16,29,18,31,21,30,03,,,,,2.3,1.2,2.0*3C
$GPGSV,3,1,12,21,66,103,40,16,57,298,44,06,50,269,46,30,37,142,43*70
$GPGSV,3,2,12,03,34,270,48,29,22,076,36,31,18,196,47,18,17,127,40*70
$GPGSV,3,3,12,05,06,023,36,19,05,258,25,13,05,302,36,07,01,337,36*7F
$GPRMC,120321.000,A,5034.2771,N,00227.3739,W,0.50,153.11,161011,,,A*73
$GPGGA,120322.000,5034.2770,N,00227.3739,W,1,08,1.2,8.49,M,48.8,M,,0000*7D
$GPGSA,M,3,06,16,29,18,31,21,30,03,,,,,2.3,1.2,2.0*3C
$GPRMC,120322.000,A,5034.2770,N,00227.3739,W,0.08,110.62,161011,,,A*7F
$GPGGA,120323.000,5034.2770,N,00227.3739,W,1,08,1.2,8.52,M,48.8,M,,0000*76
$GPGSA,M,3,06,16,29,18,31,21,30,03,,,,,2.3,1.2,2.0*3C
$GPRMC,120323.000,A,5034.2770,N,00227.3739,W,0.17,87.11,161011,,,A*4B
$GPGGA,120324.000,5034.2771,N,00227.3740,W,1,08,1.2,8.76,M,48.8,M,,0000*78
$GPGSA,M,3,06,16,29,18,31,21,30,03,,,,,2.3,1.2,2.0*3C
$GPRMC,120324.000,A,5034.2771,N,00227.3740,W,0.88,321.87,161011,,,A*75
$GPGGA,120325.000,5034.2772,N,00227.3741,W,1,08,1.2,8.75,M,48.8,M,,0000*78
$GPGSA,M,3,06,16,29,18,31,21,30,03,,,,,2.3,1.2,2.0*3C
$GPRMC,120325.000,A,5034.2772,N,00227.3741,W,0.78,172.56,161011,,,A*71
$GPGGA,120326.000,5034.2770,N,00227.3740,W,1,08,1.2,8.99,M,48.8,M,,0000*7A
$GPGSA,M,3,06,16,29,18,31,21,30,03,,,,,2.3,1.2,2.0*3C
$GPGSV,3,1,12,21,66,103,40,16,57,298,44,06,50,269,42,30,37,142,38*78
$GPGSV,3,2,12,03,34,270,41,29,22,076,44,31,18,196,37,18,17,127,38*74
$GPGSV,3,3,12,05,06,023,48,19,05,258,31,13,05,302,41,07,01,337,42*70
$GPRMC,120326.000,A,5034.2770,N,00227.3740,W,0.45,121.43,161011,,,A*7D
$GPGGA,120327.000,5034.2771,N,00227.3740,W,1,07,1.2,8.95,M,48.8,M,,0000*79
$GPGSA,M,3,16,29,18,31,21,30,03,,,,,,2.3,1.2,2.0*3A
$GPRMC,120327.000,A,5034.2771,N,00227.3740,W,0.48,344.93,161011,,,A*7C
$GPGGA,120328.000,5034.2772,N,00227.3740,W,1,07,1.2,8.86,M,48.8,M,,0000*77
$GPGSA,M,3,16,29,18,31,21,30,03,,,,,,2.3,1.2,2.0*3A
$GPRMC,120328.000,A,5034.2772,N,00227.3740,W,0.06,234.66,161011,,,A*76
$GPGGA,120329.000,5034.2772,N,00227.3740,W,1,08,1.2,8.78,M,48.8,M,,0000*78
$GPGSA,M,3,06,16,29,18,31,21,30,03,,,,,2.3,1.2,2.0*3C
$GPRMC,120329.000,A,5034.2772,N,00227.3740,W,0.06,212.63,161011,,,A*76
$GPGGA,120330.000,5034.2772,N,00227.3740,W,1,07,1.3,8.73,M,48.8,M,,0000*75
$GPGSA,M,3,06,29,18,31,21,30,03,,,,,,2.3,1.3,2.0*3A
$GPRMC,120330.000,A,5034.2772,N,00227.3740,W,0.01,128.94,161011,,,A*7B
$GPGGA,120331.000,5034.2772,N,00227.3743,W,1,07,1.3,8.75,M,48.8,M,,0000*71
$GPGSA,M,3,06,29,18,31,21,30,03,,,,,,2.3,1.3,2.0*3A
$GPGSV,3,1,12,21,66,103,42,16,57,298,,06,50,269,31,30,37,142,45*74
$GPGSV,3,2,12,03,34,270,28,29,22,076,44,31,18,196,45,18,17,127,43*72
$GPGSV,3,3,12,05,06,023,40,19,05,258,33,13,05,302,34,07,01,337,38*75
$GPRMC,120331.000,A,5034.2772,N,00227.3743,W,0.14,232.56,161011,,,A*7B
$GPGGA,120332.000,5034.2773,N,00227.3744,W,1,08,1.2,8.74,M,48.8,M,,0000*7B
$GPGSA,M,3,06,16,29,18,31,21,30,03,,,,,2.3,1.2,2.0*3C
$GPRMC,120332.000,A,5034.2773,N,00227.3744,W,0.06,248.45,161011,,,A*72
$GPGGA,120333.000,5034.2772,N,00227.3744,W,1,08,1.2,8.74,M,48.8,M,,0000*7B
$GPGSA,M,3,06,16,29,18,31,21,30,03,,,,,2.3,1.2,2.0*3C
$GPRMC,120333.000,A,5034.2772,N,00227.3744,W,0.05,192.33,161011,,,A*74
$GPGGA,120334.000,5034.2772,N,00227.3744,W,1,08,1.2,8.76,M,48.8,M,,0000*7E
$GPGSA,M,3,06,16,29,18,31,21,30,03,,,,,2.3,1.2,2.0*3C
$GPRMC,120334.000,A,5034.2772,N,00227.3744,W,0.04,98.83,161011,,,A*42
$GPGGA,120335.000,5034.2772,N,00227.3743,W,1,08,1.2,8.77,M,48.8,M,,0000*79
$GPGSA,M,3,06,16,29,18,31,21,30,03,,,,,2.3,1.2,2.0*3C
$GPRMC,120335.000,A,5034.2772,N,00227.3743,W,0.03,335.24,161011,,,A*7A
$GPGGA,120336.000,5034.2772,N,00227.3743,W,1,08,1.2,8.77,M,48.8,M,,0000*7A
$GPGSA,M,3,06,16,29,18,31,21,30,03,,,,,2.3,1.2,2.0*3C
$GPGSV,3,1,12,21,66,103,42,16,57,298,34,06,50,269,26,30,37,142,45*75
$GPGSV,3,2,12,03,34,270,30,29,22,076,44,31,18,196,46,18,17,127,43*78
$GPGSV,3,3,12,05,06,023,40,19,05,258,33,13,05,302,37,07,01,337,38*76
$GPRMC,120336.000,A,5034.2772,N,00227.3743,W,0.06,223.32,161011,,,A*7D
$GPGGA,120337.000,5034.2772,N,00227.3743,W,1,08,1.2,8.77,M,48.8,M,,0000*7B
$GPGSA,M,3,06,16,29,18,31,21,30,03,,,,,2.3,1.2,2.0*3C
$GPRMC,120337.000,A,5034.2772,N,00227.3743,W,0.04,213.13,161011,,,A*7E
$GPGGA,120338.000,5034.2772,N,00227.3743,W,1,08,1.2,8.76,M,48.8,M,,0000*75
$GPGSA,M,3,06,16,29,18,31,21,30,03,,,,,2.3,1.2,2.0*3C
$GPRMC,120338.000,A,5034.2772,N,00227.3743,W,0.03,306.16,161011,,,A*76
$GPGGA,120339.000,5034.2771,N,00227.3742,W,1,08,1.2,8.83,M,48.8,M,,0000*7C
$GPGSA,M,3,06,16,29,18,31,21,30,03,,,,,2.3,1.2,2.0*3C
$GPRMC,120339.000,A,5034.2771,N,00227.3742,W,0.03,26.98,161011,,,A*42
$GPGGA,120340.000,5034.2772,N,00227.3742,W,1,08,1.2,8.92,M,48.8,M,,0000*71
$GPGSA,M,3,06,16,29,18,31,21,30,03,,,,,2.3,1.2,2.0*3C
$GPRMC,120340.000,A,5034.2772,N,00227.3742,W,0.45,355.17,161011,,,A*7D
$GPGGA,120341.000,5034.2772,N,00227.3741,W,1,08,1.2,8.99,M,48.8,M,,0000*78
$GPGSA,M,3,06,16,29,18,31,21,30,03,,,,,2.3,1.2,2.0*3C
$GPGSV,3,1,12,21,66,103,42,16,57,298,34,06,50,269,32,30,37,142,45*70
$GPGSV,3,2,12,03,34,270,34,29,22,076,44,31,18,196,46,18,17,127,44*7B
$GPGSV,3,3,12,05,06,023,43,19,05,258,32,13,05,302,36,07,01,337,37*7A
$GPRMC,120341.000,A,5034.2772,N,00227.3741,W,0.59,180.50,161011,,,A*7B
$GPGGA,120342.000,5034.2771,N,00227.3741,W,1,08,1.2,8.83,M,48.8,M,,0000*73
$GPGSA,M,3,06,16,29,18,31,21,30,03,,,,,2.3,1.2,2.0*3C
$GPRMC,120342.000,A,5034.2771,N,00227.3741,W,0.67,330.91,161011,,,A*72
$GPGGA,120343.000,5034.2771,N,00227.3741,W,1,08,1.2,8.78,M,48.8,M,,0000*76
$GPGSA,M,3,06,16,29,18,31,21,30,03,,,,,2.3,1.2,2.0*3C
$GPRMC,120343.000,A,5034.2771,N,00227.3741,W,0.23,236.79,161011,,,A*72
$GPGGA,120344.000,5034.2772,N,00227.3742,W,1,08,1.2,8.76,M,48.8,M,,0000*7F
$GPGSA,M,3,06,16,29,18,31,21,30,03,,,,,2.3,1.2,2.0*3C
$GPRMC,120344.000,A,5034.2772,N,00227.3742,W,1.06,332.95,161011,,,A*74
$GPGGA,120345.000,5034.2773,N,00227.3746,W,1,08,1.2,8.81,M,48.8,M,,0000*73
$GPGSA,M,3,06,16,29,18,31,21,30,03,,,,,2.3,1.2,2.0*3C
$GPRMC,120345.000,A,5034.2773,N,00227.3746,W,1.63,285.89,161011,,,A*73
$GPGGA,120346.000,5034.2773,N,00227.3753,W,1,08,1.2,9.01,M,48.8,M,,0000*7D
$GPGSA,M,3,06,16,29,18,31,21,30,03,,,,,2.3,1.2,2.0*3C
$GPGSV,3,1,12,21,65,103,43,16,57,298,44,06,51,269,43,30,37,142,37*77
$GPGSV,3,2,12,03,34,270,41,29,22,076,46,31,18,196,37,18,17,127,37*79
$GPGSV,3,3,12,05,06,023,43,19,06,258,,13,05,302,45,07,01,337,*78
$GPRMC,120346.000,A,5034.2773,N,00227.3753,W,2.09,246.62,161011,,,A*71
$GPGGA,120347.000,5034.2769,N,00227.3757,W,1,08,1.2,9.18,M,48.8,M,,0000*7B
$GPGSA,M,3,06,16,29,18,31,21,30,03,,,,,2.3,1.2,2.0*3C
$GPRMC,120347.000,A,5034.2769,N,00227.3757,W,1.47,192.38,161011,,,A*73
$GPGGA,120348.000,5034.2765,N,00227.3756,W,1,08,1.2,9.31,M,48.8,M,,0000*72
$GPGSA,M,3,06,16,29,18,31,21,30,03,,,,,2.3,1.2,2.0*3C
$GPRMC,120348.000,A,5034.2765,N,00227.3756,W,2.01,165.57,161011,,,A*71
$GPGGA,120349.000,5034.2759,N,00227.3753,W,1,08,1.2,9.60,M,48.8,M,,0000*7D
$GPGSA,M,3,06,16,29,18,31,21,30,03,,,,,2.3,1.2,2.0*3C
$GPRMC,120349.000,A,5034.2759,N,00227.3753,W,1.68,154.40,161011,,,A*72
$GPGGA,120350.000,5034.2755,N,00227.3748,W,1,08,1.2,10.02,M,48.8,M,,0000*4F
$GPGSA,M,3,06,16,29,18,31,21,30,03,,,,,2.3,1.2,2.0*3C
$GPRMC,120350.000,A,5034.2755,N,00227.3748,W,1.76,126.72,161011,,,A*77
$GPGGA,120351.000,5034.2753,N,00227.3744,W,1,08,1.2,10.34,M,48.8,M,,0000*41
$GPGSA,M,3,06,16,29,18,31,21,30,03,,,,,2.3,1.2,2.0*3C
$GPGSV,3,1,12,21,65,103,38,16,57,298,44,06,51,269,45,30,37,142,44*79
$GPGSV,3,2,12,03,34,270,44,29,22,076,36,31,18,196,47,18,17,127,32*79
$GPGSV,3,3,12,05,06,023,32,19,06,258,27,13,05,302,46,07,01,337,37*7C
$GPRMC,120351.000,A,5034.2753,N,00227.3744,W,0.66,123.50,161011,,,A*79
$GPGGA,120352.000,5034.2752,N,00227.3743,W,1,08,1.2,10.61,M,48.8,M,,0000*44
$GPGSA,M,3,06,16,29,18,31,21,30,03,,,,,2.3,1.2,2.0*3C
$GPRMC,120352.000,A,5034.2752,N,00227.3743,W,0.26,200.71,161011,,,A*79
$GPGGA,120353.000,5034.2751,N,00227.3744,W,1,08,1.2,10.79,M,48.8,M,,0000*48
$GPGSA,M,3,06,16,29,18,31,21,30,03,,,,,2.3,1.2,2.0*3C
$GPRMC,120353.000,A,5034.2751,N,00227.3744,W,0.23,185.93,161011,,,A*7B
$GPGGA,120354.000,5034.2751,N,00227.3744,W,1,08,1.2,10.92,M,48.8,M,,0000*4A
$GPGSA,M,3,06,16,29,18,31,21,30,03,,,,,2.3,1.2,2.0*3C
$GPRMC,120354.000,A,5034.2751,N,00227.3744,W,0.26,165.77,161011,,,A*7D
$GPGGA,120355.000,5034.2750,N,00227.3743,W,1,08,1.2,11.34,M,48.8,M,,0000*40
$GPGSA,M,3,06,16,29,18,31,21,30,03,,,,,2.3,1.2,2.0*3C
$GPRMC,120355.000,A,5034.2750,N,00227.3743,W,0.77,131.85,161011,,,A*72
$GPGGA,120356.000,5034.2749,N,00227.3738,W,1,08,1.2,11.45,M,48.8,M,,0000*41
$GPGSA,M,3,06,16,29,18,31,21,30,03,,,,,2.3,1.2,2.0*3C
$GPGSV,3,1,12,21,65,103,38,16,57,298,42,06,51,269,44,30,37,142,44*7E
$GPGSV,3,2,12,03,34,270,46,29,22,076,35,31,18,196,48,18,17,127,38*7D
$GPGSV,3,3,12,05,06,023,34,19,06,258,39,13,05,302,43,07,01,337,26*70
$GPRMC,120356.000,A,5034.2749,N,00227.3738,W,1.33,106.79,161011,,,A*73
$GPGGA,120357.000,5034.2749,N,00227.3735,W,1,08,1.2,11.20,M,48.8,M,,0000*4E
$GPGSA,M,3,06,16,29,18,31,21,30,03,,,,,2.3,1.2,2.0*3C
$GPRMC,120357.000,A,5034.2749,N,00227.3735,W,0.34,138.70,161011,,,A*7D
$GPGGA,120358.000,5034.2750,N,00227.3734,W,1,08,1.2,11.06,M,48.8,M,,0000*4C
$GPGSA,M,3,06,16,29,18,31,21,30,03,,,,,2.3,1.2,2.0*3C
$GPRMC,120358.000,A,5034.2750,N,00227.3734,W,0.08,189.75,161011,,,A*7B
$GPGGA,120359.000,5034.2750,N,00227.3733,W,1,08,1.2,10.91,M,48.8,M,,0000*45
$GPGSA,M,3,06,16,29,18,31,21,30,03,,,,,2.3,1.2,2.0*3C
$GPRMC,120359.000,A,5034.2750,N,00227.3733,W,0.11,145.20,161011,,,A*75
$GPGGA,120400.000,5034.2751,N,00227.3733,W,1,08,1.2,10.74,M,48.8,M,,0000*44
$GPGSA,M,3,06,16,29,18,31,21,30,03,,,,,2.3,1.2,2.0*3C
$GPRMC,120400.000,A,5034.2751,N,00227.3733,W,0.09,133.63,161011,,,A*70
$GPGGA,120401.000,5034.2751,N,00227.3731,W,1,08,1.2,10.66,M,48.8,M,,0000*44
$GPGSA,M,3,06,16,29,18,31,21,30,03,,,,,2.3,1.2,2.0*3C
$GPGSV,3,1,12,21,65,103,45,16,57,298,41,06,51,269,39,30,37,142,46*7F
$GPGSV,3,2,12,03,34,270,44,29,22,076,41,31,18,196,46,18,17,127,38*72
$GPGSV,3,3,12,05,06,023,37,19,06,258,32,13,05,302,39,07,01,337,29*7A
$GPRMC,120401.000,A,5034.2751,N,00227.3731,W,0.40,81.86,161011,,,A*4D
$GPGGA,120402.000,5034.2752,N,00227.3730,W,1,08,1.2,10.62,M,48.8,M,,0000*41
$GPGSA,M,3,06,16,29,18,31,21,30,03,,,,,2.3,1.2,2.0*3C
$GPRMC,120402.000,A,5034.2752,N,00227.3730,W,0.43,1.68,161011,,,A*77
$GPGGA,120403.000,5034.2754,N,00227.3731,W,1,08,1.2,10.44,M,48.8,M,,0000*43
$GPGSA,M,3,06,16,29,18,31,21,30,03,,,,,2.3,1.2,2.0*3C
$GPRMC,120403.000,A,5034.2754,N,00227.3731,W,0.15,311.23,161011,,,A*7F
$GPGGA,120404.000,5034.2755,N,00227.3731,W,1,08,1.2,10.12,M,48.8,M,,0000*46
$GPGSA,M,3,06,16,29,18,31,21,30,03,,,,,2.3,1.2,2.0*3C
$GPRMC,120404.000,A,5034.2755,N,00227.3731,W,0.03,329.58,161011,,,A*79
$GPGGA,120405.000,5034.2755,N,00227.3732,W,1,08,1.2,9.87,M,48.8,M,,0000*70
$GPGSA,M,3,06,16,29,18,31,21,30,03,,,,,2.3,1.2,2.0*3C
$GPRMC,120405.000,A,5034.2755,N,00227.3732,W,0.03,293.35,161011,,,A*70
$GPGGA,120406.000,5034.2756,N,00227.3732,W,1,08,1.2,9.65,M,48.8,M,,0000*7C
$GPGSA,M,3,06,16,29,18,31,21,30,03,,,,,2.3,1.2,2.0*3C
$GPGSV,3,1,12,21,65,103,45,16,57,298,35,06,51,269,34,30,37,142,47*70
$GPGSV,3,2,12,03,34,270,34,29,22,076,47,31,18,196,41,18,17,127,45*7E
$GPGSV,3,3,12,05,06,023,44,19,06,258,24,13,05,302,24,07,01,337,25*79
$GPRMC,120406.000,A,5034.2756,N,00227.3732,W,0.04,310.96,161011,,,A*74
$GPGGA,120407.000,5034.2756,N,00227.3733,W,1,08,1.2,9.51,M,48.8,M,,0000*7B
$GPGSA,M,3,06,16,29,18,31,21,30,03,,,,,2.3,1.2,2.0*3C
$GPRMC,120407.000,A,5034.2756,N,00227.3733,W,0.35,212.86,161011,,,A*74
$GPGGA,120408.000,5034.2756,N,00227.3733,W,1,08,1.2,9.43,M,48.8,M,,0000*77
$GPGSA,M,3,06,16,29,18,31,21,30,03,,,,,2.3,1.2,2.0*3C
$GPRMC,120408.000,A,5034.2756,N,00227.3733,W,0.16,93.75,161011,,,A*4D
$GPGGA,120409.000,5034.2756,N,00227.3732,W,1,08,1.2,9.32,M,48.8,M,,0000*71
$GPGSA,M,3,06,16,29,18,31,21,30,03,,,,,2.3,1.2,2.0*3C
$GPRMC,120409.000,A,5034.2756,N,00227.3732,W,0.09,88.78,161011,,,A*44
$GPGGA,120410.000,5034.2757,N,00227.3732,W,1,08,1.2,9.22,M,48.8,M,,0000*79
$GPGSA,M,3,06,16,29,18,31,21,30,03,,,,,2.3,1.2,2.0*3C
$GPRMC,120410.000,A,5034.2757,N,00227.3732,W,0.02,116.47,161011,,,A*7C
$GPGGA,120411.000,5034.2757,N,00227.3732,W,1,08,1.2,9.10,M,48.8,M,,0000*79
$GPGSA,M,3,06,16,29,18,31,21,30,03,,,,,2.3,1.2,2.0*3C
$GPGSV,3,1,12,21,65,103,44,16,57,298,35,06,51,269,40,30,37,142,49*7C
$GPGSV,3,2,12,03,34,270,35,29,22,076,45,31,18,196,42,18,17,127,45*7E
$GPGSV,3,3,12,05,06,023,38,19,06,258,25,13,05,302,36,07,01,337,27*72
$GPRMC,120411.000,A,5034.2757,N,00227.3732,W,0.04,116.12,161011,,,A*7B
$GPGGA,120412.000,5034.2757,N,00227.3732,W,1,08,1.2,9.03,M,48.8,M,,0000*78
$GPGSA,M,3,06,16,29,18,31,21,30,03,,,,,2.3,1.2,2.0*3C
$GPRMC,120412.000,A,5034.2757,N,00227.3732,W,0.16,217.18,161011,,,A*73
$GPGGA,120413.000,5034.2758,N,00227.3733,W,1,08,1.2,8.86,M,48.8,M,,0000*7B
$GPGSA,M,3,06,16,29,18,31,21,30,03,,,,,2.3,1.2,2.0*3C
$GPRMC,120413.000,A,5034.2758,N,00227.3733,W,0.38,343.02,161011,,,A*7B
$GPGGA,120414.000,5034.2759,N,00227.3734,W,1,08,1.2,8.76,M,48.8,M,,0000*75
$GPGSA,M,3,06,16,29,18,31,21,30,03,,,,,2.3,1.2,2.0*3C
$GPRMC,120414.000,A,5034.2759,N,00227.3734,W,0.36,313.49,161011,,,A*7E
$GPGGA,120415.000,5034.2759,N,00227.3735,W,1,08,1.2,8.62,M,48.8,M,,0000*70
$GPGSA,M,3,06,16,29,18,31,21,30,03,,,,,2.3,1.2,2.0*3C
$GPRMC,120415.000,A,5034.2759,N,00227.3735,W,0.67,204.79,161011,,,A*7E
$GPGGA,120416.000,5034.2758,N,00227.3736,W,1,08,1.2,8.66,M,48.8,M,,0000*75
$GPGSA,M,3,06,16,29,18,31,21,30,03,,,,,2.3,1.2,2.0*3C
$GPGSV,3,1,12,21,65,102,44,16,57,298,36,06,51,269,38,30,36,142,48*71
$GPGSV,3,2,12,03,35,270,35,29,21,077,46,31,17,196,43,18,17,127,45*70
$GPGSV,3,3,12,19,06,259,33,05,06,023,44,13,05,302,35,07,01,337,33*79
$GPRMC,120416.000,A,5034.2758,N,00227.3736,W,0.25,183.84,161011,,,A*77
$GPGGA,120417.000,5034.2758,N,00227.3735,W,1,08,1.2,8.55,M,48.8,M,,0000*77
$GPGSA,M,3,06,16,29,18,31,21,30,03,,,,,2.3,1.2,2.0*3C
$GPRMC,120417.000,A,5034.2758,N,00227.3735,W,0.32,37.90,161011,,,A*48
$GPGGA,120418.000,5034.2759,N,00227.3735,W,1,08,1.2,8.46,M,48.8,M,,0000*7B
$GPGSA,M,3,06,16,29,18,31,21,30,03,,,,,2.3,1.2,2.0*3C
$GPRMC,120418.000,A,5034.2759,N,00227.3735,W,0.13,357.93,161011,,,A*73
$GPGGA,120419.000,5034.2759,N,00227.3735,W,1,08,1.2,8.39,M,48.8,M,,0000*72
$GPGSA,M,3,06,16,29,18,31,21,30,03,,,,,2.3,1.2,2.0*3C
$GPRMC,120419.000,A,5034.2759,N,00227.3735,W,0.07,165.48,161011,,,A*72
$GPGGA,120420.000,5034.2760,N,00227.3735,W,1,08,1.2,8.34,M,48.8,M,,0000*7F
$GPGSA,M,3,06,16,29,18,31,21,30,03,,,,,2.3,1.2,2.0*3C
$GPRMC,120420.000,A,5034.2760,N,00227.3735,W,0.05,174.82,161011,,,A*76
$GPGGA,120421.000,5034.2760,N,00227.3735,W,1,08,1.2,8.29,M,48.8,M,,0000*72
$GPGSA,M,3,06,16,29,18,31,21,30,03,,,,,2.3,1.2,2.0*3C
$GPGSV,3,1,12,21,65,102,44,16,57,298,36,06,51,269,40,30,36,142,49*7F
$GPGSV,3,2,12,03,35,270,36,29,21,077,45,31,17,196,45,18,17,127,44*77
$GPGSV,3,3,12,19,06,259,30,05,06,023,37,13,05,302,36,07,01,337,33*7D
$GPRMC,120421.000,A,5034.2760,N,00227.3735,W,0.05,157.49,161011,,,A*71
$GPGGA,120422.000,5034.2760,N,00227.3736,W,1,08,1.2,8.23,M,48.8,M,,0000*78
$GPGSA,M,3,06,16,29,18,31,21,30,03,,,,,2.3,1.2,2.0*3C
$GPRMC,120422.000,A,5034.2760,N,00227.3736,W,0.06,168.14,161011,,,A*76
$GPGGA,120423.000,5034.2760,N,00227.3736,W,1,08,1.2,8.20,M,48.8,M,,0000*7A
$GPGSA,M,3,06,16,29,18,31,21,30,03,,,,,2.3,1.2,2.0*3C
$GPRMC,120423.000,A,5034.2760,N,00227.3736,W,0.07,131.38,161011,,,A*74
$GPGGA,120424.000,5034.2760,N,00227.3736,W,1,08,1.2,8.15,M,48.8,M,,0000*7B
$GPGSA,M,3,06,16,29,18,31,21,30,03,,,,,2.3,1.2,2.0*3C
$GPRMC,120424.000,A,5034.2760,N,00227.3736,W,0.06,193.59,161011,,,A*7D
$GPGGA,120425.000,5034.2760,N,00227.3736,W,1,08,1.2,8.10,M,48.8,M,,0000*7F
$GPGSA,M,3,06,16,29,18,31,21,30,03,,,,,2.3,1.2,2.0*3C
$GPRMC,120425.000,A,5034.2760,N,00227.3736,W,0.05,142.19,161011,,,A*77
$GPGGA,120426.000,5034.2760,N,00227.3736,W,1,08,1.2,8.06,M,48.8,M,,0000*7B
$GPGSA,M,3,06,16,29,18,31,21,30,03,,,,,2.3,1.2,2.0*3C
$GPGSV,3,1,12,21,65,102,44,16,57,298,37,06,51,269,41,30,36,142,47*71
$GPGSV,3,2,12,03,35,270,37,29,21,077,44,31,17,196,46,18,17,127,43*73
$GPGSV,3,3,12,19,06,259,28,05,06,023,38,13,05,302,36,07,01,337,34*7C
$GPRMC,120426.000,A,5034.2760,N,00227.3736,W,0.06,169.56,161011,,,A*75
$GPGGA,120427.000,5034.2761,N,00227.3736,W,1,08,1.2,8.03,M,48.8,M,,0000*7E
$GPGSA,M,3,06,16,29,18,31,21,30,03,,,,,2.3,1.2,2.0*3C
$GPRMC,120427.000,A,5034.2761,N,00227.3736,W,0.08,109.26,161011,,,A*7A
$GPGGA,120428.000,5034.2761,N,00227.3736,W,1,08,1.2,8.00,M,48.8,M,,0000*72
$GPGSA,M,3,06,16,29,18,31,21,30,03,,,,,2.3,1.2,2.0*3C
$GPRMC,120428.000,A,5034.2761,N,00227.3736,W,0.05,135.40,161011,,,A*77
$GPGGA,120429.000,5034.2761,N,00227.3736,W,1,08,1.2,7.95,M,48.8,M,,0000*70
$GPGSA,M,3,06,16,29,18,31,21,30,03,,,,,2.3,1.2,2.0*3C
$GPRMC,120429.000,A,5034.2761,N,00227.3736,W,0.07,153.29,161011,,,A*7B
$GPGGA,120430.000,5034.2761,N,00227.3736,W,1,08,1.2,7.93,M,48.8,M,,0000*7E
$GPGSA,M,3,06,16,29,18,31,21,30,03,,,,,2.3,1.2,2.0*3C
$GPRMC,120430.000,A,5034.2761,N,00227.3736,W,0.05,68.97,161011,,,A*4D
$GPGGA,120431.000,5034.2761,N,00227.3736,W,1,08,1.2,7.90,M,48.8,M,,0000*7C
$GPGSA,M,3,06,16,29,18,31,21,30,03,,,,,2.3,1.2,2.0*3C
$GPGSV,3,1,12,21,65,102,45,16,57,298,37,06,51,269,41,30,36,142,46*71
$GPGSV,3,2,12,03,35,270,38,29,21,077,43,31,17,196,46,18,17,127,43*7B
$GPGSV,3,3,12,19,06,259,26,05,06,023,39,13,05,302,29,07,01,337,35*7C
$GPRMC,120431.000,A,5034.2761,N,00227.3736,W,0.12,51.47,161011,,,A*4D
$GPGGA,120432.000,5034.2762,N,00227.3737,W,1,08,1.2,7.95,M,48.8,M,,0000*78
$GPGSA,M,3,06,16,29,18,31,21,30,03,,,,,2.3,1.2,2.0*3C
$GPRMC,120432.000,A,5034.2762,N,00227.3737,W,0.23,328.03,161011,,,A*73
$GPGGA,120433.000,5034.2762,N,00227.3738,W,1,08,1.2,7.95,M,48.8,M,,0000*76
$GPGSA,M,3,06,16,29,18,31,21,30,03,,,,,2.3,1.2,2.0*3C
$GPRMC,120433.000,A,5034.2762,N,00227.3738,W,0.45,245.97,161011,,,A*7A
$GPGGA,120434.000,5034.2762,N,00227.3739,W,1,08,1.2,7.95,M,48.8,M,,0000*70
$GPGSA,M,3,06,16,29,18,31,21,30,03,,,,,2.3,1.2,2.0*3C
$GPRMC,120434.000,A,5034.2762,N,00227.3739,W,0.24,232.35,161011,,,A*73
$GPGGA,120435.000,5034.2762,N,00227.3740,W,1,07,1.3,7.93,M,48.8,M,,0000*77
$GPGSA,M,3,06,29,18,31,21,30,03,,,,,,2.4,1.3,2.0*3D
$GPRMC,120435.000,A,5034.2762,N,00227.3740,W,0.03,303.11,161011,,,A*7C
$GPGGA,120436.000,5034.2762,N,00227.3740,W,1,08,1.2,7.91,M,48.8,M,,0000*78
$GPGSA,M,3,06,16,29,18,31,21,30,03,,,,,2.3,1.2,2.0*3C
$GPGSV,3,1,12,21,65,102,44,16,58,298,40,06,51,269,38,30,36,142,46*71
$GPGSV,3,2,12,03,35,270,36,29,21,077,44,31,17,196,46,18,17,127,43*72
$GPGSV,3,3,12,19,06,259,38,05,06,023,37,13,05,302,31,07,01,337,30*71
$GPRMC,120436.000,A,5034.2762,N,00227.3740,W,0.08,79.38,161011,,,A*41
$GPGGA,120437.000,5034.2763,N,00227.3740,W,1,07,1.3,7.90,M,48.8,M,,0000*77
$GPGSA,M,3,06,29,18,31,21,30,03,,,,,,2.4,1.3,2.0*3D
$GPRMC,120437.000,A,5034.2763,N,00227.3740,W,0.06,63.57,161011,,,A*4D
$GPGGA,120438.000,5034.2763,N,00227.3740,W,1,07,1.3,7.87,M,48.8,M,,0000*7E
$GPGSA,M,3,06,29,18,31,21,30,03,,,,,,2.4,1.3,2.0*3D
$GPRMC,120438.000,A,5034.2763,N,00227.3740,W,0.12,208.61,161011,,,A*7D
$GPGGA,120439.000,5034.2763,N,00227.3740,W,1,07,1.3,7.86,M,48.8,M,,0000*7E
$GPGSA,M,3,06,29,18,31,21,30,03,,,,,,2.4,1.3,2.0*3D
$GPRMC,120439.000,A,5034.2763,N,00227.3740,W,0.06,41.54,161011,,,A*40
$GPGGA,120440.000,5034.2763,N,00227.3741,W,1,08,1.2,7.86,M,48.8,M,,0000*7F
$GPGSA,M,3,06,16,29,18,31,21,30,03,,,,,2.3,1.2,2.0*3C
$GPRMC,120440.000,A,5034.2763,N,00227.3741,W,0.06,194.51,161011,,,A*73
$GPGGA,120441.000,5034.2763,N,00227.3741,W,1,07,1.3,7.89,M,48.8,M,,0000*7F
$GPGSA,M,3,06,29,18,31,21,30,03,,,,,,2.4,1.3,2.0*3D
$GPGSV,3,1,12,21,65,102,44,16,58,298,,06,51,269,39,30,36,142,47*75
$GPGSV,3,2,12,03,35,270,36,29,21,077,44,31,17,196,46,18,17,127,43*72
$GPGSV,3,3,12,19,06,259,36,05,06,023,41,13,05,302,26,07,01,337,34*7C
$GPRMC,120441.000,A,5034.2763,N,00227.3741,W,0.19,206.94,161011,,,A*7D
$GPGGA,120442.000,5034.2763,N,00227.3742,W,1,08,1.2,7.81,M,48.8,M,,0000*79
$GPGSA,M,3,06,16,29,18,31,21,30,03,,,,,2.3,1.2,2.0*3C
$GPRMC,120442.000,A,5034.2763,N,00227.3742,W,0.11,209.42,161011,,,A*71
$GPGGA,120443.000,5034.2764,N,00227.3739,W,1,08,1.2,7.83,M,48.8,M,,0000*71
$GPGSA,M,3,06,16,29,18,31,21,30,03,,,,,2.3,1.2,2.0*3C
$GPRMC,120443.000,A,5034.2764,N,00227.3739,W,1.23,70.56,161011,,,A*42
$GPGGA,120444.000,5034.2765,N,00227.3736,W,1,08,1.2,7.78,M,48.8,M,,0000*7C
$GPGSA,M,3,06,16,29,18,31,21,30,03,,,,,2.3,1.2,2.0*3C
$GPRMC,120444.000,A,5034.2765,N,00227.3736,W,0.81,45.06,161011,,,A*41
$GPGGA,120445.000,5034.2766,N,00227.3735,W,1,08,1.2,7.87,M,48.8,M,,0000*7D
$GPGSA,M,3,06,16,29,18,31,21,30,03,,,,,2.3,1.2,2.0*3C
$GPRMC,120445.000,A,5034.2766,N,00227.3735,W,0.38,269.42,161011,,,A*7E
$GPGGA,120446.000,5034.2767,N,00227.3737,W,1,08,1.2,7.99,M,48.8,M,,0000*72
$GPGSA,M,3,06,16,29,18,31,21,30,03,,,,,2.3,1.2,2.0*3C
$GPGSV,3,1,12,21,65,102,42,16,58,298,39,06,51,269,35,30,36,142,45*77
$GPGSV,3,2,12,03,35,270,35,29,21,077,44,31,17,196,37,18,17,127,43*77
$GPGSV,3,3,12,19,06,259,28,05,06,023,44,13,05,302,38,07,01,337,38*75
$GPRMC,120446.000,A,5034.2767,N,00227.3737,W,0.60,279.98,161011,,,A*75
$GPGGA,120447.000,5034.2767,N,00227.3739,W,1,08,1.2,7.95,M,48.8,M,,0000*71
$GPGSA,M,3,06,16,29,18,31,21,30,03,,,,,2.3,1.2,2.0*3C
$GPRMC,120447.000,A,5034.2767,N,00227.3739,W,0.16,207.00,161011,,,A*73
$GPGGA,120448.000,5034.2767,N,00227.3739,W,1,08,1.2,7.92,M,48.8,M,,0000*79
$GPGSA,M,3,06,16,29,18,31,21,30,03,,,,,2.3,1.2,2.0*3C
$GPRMC,120448.000,A,5034.2767,N,00227.3739,W,0.14,134.36,161011,,,A*78
$GPGGA,120449.000,5034.2767,N,00227.3738,W,1,08,1.2,7.91,M,48.8,M,,0000*7A
$GPGSA,M,3,06,16,29,18,31,21,30,03,,,,,2.3,1.2,2.0*3C
$GPRMC,120449.000,A,5034.2767,N,00227.3738,W,0.03,182.75,161011,,,A*74
$GPGGA,120450.000,5034.2768,N,00227.3739,W,1,08,1.2,8.01,M,48.8,M,,0000*7A
$GPGSA,M,3,06,16,29,18,31,21,30,03,,,,,2.3,1.2,2.0*3C
$GPRMC,120450.000,A,5034.2768,N,00227.3739,W,0.81,329.72,161011,,,A*7C
$GPGGA,120451.000,5034.2771,N,00227.3741,W,1,08,1.2,8.02,M,48.8,M,,0000*7F
$GPGSA,M,3,06,16,29,18,31,21,30,03,,,,,2.3,1.2,2.0*3C
$GPGSV,3,1,12,21,65,102,43,16,58,298,38,06,51,269,36,30,36,142,45*74
$GPGSV,3,2,12,03,35,270,33,29,21,077,45,31,17,196,37,18,17,127,43*70
$GPGSV,3,3,12,19,06,259,26,05,06,023,42,13,05,302,34,07,01,337,38*71
$GPRMC,120451.000,A,5034.2771,N,00227.3741,W,1.62,340.31,161011,,,A*7E
$GPGGA,120452.000,5034.2774,N,00227.3741,W,1,08,1.2,8.06,M,48.8,M,,0000*7D
$GPGSA,M,3,06,16,29,18,31,21,30,03,,,,,2.3,1.2,2.0*3C
$GPRMC,120452.000,A,5034.2774,N,00227.3741,W,0.71,30.92,161011,,,A*46
$GPGGA,120453.000,5034.2775,N,00227.3740,W,1,08,1.2,8.03,M,48.8,M,,0000*79
$GPGSA,M,3,06,16,29,18,31,21,30,03,,,,,2.3,1.2,2.0*3C
$GPRMC,120453.000,A,5034.2775,N,00227.3740,W,0.26,0.49,161011,,,A*70
$GPGGA,120454.000,5034.2775,N,00227.3741,W,1,08,1.2,8.04,M,48.8,M,,0000*78
$GPGSA,M,3,06,16,29,18,31,21,30,03,,,,,2.3,1.2,2.0*3C
$GPRMC,120454.000,A,5034.2775,N,00227.3741,W,0.12,192.36,161011,,,A*73
$GPGGA,120455.000,5034.2775,N,00227.3742,W,1,08,1.2,7.87,M,48.8,M,,0000*7E
$GPGSA,M,3,06,16,29,18,31,21,30,03,,,,,2.3,1.2,2.0*3C
$GPRMC,120455.000,A,5034.2775,N,00227.3742,W,0.53,215.41,161011,,,A*78
$GPGGA,120456.000,5034.2775,N,00227.3743,W,1,08,1.2,7.67,M,48.8,M,,0000*72
$GPGSA,M,3,06,16,29,18,31,21,30,03,,,,,2.3,1.2,2.0*3C
$GPGSV,3,1,12,21,65,102,34,16,58,298,42,06,51,269,42,30,36,142,33*7B
$GPGSV,3,2,12,03,35,270,41,29,21,077,39,31,17,196,35,18,17,127,33*7B
$GPGSV,3,3,12,19,06,259,26,05,06,023,46,13,05,302,34,07,01,337,41*7B
$GPRMC,120456.000,A,5034.2775,N,00227.3743,W,0.24,176.83,161011,,,A*72
$GPGGA,120457.000,5034.2775,N,00227.3743,W,1,08,1.2,7.53,M,48.8,M,,0000*74
$GPGSA,M,3,06,16,29,18,31,21,30,03,,,,,2.3,1.2,2.0*3C
$GPRMC,120457.000,A,5034.2775,N,00227.3743,W,0.37,57.21,161011,,,A*4B
$GPGGA,120458.000,5034.2776,N,00227.3741,W,1,08,1.2,8.02,M,48.8,M,,0000*71
$GPGSA,M,3,06,16,29,18,31,21,30,03,,,,,2.3,1.2,2.0*3C
$GPRMC,120458.000,A,5034.2776,N,00227.3741,W,0.78,31.19,161011,,,A*45
$GPGGA,120459.000,5034.2777,N,00227.3740,W,1,08,1.2,8.06,M,48.8,M,,0000*74
$GPGSA,M,3,06,16,29,18,31,21,30,03,,,,,2.3,1.2,2.0*3C
$GPRMC,120459.000,A,5034.2777,N,00227.3740,W,0.35,163.88,161011,,,A*73
$GPGGA,120500.000,5034.2777,N,00227.3741,W,1,08,1.2,7.96,M,48.8,M,,0000*7E
$GPGSA,M,3,06,16,29,18,31,21,30,03,,,,,2.3,1.2,2.0*3C
$GPRMC,120500.000,A,5034.2777,N,00227.3741,W,0.90,227.70,161011,,,A*74
$GPGGA,120501.000,5034.2775,N,00227.3744,W,1,08,1.2,8.06,M,48.8,M,,0000*7E
$GPGSA,M,3,06,16,29,18,31,21,30,03,,,,,2.3,1.2,2.0*3C
$GPGSV,3,1,12,21,65,102,41,16,58,298,44,06,51,269,44,30,36,142,38*72
$GPGSV,3,2,12,03,35,270,45,29,21,077,46,31,17,196,38,18,17,127,38*71
$GPGSV,3,3,12,19,06,259,28,05,06,023,46,13,05,302,45,07,01,337,46*74
$GPRMC,120501.000,A,5034.2775,N,00227.3744,W,1.12,193.39,161011,,,A*78
$GPGGA,120502.000,5034.2771,N,00227.3746,W,1,08,1.2,8.01,M,48.8,M,,0000*7C
$GPGSA,M,3,06,16,29,18,31,21,30,03,,,,,2.3,1.2,2.0*3C
$GPRMC,120502.000,A,5034.2771,N,00227.3746,W,1.90,197.79,161011,,,A*77
$GPGGA,120503.000,5034.2766,N,00227.3745,W,1,08,1.2,8.14,M,48.8,M,,0000*7C
$GPGSA,M,3,06,16,29,18,31,21,30,03,,,,,2.3,1.2,2.0*3C
$GPRMC,120503.000,A,5034.2766,N,00227.3745,W,2.13,159.93,161011,,,A*7D
$GPGGA,120504.000,5034.2762,N,00227.3742,W,1,08,1.2,8.22,M,48.8,M,,0000*7D
$GPGSA,M,3,06,16,29,18,31,21,30,03,,,,,2.3,1.2,2.0*3C
$GPRMC,120504.000,A,5034.2762,N,00227.3742,W,1.31,140.39,161011,,,A*72
$GPGGA,120505.000,5034.2761,N,00227.3739,W,1,08,1.2,8.28,M,48.8,M,,0000*79
$GPGSA,M,3,06,16,29,18,31,21,30,03,,,,,2.3,1.2,2.0*3C
$GPRMC,120505.000,A,5034.2761,N,00227.3739,W,0.44,55.21,161011,,,A*43
$GPGGA,120506.000,5034.2761,N,00227.3738,W,1,08,1.2,8.08,M,48.8,M,,0000*79
$GPGSA,M,3,06,16,29,18,31,21,30,03,,,,,2.3,1.2,2.0*3C
$GPGSV,3,1,12,21,65,102,39,16,58,298,45,06,51,269,45,30,36,142,35*70
$GPGSV,3,2,12,03,35,270,46,29,21,077,36,31,17,196,43,18,17,127,27*77
$GPGSV,3,3,12,19,06,259,38,05,06,023,42,13,05,302,37,07,01,337,46*74
$GPRMC,120506.000,A,5034.2761,N,00227.3738,W,1.00,146.48,161011,,,A*7C
$GPGGA,120507.000,5034.2761,N,00227.3735,W,1,08,1.2,8.07,M,48.8,M,,0000*7A
$GPGSA,M,3,06,16,29,18,31,21,30,03,,,,,2.3,1.2,2.0*3C
$GPRMC,120507.000,A,5034.2761,N,00227.3735,W,0.81,59.00,161011,,,A*4B
$GPGGA,120508.000,5034.2763,N,00227.3734,W,1,08,1.2,7.64,M,48.8,M,,0000*7C
$GPGSA,M,3,06,16,29,18,31,21,30,03,,,,,2.3,1.2,2.0*3C
$GPRMC,120508.000,A,5034.2763,N,00227.3734,W,0.66,344.22,161011,,,A*71
$GPGGA,120509.000,5034.2764,N,00227.3734,W,1,08,1.2,7.58,M,48.8,M,,0000*75
$GPGSA,M,3,06,16,29,18,31,21,30,03,,,,,2.3,1.2,2.0*3C
$GPRMC,120509.000,A,5034.2764,N,00227.3734,W,0.19,326.22,161011,,,A*7B
$GPGGA,120510.000,5034.2764,N,00227.3733,W,1,08,1.2,7.62,M,48.8,M,,0000*73
$GPGSA,M,3,06,16,29,18,31,21,30,03,,,,,2.3,1.2,2.0*3C
$GPRMC,120510.000,A,5034.2764,N,00227.3733,W,0.06,105.02,161011,,,A*7B
$GPGGA,120511.000,5034.2764,N,00227.3733,W,1,08,1.2,7.63,M,48.8,M,,0000*73
$GPGSA,M,3,06,16,29,18,31,21,30,03,,,,,2.3,1.2,2.0*3C
$GPGSV,3,1,12,21,65,102,45,16,58,298,37,06,51,269,35,30,36,142,45*7E
$GPGSV,3,2,12,03,35,270,32,29,21,077,47,31,17,196,32,18,17,127,44*71
$GPGSV,3,3,12,19,06,259,23,05,06,023,45,13,05,302,33,07,01,337,36*7A
$GPRMC,120511.000,A,5034.2764,N,00227.3733,W,0.03,45.71,161011,,,A*4E
$GPGGA,120512.000,5034.2764,N,00227.3732,W,1,08,1.2,7.62,M,48.8,M,,0000*70
$GPGSA,M,3,06,16,29,18,31,21,30,03,,,,,2.3,1.2,2.0*3C
$GPRMC,120512.000,A,5034.2764,N,00227.3732,W,0.04,70.40,161011,,,A*4F
$GPGGA,120513.000,5034.2764,N,00227.3731,W,1,08,1.2,7.64,M,48.8,M,,0000*74
$GPGSA,M,3,06,16,29,18,31,21,30,03,,,,,2.3,1.2,2.0*3C
$GPRMC,120513.000,A,5034.2764,N,00227.3731,W,0.04,65.46,161011,,,A*4F
$GPGGA,120514.000,5034.2764,N,00227.3731,W,1,08,1.2,7.63,M,48.8,M,,0000*74
$GPGSA,M,3,06,16,29,18,31,21,30,03,,,,,2.3,1.2,2.0*3C
$GPRMC,120514.000,A,5034.2764,N,00227.3731,W,0.03,322.15,161011,,,A*79
$GPGGA,120515.000,5034.2764,N,00227.3731,W,1,08,1.2,7.63,M,48.8,M,,0000*75
$GPGSA,M,3,06,16,29,18,31,21,30,03,,,,,2.3,1.2,2.0*3C
$GPRMC,120515.000,A,5034.2764,N,00227.3731,W,0.04,37.63,161011,,,A*49
$GPGGA,120516.000,5034.2764,N,00227.3730,W,1,08,1.2,7.65,M,48.8,M,,0000*71
$GPGSA,M,3,06,16,29,18,31,21,30,03,,,,,2.3,1.2,2.0*3C
$GPGSV,3,1,12,21,65,101,44,16,58,298,36,06,51,269,36,30,36,143,45*7F
$GPGSV,3,2,12,03,35,270,28,29,21,077,47,18,17,126,44,31,17,196,31*78
$GPGSV,3,3,12,19,06,259,13,05,05,023,47,13,05,301,32,07,02,337,36*79
$GPRMC,120516.000,A,5034.2764,N,00227.3730,W,0.03,85.13,161011,,,A*42
$GPGGA,120517.000,5034.2764,N,00227.3730,W,1,08,1.2,7.67,M,48.8,M,,0000*72
$GPGSA,M,3,06,16,29,18,31,21,30,03,,,,,2.3,1.2,2.0*3C
$GPRMC,120517.000,A,5034.2764,N,00227.3730,W,0.05,55.97,161011,,,A*44
$GPGGA,120518.000,5034.2763,N,00227.3729,W,1,08,1.2,7.70,M,48.8,M,,0000*74
$GPGSA,M,3,06,16,29,18,31,21,30,03,,,,,2.3,1.2,2.0*3C
$GPRMC,120518.000,A,5034.2763,N,00227.3729,W,0.07,83.38,161011,,,A*48
$GPGGA,120519.000,5034.2763,N,00227.3729,W,1,08,1.2,7.76,M,48.8,M,,0000*73
$GPGSA,M,3,06,16,29,18,31,21,30,03,,,,,2.3,1.2,2.0*3C
$GPRMC,120519.000,A,5034.2763,N,00227.3729,W,0.09,79.27,161011,,,A*4C
$GPGGA,120520.000,5034.2763,N,00227.3728,W,1,08,1.2,7.78,M,48.8,M,,0000*76
$GPGSA,M,3,06,16,29,18,31,21,30,03,,,,,2.3,1.2,2.0*3C
$GPRMC,120520.000,A,5034.2763,N,00227.3728,W,0.05,73.05,161011,,,A*41
$GPGGA,120521.000,5034.2763,N,00227.3728,W,1,08,1.2,7.83,M,48.8,M,,0000*73
$GPGSA,M,3,06,16,29,18,31,21,30,03,,,,,2.3,1.2,2.0*3C
$GPGSV,3,1,12,21,65,101,44,16,58,298,36,06,51,269,34,30,36,143,44*7C
$GPGSV,3,2,12,03,35,270,25,29,21,077,47,18,17,126,44,31,17,196,29*7C
$GPGSV,3,3,12,19,06,259,25,05,05,023,48,13,05,301,33,07,02,337,35*71
$GPRMC,120521.000,A,5034.2763,N,00227.3728,W,0.05,95.68,161011,,,A*43
$GPGGA,120522.000,5034.2763,N,00227.3727,W,1,08,1.2,7.89,M,48.8,M,,0000*75
$GPGSA,M,3,06,16,29,18,31,21,30,03,,,,,2.3,1.2,2.0*3C
$GPRMC,120522.000,A,5034.2763,N,00227.3727,W,0.08,92.98,161011,,,A*4A
$GPGGA,120523.000,5034.2763,N,00227.3726,W,1,08,1.2,7.98,M,48.8,M,,0000*75
$GPGSA,M,3,06,16,29,18,31,21,30,03,,,,,2.3,1.2,2.0*3C
$GPRMC,120523.000,A,5034.2763,N,00227.3726,W,0.04,98.11,161011,,,A*4D
$GPGGA,120524.000,5034.2763,N,00227.3726,W,1,08,1.2,7.92,M,48.8,M,,0000*78
$GPGSA,M,3,06,16,29,18,31,21,30,03,,,,,2.3,1.2,2.0*3C
$GPRMC,120524.000,A,5034.2763,N,00227.3726,W,0.19,150.28,161011,,,A*79
$GPGGA,120525.000,5034.2763,N,00227.3727,W,1,08,1.2,7.89,M,48.8,M,,0000*72
$GPGSA,M,3,06,16,29,18,31,21,30,03,,,,,2.3,1.2,2.0*3C
$GPRMC,120525.000,A,5034.2763,N,00227.3727,W,0.25,350.40,161011,,,A*7A
$GPGGA,120526.000,5034.2763,N,00227.3726,W,1,08,1.2,7.91,M,48.8,M,,0000*79
$GPGSA,M,3,06,16,29,18,31,21,30,03,,,,,2.3,1.2,2.0*3C
$GPGSV,3,1,12,21,65,101,44,16,58,298,37,06,51,269,35,30,36,143,44*7C
$GPGSV,3,2,12,03,35,270,30,29,21,077,47,18,17,126,41,31,17,196,27*73
$GPGSV,3,3,12,19,06,259,18,05,05,023,47,13,05,301,37,07,02,337,35*74
$GPRMC,120526.000,A,5034.2763,N,00227.3726,W,0.11,74.47,161011,,,A*4D
$GPGGA,120527.000,5034.2763,N,00227.3726,W,1,07,1.4,7.91,M,48.8,M,,0000*71
$GPGSA,M,3,06,16,29,18,31,21,30,,,,,,2.5,1.4,2.1*3E
$GPRMC,120527.000,A,5034.2763,N,00227.3726,W,0.06,67.83,161011,,,A*40
$GPGGA,120528.000,5034.2763,N,00227.3725,W,1,07,1.4,7.92,M,48.8,M,,0000*7E
$GPGSA,M,3,06,16,29,18,31,21,30,,,,,,2.5,1.4,2.1*3E
$GPRMC,120528.000,A,5034.2763,N,00227.3725,W,0.10,78.12,161011,,,A*4D
$GPGGA,120529.000,5034.2763,N,00227.3724,W,1,08,1.2,8.01,M,48.8,M,,0000*72
$GPGSA,M,3,06,16,29,18,31,21,30,03,,,,,2.3,1.2,2.0*3C
$GPRMC,120529.000,A,5034.2763,N,00227.3724,W,0.28,80.65,161011,,,A*41
$GPGGA,120530.000,5034.2763,N,00227.3723,W,1,08,1.2,8.07,M,48.8,M,,0000*7B
$GPGSA,M,3,06,16,29,18,31,21,30,03,,,,,2.3,1.2,2.0*3C
$GPRMC,120530.000,A,5034.2763,N,00227.3723,W,0.10,117.30,161011,,,A*7A
$GPGGA,120531.000,5034.2763,N,00227.3723,W,1,08,1.2,8.09,M,48.8,M,,0000*74
$GPGSA,M,3,06,16,29,18,31,21,30,03,,,,,2.3,1.2,2.0*3C
$GPGSV,3,1,12,21,65,101,44,16,58,298,37,06,51,269,32,30,36,143,43*7C
$GPGSV,3,2,12,03,35,270,32,29,21,077,46,18,17,126,38,31,17,196,19*73
$GPGSV,3,3,12,19,06,259,28,05,05,023,48,13,05,301,37,07,02,337,36*7B
$GPRMC,120531.000,A,5034.2763,N,00227.3723,W,0.16,94.89,161011,,,A*45
$GPGGA,120532.000,5034.2763,N,00227.3722,W,1,08,1.2,8.03,M,48.8,M,,0000*7C
$GPGSA,M,3,06,16,29,18,31,21,30,03,,,,,2.3,1.2,2.0*3C
$GPRMC,120532.000,A,5034.2763,N,00227.3722,W,0.12,116.34,161011,,,A*7E
$GPGGA,120533.000,5034.2763,N,00227.3722,W,1,08,1.2,8.02,M,48.8,M,,0000*7C
$GPGSA,M,3,06,16,29,18,31,21,30,03,,,,,2.3,1.2,2.0*3C
$GPRMC,120533.000,A,5034.2763,N,00227.3722,W,0.15,92.99,161011,,,A*42
$GPGGA,120534.000,5034.2763,N,00227.3722,W,1,08,1.2,7.99,M,48.8,M,,0000*76
$GPGSA,M,3,06,16,29,18,31,21,30,03,,,,,2.3,1.2,2.0*3C
$GPRMC,120534.000,A,5034.2763,N,00227.3722,W,0.12,102.78,161011,,,A*75
$GPGGA,120535.000,5034.2763,N,00227.3721,W,1,08,1.2,7.96,M,48.8,M,,0000*7B
$GPGSA,M,3,06,16,29,18,31,21,30,03,,,,,2.3,1.2,2.0*3C
$GPRMC,120535.000,A,5034.2763,N,00227.3721,W,0.13,100.31,161011,,,A*79
$GPGGA,120536.000,5034.2763,N,00227.3721,W,1,08,1.2,7.88,M,48.8,M,,0000*77
$GPGSA,M,3,06,16,29,18,31,21,30,03,,,,,2.3,1.2,2.0*3C
$GPGSV,3,1,12,21,65,101,44,16,58,298,38,06,51,269,32,30,36,143,42*72
$GPGSV,3,2,12,03,35,270,32,29,21,077,45,18,17,126,37,31,17,196,16*70
$GPGSV,3,3,12,19,06,259,19,05,05,023,49,13,05,301,38,07,02,337,38*79
$GPRMC,120536.000,A,5034.2763,N,00227.3721,W,0.09,110.75,161011,,,A*70
$GPGGA,120537.000,5034.2763,N,00227.3721,W,1,08,1.2,7.80,M,48.8,M,,0000*7E
$GPGSA,M,3,06,16,29,18,31,21,30,03,,,,,2.3,1.2,2.0*3C
$GPRMC,120537.000,A,5034.2763,N,00227.3721,W,0.11,126.79,161011,,,A*71
$GPGGA,120538.000,5034.2763,N,00227.3721,W,1,08,1.2,7.67,M,48.8,M,,0000*78
$GPGSA,M,3,06,16,29,18,31,21,30,03,,,,,2.3,1.2,2.0*3C
$GPRMC,120538.000,A,5034.2763,N,00227.3721,W,0.09,155.11,161011,,,A*7D
$GPGGA,120539.000,5034.2763,N,00227.3721,W,1,08,1.2,7.54,M,48.8,M,,0000*79
$GPGSA,M,3,06,16,29,18,31,21,30,03,,,,,2.3,1.2,2.0*3C
$GPRMC,120539.000,A,5034.2763,N,00227.3721,W,0.06,159.84,161011,,,A*73
$GPGGA,120540.000,5034.2763,N,00227.3721,W,1,08,1.2,7.43,M,48.8,M,,0000*71
$GPGSA,M,3,06,16,29,18,31,21,30,03,,,,,2.3,1.2,2.0*3C
$GPRMC,120540.000,A,5034.2763,N,00227.3721,W,0.04,55.56,161011,,,A*4D
$GPGGA,120541.000,5034.2763,N,00227.3721,W,1,08,1.2,7.34,M,48.8,M,,0000*70
$GPGSA,M,3,06,16,29,18,31,21,30,03,,,,,2.3,1.2,2.0*3C
$GPGSV,3,1,12,21,65,101,44,16,58,298,39,06,51,269,29,30,36,143,42*79
$GPGSV,3,2,12,03,35,271,33,29,21,077,46,18,17,126,39,31,17,196,17*7C
$GPGSV,3,3,12,19,06,259,24,05,05,023,48,13,05,301,32,07,02,336,38*7D
$GPRMC,120541.000,A,5034.2763,N,00227.3721,W,0.03,146.20,161011,,,A*79
$GPGGA,120542.000,5034.2763,N,00227.3721,W,1,08,1.2,7.24,M,48.8,M,,0000*72
$GPGSA,M,3,06,16,29,18,31,21,30,03,,,,,2.3,1.2,2.0*3C
$GPRMC,120542.000,A,5034.2763,N,00227.3721,W,0.11,111.20,161011,,,A*7B
$GPGGA,120543.000,5034.2763,N,00227.3721,W,1,08,1.2,7.14,M,48.8,M,,0000*70
$GPGSA,M,3,06,16,29,18,31,21,30,03,,,,,2.3,1.2,2.0*3C
$GPRMC,120543.000,A,5034.2763,N,00227.3721,W,0.22,106.68,161011,,,A*70
$GPGGA,120544.000,5034.2763,N,00227.3721,W,1,08,1.2,7.20,M,48.8,M,,0000*70
$GPGSA,M,3,06,16,29,18,31,21,30,03,,,,,2.3,1.2,2.0*3C
$GPRMC,120544.000,A,5034.2763,N,00227.3721,W,0.41,219.14,161011,,,A*74
$GPGGA,120545.000,5034.2763,N,00227.3723,W,1,08,1.2,7.09,M,48.8,M,,0000*78
$GPGSA,M,3,06,16,29,18,31,21,30,03,,,,,2.3,1.2,2.0*3C
$GPRMC,120545.000,A,5034.2763,N,00227.3723,W,0.24,324.52,161011,,,A*79
$GPGGA,120546.000,5034.2764,N,00227.3725,W,1,08,1.2,6.85,M,48.8,M,,0000*7F
$GPGSA,M,3,06,16,29,18,31,21,30,03,,,,,2.3,1.2,2.0*3C
$GPGSV,3,1,12,21,65,100,43,16,58,298,36,06,51,269,35,30,36,143,42*7D
$GPGSV,3,2,12,03,35,271,32,29,21,077,51,18,17,126,33,31,17,196,32*76
$GPGSV,3,3,12,19,06,259,27,05,05,023,42,13,05,301,31,07,02,336,32*7D
$GPRMC,120546.000,A,5034.2764,N,00227.3725,W,0.15,110.83,161011,,,A*70
$GPGGA,120547.000,5034.2764,N,00227.3725,W,1,08,1.2,6.72,M,48.8,M,,0000*76
$GPGSA,M,3,06,16,29,18,31,21,30,03,,,,,2.3,1.2,2.0*3C
$GPRMC,120547.000,A,5034.2764,N,00227.3725,W,0.12,132.89,161011,,,A*7C
$GPGGA,120548.000,5034.2764,N,00227.3725,W,1,07,1.2,6.63,M,48.8,M,,0000*76
$GPGSA,M,3,16,29,18,31,21,30,03,,,,,,2.3,1.2,2.0*3A
$GPRMC,120548.000,A,5034.2764,N,00227.3725,W,0.04,211.71,161011,,,A*71
$GPGGA,120549.000,5034.2764,N,00227.3725,W,1,07,1.2,6.56,M,48.8,M,,0000*71
$GPGSA,M,3,16,29,18,31,21,30,03,,,,,,2.3,1.2,2.0*3A
$GPRMC,120549.000,A,5034.2764,N,00227.3725,W,0.04,168.53,161011,,,A*7D
$GPGGA,120550.000,5034.2764,N,00227.3725,W,1,07,1.2,6.50,M,48.8,M,,0000*7F
$GPGSA,M,3,16,29,18,31,21,30,03,,,,,,2.3,1.2,2.0*3A
$GPRMC,120550.000,A,5034.2764,N,00227.3725,W,0.05,119.16,161011,,,A*73
$GPGGA,120551.000,5034.2764,N,00227.3725,W,1,07,1.2,6.45,M,48.8,M,,0000*7A
$GPGSA,M,3,16,29,18,31,21,30,03,,,,,,2.3,1.2,2.0*3A
$GPGSV,3,1,12,21,65,100,38,16,58,298,38,06,51,269,,30,36,143,42*79
$GPGSV,3,2,12,03,35,271,32,29,21,077,51,18,17,126,37,31,17,196,26*77
$GPGSV,3,3,12,19,06,259,26,05,05,023,42,13,05,301,30,07,02,336,35*7A
$GPRMC,120551.000,A,5034.2764,N,00227.3725,W,0.07,138.08,161011,,,A*7C
$GPGGA,120552.000,5034.2763,N,00227.3725,W,1,07,1.2,6.40,M,48.8,M,,0000*7B
$GPGSA,M,3,16,29,18,31,21,30,03,,,,,,2.3,1.2,2.0*3A
$GPRMC,120552.000,A,5034.2763,N,00227.3725,W,0.07,127.28,161011,,,A*74
$GPGGA,120553.000,5034.2763,N,00227.3724,W,1,07,1.2,6.35,M,48.8,M,,0000*79
$GPGSA,M,3,16,29,18,31,21,30,03,,,,,,2.3,1.2,2.0*3A
$GPRMC,120553.000,A,5034.2763,N,00227.3724,W,0.07,132.15,161011,,,A*7E
$GPGGA,120554.000,5034.2763,N,00227.3724,W,1,07,1.2,6.29,M,48.8,M,,0000*73
$GPGSA,M,3,16,29,18,31,21,30,03,,,,,,2.3,1.2,2.0*3A
$GPRMC,120554.000,A,5034.2763,N,00227.3724,W,0.06,131.21,161011,,,A*7C
$GPGGA,120555.000,5034.2763,N,00227.3724,W,1,07,1.2,6.24,M,48.8,M,,0000*7F
$GPGSA,M,3,16,29,18,31,21,30,03,,,,,,2.3,1.2,2.0*3A
$GPRMC,120555.000,A,5034.2763,N,00227.3724,W,0.07,131.07,161011,,,A*78
$GPGGA,120556.000,5034.2763,N,00227.3724,W,1,07,1.2,6.17,M,48.8,M,,0000*7C
$GPGSA,M,3,16,29,18,31,21,30,03,,,,,,2.3,1.2,2.0*3A
$GPGSV,3,1,12,21,65,100,38,16,58,298,39,06,51,269,,30,36,143,43*79
$GPGSV,3,2,12,03,35,271,33,29,21,077,52,18,17,126,36,31,17,196,26*74
$GPGSV,3,3,12,19,06,259,28,05,05,023,41,13,05,301,26,07,02,336,35*70
$GPRMC,120556.000,A,5034.2763,N,00227.3724,W,0.07,130.34,161011,,,A*7A
$GPGGA,120557.000,5034.2763,N,00227.3724,W,1,07,1.2,6.10,M,48.8,M,,0000*7A
$GPGSA,M,3,16,29,18,31,21,30,03,,,,,,2.3,1.2,2.0*3A
$GPRMC,120557.000,A,5034.2763,N,00227.3724,W,0.06,133.02,161011,,,A*7C
$GPGGA,120558.000,5034.2762,N,00227.3723,W,1,07,1.2,6.03,M,48.8,M,,0000*71
$GPGSA,M,3,16,29,18,31,21,30,03,,,,,,2.3,1.2,2.0*3A
$GPRMC,120558.000,A,5034.2762,N,00227.3723,W,0.06,132.59,161011,,,A*7A
$GPGGA,120559.000,5034.2762,N,00227.3723,W,1,07,1.2,5.95,M,48.8,M,,0000*7C
$GPGSA,M,3,16,29,18,31,21,30,03,,,,,,2.3,1.2,2.0*3A
$GPRMC,120559.000,A,5034.2762,N,00227.3723,W,0.07,131.38,161011,,,A*7E
$GPGGA,120600.000,5034.2762,N,00227.3723,W,1,07,1.2,5.86,M,48.8,M,,0000*71
$GPGSA,M,3,16,29,18,31,21,30,03,,,,,,2.3,1.2,2.0*3A
$GPRMC,120600.000,A,5034.2762,N,00227.3723,W,0.09,129.74,161011,,,A*7E
$GPGGA,120601.000,5034.2762,N,00227.3723,W,1,07,1.2,5.79,M,48.8,M,,0000*70
$GPGSA,M,3,16,29,18,31,21,30,03,,,,,,2.3,1.2,2.0*3A
$GPGSV,3,1,12,21,65,100,38,16,58,298,39,06,51,269,,30,36,143,43*79
$GPGSV,3,2,12,03,35,271,33,29,21,077,52,18,17,126,35,31,17,196,26*77
$GPGSV,3,3,12,19,06,259,30,05,05,023,41,13,05,301,21,07,02,336,35*7E
$GPRMC,120601.000,A,5034.2762,N,00227.3723,W,0.08,145.14,161011,,,A*72
$GPGGA,120602.000,5034.2762,N,00227.3723,W,1,07,1.2,5.74,M,48.8,M,,0000*7E
$GPGSA,M,3,16,29,18,31,21,30,03,,,,,,2.3,1.2,2.0*3A
$GPRMC,120602.000,A,5034.2762,N,00227.3723,W,0.08,109.18,161011,,,A*75
$GPGGA,120603.000,5034.2762,N,00227.3723,W,1,07,1.2,5.62,M,48.8,M,,0000*78
$GPGSA,M,3,16,29,18,31,21,30,03,,,,,,2.3,1.2,2.0*3A
$GPRMC,120603.000,A,5034.2762,N,00227.3723,W,0.14,162.58,161011,,,A*70
$GPGGA,120604.000,5034.2761,N,00227.3725,W,1,08,1.2,5.25,M,48.8,M,,0000*76
$GPGSA,M,3,06,16,29,18,31,21,30,03,,,,,2.3,1.2,2.0*3C
$GPRMC,120604.000,A,5034.2761,N,00227.3725,W,0.14,121.27,161011,,,A*7D
$GPGGA,120605.000,5034.2761,N,00227.3724,W,1,08,1.2,5.26,M,48.8,M,,0000*75
$GPGSA,M,3,06,16,29,18,31,21,30,03,,,,,2.3,1.2,2.0*3C
$GPRMC,120605.000,A,5034.2761,N,00227.3724,W,0.07,134.42,161011,,,A*78
$GPGGA,120606.000,5034.2761,N,00227.3722,W,1,08,1.2,5.56,M,48.8,M,,0000*77
$GPGSA,M,3,06,16,29,18,31,21,30,03,,,,,2.3,1.2,2.0*3C
$GPGSV,3,1,12,21,65,100,40,16,58,298,31,06,51,269,39,30,36,143,39*79
$GPGSV,3,2,12,03,35,271,29,29,21,077,51,18,17,126,34,31,17,196,27*7F
$GPGSV,3,3,12,19,06,259,35,05,05,023,44,13,05,301,34,07,02,336,31*7E
$GPRMC,120606.000,A,5034.2761,N,00227.3722,W,0.08,114.56,161011,,,A*75
$GPGGA,120607.000,5034.2761,N,00227.3720,W,1,08,1.2,5.62,M,48.8,M,,0000*73
$GPGSA,M,3,06,16,29,18,31,21,30,03,,,,,2.3,1.2,2.0*3C
$GPRMC,120607.000,A,5034.2761,N,00227.3720,W,0.08,133.40,161011,,,A*74
$GPGGA,120608.000,5034.2760,N,00227.3718,W,1,08,1.2,5.74,M,48.8,M,,0000*71
$GPGSA,M,3,06,16,29,18,31,21,30,03,,,,,2.3,1.2,2.0*3C
$GPRMC,120608.000,A,5034.2760,N,00227.3718,W,0.08,110.61,161011,,,A*73
$GPGGA,120609.000,5034.2760,N,00227.3716,W,1,08,1.2,5.81,M,48.8,M,,0000*74
$GPGSA,M,3,06,16,29,18,31,21,30,03,,,,,2.3,1.2,2.0*3C
$GPRMC,120609.000,A,5034.2760,N,00227.3716,W,0.08,119.13,161011,,,A*70
$GPGGA,120610.000,5034.2759,N,00227.3714,W,1,08,1.2,5.93,M,48.8,M,,0000*77
$GPGSA,M,3,06,16,29,18,31,21,30,03,,,,,2.3,1.2,2.0*3C
$GPRMC,120610.000,A,5034.2759,N,00227.3714,W,0.08,118.15,161011,,,A*77
$GPGGA,120611.000,5034.2758,N,00227.3711,W,1,08,1.2,6.13,M,48.8,M,,0000*79
$GPGSA,M,3,06,16,29,18,31,21,30,03,,,,,2.3,1.2,2.0*3C
$GPGSV,3,1,12,21,65,100,42,16,58,297,33,06,52,270,39,03,35,271,30*75
$GPGSV,3,2,12,30,35,143,40,29,21,077,50,18,18,126,36,31,17,196,27*7E
$GPGSV,3,3,12,19,07,259,35,05,05,022,45,13,05,301,34,07,02,336,30*7E
$GPRMC,120611.000,A,5034.2758,N,00227.3711,W,0.09,109.00,161011,,,A*77
$GPGGA,120612.000,5034.2758,N,00227.3708,W,1,08,1.2,6.35,M,48.8,M,,0000*76
$GPGSA,M,3,06,16,29,18,31,21,30,03,,,,,2.3,1.2,2.0*3C
$GPRMC,120612.000,A,5034.2758,N,00227.3708,W,0.10,119.77,161011,,,A*75
$GPGGA,120613.000,5034.2758,N,00227.3706,W,1,08,1.2,6.59,M,48.8,M,,0000*73
$GPGSA,M,3,06,16,29,18,31,21,30,03,,,,,2.3,1.2,2.0*3C
$GPRMC,120613.000,A,5034.2758,N,00227.3706,W,0.10,120.99,161011,,,A*70
$GPGGA,120614.000,5034.2757,N,00227.3703,W,1,08,1.2,6.80,M,48.8,M,,0000*7A
$GPGSA,M,3,06,16,29,18,31,21,30,03,,,,,2.3,1.2,2.0*3C
$GPRMC,120614.000,A,5034.2757,N,00227.3703,W,0.10,122.39,161011,,,A*75
$GPGGA,120615.000,5034.2757,N,00227.3701,W,1,08,1.2,6.96,M,48.8,M,,0000*7E
$GPGSA,M,3,06,16,29,18,31,21,30,03,,,,,2.3,1.2,2.0*3C
$GPRMC,120615.000,A,5034.2757,N,00227.3701,W,0.11,140.25,161011,,,A*7E
$GPGGA,120616.000,5034.2757,N,00227.3700,W,1,08,1.2,7.13,M,48.8,M,,0000*70
$GPGSA,M,3,06,16,29,18,31,21,30,03,,,,,2.3,1.2,2.0*3C
$GPGSV,3,1,12,21,65,100,44,16,58,297,37,06,52,270,38,03,35,271,30*76
$GPGSV,3,2,12,30,35,143,41,29,21,077,50,18,18,126,37,31,17,196,27*7E
$GPGSV,3,3,12,19,07,259,34,05,05,022,46,13,05,301,34,07,02,336,30*7C
$GPRMC,120616.000,A,5034.2757,N,00227.3700,W,0.10,102.42,161011,,,A*7A
$GPGGA,120617.000,5034.2757,N,00227.3698,W,1,08,1.2,7.26,M,48.8,M,,0000*77
$GPGSA,M,3,06,16,29,18,31,21,30,03,,,,,2.3,1.2,2.0*3C
$GPRMC,120617.000,A,5034.2757,N,00227.3698,W,0.11,119.90,161011,,,A*7F
$GPGGA,120618.000,5034.2757,N,00227.3697,W,1,08,1.2,7.36,M,48.8,M,,0000*76
$GPGSA,M,3,06,16,29,18,31,21,30,03,,,,,2.3,1.2,2.0*3C
$GPRMC,120618.000,A,5034.2757,N,00227.3697,W,0.09,121.23,161011,,,A*75
$GPGGA,120619.000,5034.2757,N,00227.3695,W,1,08,1.2,7.46,M,48.8,M,,0000*72
$GPGSA,M,3,06,16,29,18,31,21,30,03,,,,,2.3,1.2,2.0*3C
$GPRMC,120619.000,A,5034.2757,N,00227.3695,W,0.10,128.59,161011,,,A*7A
$GPGGA,120620.000,5034.2757,N,00227.3694,W,1,08,1.2,7.55,M,48.8,M,,0000*7B
$GPGSA,M,3,06,16,29,18,31,21,30,03,,,,,2.3,1.2,2.0*3C
$GPRMC,120620.000,A,5034.2757,N,00227.3694,W,0.09,129.08,161011,,,A*7C
$GPGGA,120621.000,5034.2756,N,00227.3693,W,1,08,1.2,7.64,M,48.8,M,,0000*7E
$GPGSA,M,3,06,16,29,18,31,21,30,03,,,,,2.3,1.2,2.0*3C
$GPGSV,3,1,12,21,65,100,44,16,58,297,37,06,52,270,38,03,35,271,30*76
$GPGSV,3,2,12,30,35,143,41,29,21,077,50,18,18,126,37,31,17,196,28*71
$GPGSV,3,3,12,19,07,259,27,05,05,022,47,13,05,301,35,07,02,336,27*78
$GPRMC,120621.000,A,5034.2756,N,00227.3693,W,0.09,119.09,161011,,,A*79
$GPGGA,120622.000,5034.2757,N,00227.3692,W,1,08,1.2,7.76,M,48.8,M,,0000*7E
$GPGSA,M,3,06,16,29,18,31,21,30,03,,,,,2.3,1.2,2.0*3C
$GPRMC,120622.000,A,5034.2757,N,00227.3692,W,0.04,23.21,161011,,,A*45
$GPGGA,120623.000,5034.2757,N,00227.3693,W,1,07,1.2,7.81,M,48.8,M,,0000*79
$GPGSA,M,3,16,29,18,31,21,30,03,,,,,,2.3,1.2,2.0*3A
$GPRMC,120623.000,A,5034.2757,N,00227.3693,W,0.10,130.25,161011,,,A*77
$GPGGA,120624.000,5034.2757,N,00227.3693,W,1,07,1.2,7.80,M,48.8,M,,0000*7F
$GPGSA,M,3,16,29,18,31,21,30,03,,,,,,2.3,1.2,2.0*3A
$GPRMC,120624.000,A,5034.2757,N,00227.3693,W,0.07,125.45,161011,,,A*74
$GPGGA,120625.000,5034.2757,N,00227.3694,W,1,06,1.5,7.57,M,48.8,M,,0000*75
$GPGSA,M,3,16,29,18,21,30,03,,,,,,,2.6,1.5,2.1*3B
$GPRMC,120625.000,A,5034.2757,N,00227.3694,W,0.17,150.68,161011,,,A*7E
$GPGGA,120626.000,5034.2757,N,00227.3695,W,1,08,1.2,7.36,M,48.8,M,,0000*79
$GPGSA,M,3,06,16,29,18,31,21,30,03,,,,,2.3,1.2,2.0*3C
$GPGSV,3,1,12,21,65,100,43,16,58,297,38,06,52,270,37,03,35,271,30*71
$GPGSV,3,2,12,30,35,143,41,29,21,077,51,18,18,126,38,31,17,196,31*77
$GPGSV,3,3,12,19,07,259,28,05,05,022,45,13,05,301,35,07,02,336,22*70
$GPRMC,120626.000,A,5034.2757,N,00227.3695,W,0.16,43.83,161011,,,A*4B
$GPGGA,120627.000,5034.2757,N,00227.3697,W,1,08,1.2,7.14,M,48.8,M,,0000*7A
$GPGSA,M,3,06,16,29,18,31,21,30,03,,,,,2.3,1.2,2.0*3C
$GPRMC,120627.000,A,5034.2757,N,00227.3697,W,0.07,126.55,161011,,,A*71
$GPGGA,120628.000,5034.2757,N,00227.3698,W,1,08,1.2,6.97,M,48.8,M,,0000*70
$GPGSA,M,3,06,16,29,18,31,21,30,03,,,,,2.3,1.2,2.0*3C
$GPRMC,120628.000,A,5034.2757,N,00227.3698,W,0.07,150.41,161011,,,A*75
$GPGGA,120629.000,5034.2757,N,00227.3699,W,1,08,1.2,6.82,M,48.8,M,,0000*74
$GPGSA,M,3,06,16,29,18,31,21,30,03,,,,,2.3,1.2,2.0*3C
$GPRMC,120629.000,A,5034.2757,N,00227.3699,W,0.08,133.68,161011,,,A*74
$GPGGA,120630.000,5034.2757,N,00227.3701,W,1,08,1.2,6.67,M,48.8,M,,0000*77
$GPGSA,M,3,06,16,29,18,31,21,30,03,,,,,2.3,1.2,2.0*3C
$GPRMC,120630.000,A,5034.2757,N,00227.3701,W,0.07,139.36,161011,,,A*72
$GPGGA,120631.000,5034.2757,N,00227.3701,W,1,08,1.2,6.58,M,48.8,M,,0000*7A
