$GPGGA,152522.000,5034.3325,N,00227.4025,W,1,12,0.7,10.44,M,48.8,M,,0000*4D
$GPGSA,M,3,16,08,03,11,22,14,18,01,19,28,06,32,1.3,0.7,1.1*3F
$GPGSV,3,1,12,19,88,248,39,03,52,137,45,22,51,077,45,11,42,265,32*77
$GPGSV,3,2,12,06,41,128,47,01,25,255,35,18,20,046,39,16,16,180,43*7F
$GPGSV,3,3,12,32,12,194,41,08,11,291,38,28,11,326,33,14,10,111,37*74
$GPRMC,152522.000,A,5034.3325,N,00227.4025,W,1.94,32.96,151011,,,A*49
$GPGGA,152523.000,5034.3330,N,00227.4022,W,1,12,0.7,10.49,M,48.8,M,,0000*42
$GPGSA,M,3,16,08,03,11,22,14,18,01,19,28,06,32,1.3,0.7,1.1*3F
$GPRMC,152523.000,A,5034.3330,N,00227.4022,W,1.36,28.12,151011,,,A*44
$GPGGA,152524.000,5034.3333,N,00227.4019,W,1,12,0.7,10.45,M,48.8,M,,0000*42
$GPGSA,M,3,16,08,03,11,22,14,18,01,19,28,06,32,1.3,0.7,1.1*3F
$GPRMC,152524.000,A,5034.3333,N,00227.4019,W,1.22,38.00,151011,,,A*4F
$GPGGA,152525.000,5034.3335,N,00227.4016,W,1,12,0.7,10.37,M,48.8,M,,0000*4F
$GPGSA,M,3,16,08,03,11,22,14,18,01,19,28,06,32,1.3,0.7,1.1*3F
$GPRMC,152525.000,A,5034.3335,N,00227.4016,W,1.55,47.22,151011,,,A*4F
$GPGGA,152526.000,5034.3338,N,00227.4012,W,1,12,0.7,10.20,M,48.8,M,,0000*43
$GPGSA,M,3,16,08,03,11,22,14,18,01,19,28,06,32,1.3,0.7,1.1*3F
$GPRMC,152526.000,A,5034.3338,N,00227.4012,W,1.60,46.15,151011,,,A*46
$GPGGA,152527.000,5034.3341,N,00227.4008,W,1,12,0.7,10.17,M,48.8,M,,0000*43
$GPGSA,M,3,16,08,03,11,22,14,18,01,19,28,06,32,1.3,0.7,1.1*3F
$GPGSV,3,1,12,19,88,248,31,03,52,137,34,22,51,077,45,11,42,265,32*79
$GPGSV,3,2,12,06,41,128,33,01,25,255,32,18,20,046,46,16,16,180,31*76
$GPGSV,3,3,12,32,12,194,30,08,11,291,29,28,11,326,35,14,10,111,42*76
$GPRMC,152527.000,A,5034.3341,N,00227.4008,W,1.06,53.05,151011,,,A*47
$GPGGA,152528.000,5034.3344,N,00227.4004,W,1,12,0.7,9.96,M,48.8,M,,0000*74
$GPGSA,M,3,16,08,03,11,22,14,18,01,19,28,06,32,1.3,0.7,1.1*3F
$GPRMC,152528.000,A,5034.3344,N,00227.4004,W,1.12,41.36,151011,,,A*47
$GPGGA,152529.000,5034.3345,N,00227.4001,W,1,12,0.7,9.76,M,48.8,M,,0000*7F
$GPGSA,M,3,16,08,03,11,22,14,18,01,19,28,06,32,1.3,0.7,1.1*3F
$GPRMC,152529.000,A,5034.3345,N,00227.4001,W,1.04,50.49,151011,,,A*4D
$GPGGA,152530.000,5034.3347,N,00227.3997,W,1,11,0.8,9.51,M,48.8,M,,0000*7D
$GPGSA,M,3,16,11,03,22,14,18,01,19,28,06,32,,1.3,0.8,1.1*38
$GPRMC,152530.000,A,5034.3347,N,00227.3997,W,1.08,50.24,151011,,,A*41
$GPGGA,152531.000,5034.3349,N,00227.3994,W,1,12,0.7,9.31,M,48.8,M,,0000*7B
$GPGSA,M,3,16,11,03,08,22,14,18,01,19,28,06,32,1.3,0.7,1.1*3F
$GPRMC,152531.000,A,5034.3349,N,00227.3994,W,1.14,53.57,151011,,,A*47
$GPGGA,152532.000,5034.3351,N,00227.3989,W,1,12,0.7,9.20,M,48.8,M,,0000*7D
$GPGSA,M,3,16,11,03,08,22,14,18,01,19,28,06,32,1.3,0.7,1.1*3F
$GPGSV,3,1,12,19,88,248,35,03,52,137,34,22,51,077,37,11,42,265,34*7E
$GPGSV,3,2,12,06,41,128,29,01,25,255,30,18,20,046,47,16,16,180,30*7F
$GPGSV,3,3,12,32,12,194,26,08,11,291,33,28,11,326,43,14,10,111,41*78
$GPRMC,152532.000,A,5034.3351,N,00227.3989,W,1.16,61.27,151011,,,A*45
$GPGGA,152533.000,5034.3352,N,00227.3985,W,1,12,0.7,8.98,M,48.8,M,,0000*71
$GPGSA,M,3,16,11,03,08,22,14,18,01,19,28,06,32,1.3,0.7,1.1*3F
$GPRMC,152533.000,A,5034.3352,N,00227.3985,W,1.17,78.23,151011,,,A*46
$GPGGA,152534.000,5034.3353,N,00227.3979,W,1,12,0.7,8.79,M,48.8,M,,0000*7B
$GPGSA,M,3,16,11,03,08,22,14,18,01,19,28,06,32,1.3,0.7,1.1*3F
$GPRMC,152534.000,A,5034.3353,N,00227.3979,W,1.40,81.30,151011,,,A*45
$GPGGA,152535.000,5034.3354,N,00227.3973,W,1,12,0.7,8.63,M,48.8,M,,0000*7C
$GPGSA,M,3,16,11,03,08,22,14,18,01,19,28,06,32,1.3,0.7,1.1*3F
$GPRMC,152535.000,A,5034.3354,N,00227.3973,W,1.28,75.15,151011,,,A*4B
$GPGGA,152536.000,5034.3354,N,00227.3968,W,1,12,0.7,8.43,M,48.8,M,,0000*77
$GPGSA,M,3,16,11,03,08,22,14,18,01,19,28,06,32,1.3,0.7,1.1*3F
$GPRMC,152536.000,A,5034.3354,N,00227.3968,W,1.16,79.03,151011,,,A*44
$GPGGA,152537.000,5034.3355,N,00227.3964,W,1,12,0.7,8.17,M,48.8,M,,0000*7A
$GPGSA,M,3,16,11,03,08,22,14,18,01,19,28,06,32,1.3,0.7,1.1*3F
$GPGSV,3,1,12,19,88,248,36,03,52,137,33,22,51,077,37,11,42,265,34*7A
$GPGSV,3,2,12,06,41,128,34,01,25,255,31,18,20,046,47,16,16,180,31*73
$GPGSV,3,3,12,32,12,194,31,08,11,291,28,28,11,326,38,14,10,111,37*79
$GPRMC,152537.000,A,5034.3355,N,00227.3964,W,0.97,97.87,151011,,,A*4C
$GPGGA,152538.000,5034.3354,N,00227.3960,W,1,12,0.7,7.92,M,48.8,M,,0000*72
$GPGSA,M,3,16,11,03,08,22,14,18,01,19,28,06,32,1.3,0.7,1.1*3F
$GPRMC,152538.000,A,5034.3354,N,00227.3960,W,0.93,97.78,151011,,,A*42
$GPGGA,152539.000,5034.3354,N,00227.3956,W,1,12,0.7,7.66,M,48.8,M,,0000*7D
$GPGSA,M,3,16,11,03,08,22,14,18,01,19,28,06,32,1.3,0.7,1.1*3F
$GPRMC,152539.000,A,5034.3354,N,00227.3956,W,0.77,104.86,151011,,,A*76
$GPGGA,152540.000,5034.3354,N,00227.3953,W,1,12,0.7,7.47,M,48.8,M,,0000*75
$GPGSA,M,3,16,11,03,08,22,14,18,01,19,28,06,32,1.3,0.7,1.1*3F
$GPRMC,152540.000,A,5034.3354,N,00227.3953,W,0.62,97.07,151011,,,A*4B
$GPGGA,152541.000,5034.3354,N,00227.3950,W,1,12,0.7,7.45,M,48.8,M,,0000*75
$GPGSA,M,3,16,11,03,08,22,14,18,01,19,28,06,32,1.3,0.7,1.1*3F
$GPRMC,152541.000,A,5034.3354,N,00227.3950,W,0.39,91.94,151011,,,A*4B
$GPGGA,152542.000,5034.3354,N,00227.3948,W,1,11,0.8,7.40,M,48.8,M,,0000*76
$GPGSA,M,3,16,11,03,08,22,14,18,01,19,28,06,,1.4,0.8,1.1*36
$GPGSV,3,1,12,19,88,248,36,03,52,137,37,22,51,077,47,11,42,265,33*7E
$GPGSV,3,2,12,06,41,128,34,01,25,255,37,18,20,046,46,16,16,180,36*73
$GPGSV,3,3,12,32,12,194,,08,11,291,37,28,11,326,35,14,10,111,44*7C
$GPRMC,152542.000,A,5034.3354,N,00227.3948,W,0.41,69.95,151011,,,A*48
$GPGGA,152543.000,5034.3354,N,00227.3946,W,1,12,0.7,7.41,M,48.8,M,,0000*74
$GPGSA,M,3,16,11,03,08,22,14,18,01,19,28,06,32,1.3,0.7,1.1*3F
$GPRMC,152543.000,A,5034.3354,N,00227.3946,W,0.43,81.22,151011,,,A*4F
$GPGGA,152544.000,5034.3355,N,00227.3943,W,1,12,0.7,7.68,M,48.8,M,,0000*7C
$GPGSA,M,3,16,11,03,08,22,14,18,01,19,28,06,32,1.3,0.7,1.1*3F
$GPRMC,152544.000,A,5034.3355,N,00227.3943,W,0.40,114.32,151011,,,A*73
$GPGGA,152545.000,5034.3355,N,00227.3942,W,1,12,0.7,7.90,M,48.8,M,,0000*7B
$GPGSA,M,3,16,11,03,08,22,14,18,01,19,28,06,32,1.3,0.7,1.1*3F
$GPRMC,152545.000,A,5034.3355,N,00227.3942,W,0.03,164.77,151011,,,A*72
$GPGGA,152546.000,5034.3356,N,00227.3941,W,1,12,0.7,8.03,M,48.8,M,,0000*7D
$GPGSA,M,3,16,11,03,08,22,14,18,01,19,28,06,32,1.3,0.7,1.1*3F
$GPRMC,152546.000,A,5034.3356,N,00227.3941,W,0.50,90.68,151011,,,A*43
$GPGGA,152547.000,5034.3356,N,00227.3940,W,1,12,0.7,8.21,M,48.8,M,,0000*7D
$GPGSA,M,3,16,11,03,08,22,14,18,01,19,28,06,32,1.3,0.7,1.1*3F
$GPGSV,3,1,12,19,88,248,42,03,52,137,35,22,51,077,39,11,42,265,41*73
$GPGSV,3,2,12,06,41,128,34,01,25,255,38,18,20,046,42,16,16,180,34*7A
$GPGSV,3,3,12,32,12,194,36,08,11,291,39,28,11,326,47,14,10,111,30*71
$GPRMC,152547.000,A,5034.3356,N,00227.3940,W,0.63,137.20,151011,,,A*73
$GPGGA,152548.000,5034.3355,N,00227.3939,W,1,12,0.7,8.31,M,48.8,M,,0000*7E
$GPGSA,M,3,16,11,03,08,22,14,18,01,19,28,06,32,1.3,0.7,1.1*3F
$GPRMC,152548.000,A,5034.3355,N,00227.3939,W,0.52,151.00,151011,,,A*71
$GPGGA,152549.000,5034.3353,N,00227.3940,W,1,12,0.7,8.38,M,48.8,M,,0000*7E
$GPGSA,M,3,16,11,03,08,22,14,18,01,19,28,06,32,1.3,0.7,1.1*3F
$GPRMC,152549.000,A,5034.3353,N,00227.3940,W,0.39,210.42,151011,,,A*75
$GPGGA,152550.000,5034.3353,N,00227.3940,W,1,12,0.7,8.31,M,48.8,M,,0000*7F
$GPGSA,M,3,16,11,03,08,22,14,18,01,19,28,06,32,1.3,0.7,1.1*3F
$GPRMC,152550.000,A,5034.3353,N,00227.3940,W,0.22,192.15,151011,,,A*7C
$GPGGA,152551.000,5034.3353,N,00227.3941,W,1,11,0.8,8.19,M,48.8,M,,0000*79
$GPGSA,M,3,16,11,03,08,22,18,01,19,28,06,32,,1.5,0.8,1.2*30
$GPRMC,152551.000,A,5034.3353,N,00227.3941,W,0.24,179.98,151011,,,A*7A
$GPGGA,152552.000,5034.3353,N,00227.3942,W,1,12,0.7,8.19,M,48.8,M,,0000*75
$GPGSA,M,3,16,11,03,08,22,14,18,01,19,28,06,32,1.3,0.7,1.1*3F
$GPGSV,3,1,12,19,88,248,36,03,52,137,35,22,51,077,46,11,42,265,35*7B
$GPGSV,3,2,12,06,41,128,37,01,25,255,38,18,20,046,41,16,16,180,31*7F
$GPGSV,3,3,12,32,12,194,33,08,11,291,28,28,11,326,42,14,10,111,39*78
$GPRMC,152552.000,A,5034.3353,N,00227.3942,W,0.41,207.23,151011,,,A*73
$GPGGA,152553.000,5034.3352,N,00227.3943,W,1,12,0.7,8.25,M,48.8,M,,0000*7B
$GPGSA,M,3,16,11,03,08,22,14,18,01,19,28,06,32,1.3,0.7,1.1*3F
$GPRMC,152553.000,A,5034.3352,N,00227.3943,W,0.69,212.44,151011,,,A*7D
$GPGGA,152554.000,5034.3350,N,00227.3944,W,1,12,0.7,8.26,M,48.8,M,,0000*7A
$GPGSA,M,3,16,11,03,08,22,14,18,01,19,28,06,32,1.3,0.7,1.1*3F
$GPRMC,152554.000,A,5034.3350,N,00227.3944,W,0.52,181.30,151011,,,A*7D
$GPGGA,152555.000,5034.3349,N,00227.3945,W,1,12,0.7,8.13,M,48.8,M,,0000*74
$GPGSA,M,3,16,11,03,08,22,14,18,01,19,28,06,32,1.3,0.7,1.1*3F
$GPRMC,152555.000,A,5034.3349,N,00227.3945,W,0.61,196.87,151011,,,A*7F
$GPGGA,152556.000,5034.3347,N,00227.3946,W,1,12,0.7,7.93,M,48.8,M,,0000*7D
$GPGSA,M,3,16,11,03,08,22,14,18,01,19,28,06,32,1.3,0.7,1.1*3F
$GPRMC,152556.000,A,5034.3347,N,00227.3946,W,0.64,183.48,151011,,,A*73
$GPGGA,152557.000,5034.3345,N,00227.3946,W,1,12,0.7,7.85,M,48.8,M,,0000*79
$GPGSA,M,3,16,11,03,08,22,14,18,01,19,28,06,32,1.3,0.7,1.1*3F
$GPGSV,3,1,12,19,88,248,38,03,52,137,36,22,51,077,43,11,42,265,36*70
$GPGSV,3,2,12,06,41,128,30,01,25,255,33,18,20,046,43,16,16,180,36*76
$GPGSV,3,3,12,32,12,194,34,08,11,291,37,28,11,326,46,14,10,111,32*7E
$GPRMC,152557.000,A,5034.3345,N,00227.3946,W,0.86,177.80,151011,,,A*73
$GPGGA,152558.000,5034.3341,N,00227.3947,W,1,12,0.7,7.60,M,48.8,M,,0000*78
$GPGSA,M,3,16,11,03,08,22,14,18,01,19,28,06,32,1.3,0.7,1.1*3F
$GPRMC,152558.000,A,5034.3341,N,00227.3947,W,1.17,197.82,151011,,,A*7C
$GPGGA,152559.000,5034.3338,N,00227.3949,W,1,12,0.7,7.52,M,48.8,M,,0000*78
$GPGSA,M,3,16,11,03,08,22,14,18,01,19,28,06,32,1.3,0.7,1.1*3F
$GPRMC,152559.000,A,5034.3338,N,00227.3949,W,1.13,189.32,151011,,,A*7D
$GPGGA,152600.000,5034.3334,N,00227.3950,W,1,12,0.7,7.31,M,48.8,M,,0000*76
$GPGSA,M,3,16,11,03,08,22,14,18,01,19,28,06,32,1.3,0.7,1.1*3F
$GPRMC,152600.000,A,5034.3334,N,00227.3950,W,1.68,184.88,151011,,,A*76
$GPGGA,152601.000,5034.3330,N,00227.3951,W,1,12,0.7,7.42,M,48.8,M,,0000*76
$GPGSA,M,3,16,11,03,08,22,14,18,01,19,28,06,32,1.3,0.7,1.1*3F
$GPRMC,152601.000,A,5034.3330,N,00227.3951,W,1.43,205.76,151011,,,A*70
$GPGGA,152602.000,5034.3326,N,00227.3955,W,1,12,0.7,7.27,M,48.8,M,,0000*75
$GPGSA,M,3,16,11,03,08,22,14,18,01,19,28,06,32,1.3,0.7,1.1*3F
$GPGSV,3,1,12,19,88,248,41,03,52,137,37,22,51,077,40,11,42,265,42*7F
$GPGSV,3,2,12,06,41,128,36,01,25,255,36,18,20,046,45,16,16,180,34*71
$GPGSV,3,3,12,32,12,194,26,08,11,291,37,28,11,326,44,14,10,111,32*7F
$GPRMC,152602.000,A,5034.3326,N,00227.3955,W,1.64,205.11,151011,,,A*74
$GPGGA,152603.000,5034.3321,N,00227.3957,W,1,12,0.7,7.08,M,48.8,M,,0000*7C
$GPGSA,M,3,16,11,03,08,22,14,18,01,19,28,06,32,1.3,0.7,1.1*3F
$GPRMC,152603.000,A,5034.3321,N,00227.3957,W,1.71,182.11,151011,,,A*78
$GPGGA,152604.000,5034.3315,N,00227.3958,W,1,12,0.7,6.96,M,48.8,M,,0000*75
$GPGSA,M,3,16,11,03,08,22,14,18,01,19,28,06,32,1.3,0.7,1.1*3F
$GPRMC,152604.000,A,5034.3315,N,00227.3958,W,1.78,183.54,151011,,,A*7E
$GPGGA,152605.000,5034.3310,N,00227.3959,W,1,11,0.8,6.91,M,48.8,M,,0000*7B
$GPGSA,M,3,16,11,03,08,22,14,18,01,19,28,06,,1.4,0.8,1.1*36
$GPRMC,152605.000,A,5034.3310,N,00227.3959,W,1.99,189.92,151011,,,A*74
$GPGGA,152606.000,5034.3304,N,00227.3959,W,1,12,0.7,6.91,M,48.8,M,,0000*71
$GPGSA,M,3,16,11,03,08,22,14,18,01,19,28,06,32,1.3,0.7,1.1*3F
$GPRMC,152606.000,A,5034.3304,N,00227.3959,W,2.34,183.22,151011,,,A*77
$GPGGA,152607.000,5034.3297,N,00227.3960,W,1,12,0.7,6.85,M,48.8,M,,0000*74
$GPGSA,M,3,16,11,03,08,22,14,18,01,19,28,06,32,1.3,0.7,1.1*3F
$GPGSV,3,1,12,19,88,248,41,03,52,137,39,22,51,077,46,11,42,265,35*77
$GPGSV,3,2,12,06,41,128,38,01,25,255,31,18,20,046,46,16,16,180,34*7B
$GPGSV,3,3,12,32,12,194,34,08,11,291,35,28,11,326,35,14,10,111,43*7E
$GPRMC,152607.000,A,5034.3297,N,00227.3960,W,2.35,185.23,151011,,,A*71
$GPGGA,152608.000,5034.3290,N,00227.3961,W,1,12,0.7,6.87,M,48.8,M,,0000*7F
$GPGSA,M,3,16,11,03,08,22,14,18,01,19,28,06,32,1.3,0.7,1.1*3F
$GPRMC,152608.000,A,5034.3290,N,00227.3961,W,2.22,184.56,151011,,,A*7D
$GPGGA,152609.000,5034.3284,N,00227.3962,W,1,12,0.7,6.84,M,48.8,M,,0000*7B
$GPGSA,M,3,16,11,03,08,22,14,18,01,19,28,06,32,1.3,0.7,1.1*3F
$GPRMC,152609.000,A,5034.3284,N,00227.3962,W,2.24,192.18,151011,,,A*71
$GPGGA,152610.000,5034.3278,N,00227.3963,W,1,12,0.7,6.96,M,48.8,M,,0000*72
$GPGSA,M,3,16,11,03,08,22,14,18,01,19,28,06,32,1.3,0.7,1.1*3F
$GPRMC,152610.000,A,5034.3278,N,00227.3963,W,2.32,178.93,151011,,,A*7B
$GPGGA,152611.000,5034.3272,N,00227.3963,W,1,12,0.7,7.03,M,48.8,M,,0000*74
$GPGSA,M,3,16,11,03,08,22,14,18,01,19,28,06,32,1.3,0.7,1.1*3F
$GPRMC,152611.000,A,5034.3272,N,00227.3963,W,2.37,171.55,151011,,,A*76
$GPGGA,152612.000,5034.3265,N,00227.3961,W,1,12,0.7,7.02,M,48.8,M,,0000*72
$GPGSA,M,3,16,11,03,08,22,14,18,01,19,28,06,32,1.3,0.7,1.1*3F
$GPGSV,3,1,12,19,88,248,38,03,52,137,33,22,51,077,44,11,42,265,41*72
$GPGSV,3,2,12,06,41,128,38,01,25,255,33,18,20,046,47,16,16,180,38*74
$GPGSV,3,3,12,32,12,194,35,08,11,291,30,28,11,326,38,14,10,111,42*76
$GPRMC,152612.000,A,5034.3265,N,00227.3961,W,2.36,171.18,151011,,,A*79
$GPGGA,152613.000,5034.3259,N,00227.3960,W,1,12,0.7,7.02,M,48.8,M,,0000*7D
$GPGSA,M,3,16,11,03,08,22,14,18,01,19,28,06,32,1.3,0.7,1.1*3F
$GPRMC,152613.000,A,5034.3259,N,00227.3960,W,2.07,176.06,151011,,,A*7C
$GPGGA,152614.000,5034.3253,N,00227.3960,W,1,12,0.7,7.08,M,48.8,M,,0000*7A
$GPGSA,M,3,16,11,03,08,22,14,18,01,19,28,06,32,1.3,0.7,1.1*3F
$GPRMC,152614.000,A,5034.3253,N,00227.3960,W,2.08,181.50,151011,,,A*75
$GPGGA,152615.000,5034.3247,N,00227.3961,W,1,12,0.7,7.25,M,48.8,M,,0000*70
$GPGSA,M,3,16,11,03,08,22,14,18,01,19,28,06,32,1.3,0.7,1.1*3F
$GPRMC,152615.000,A,5034.3247,N,00227.3961,W,1.85,190.99,151011,,,A*73
$GPGGA,152616.000,5034.3242,N,00227.3962,W,1,11,0.8,7.29,M,48.8,M,,0000*75
$GPGSA,M,3,11,03,08,22,14,18,01,19,28,06,32,,1.4,0.8,1.1*30
$GPRMC,152616.000,A,5034.3242,N,00227.3962,W,1.85,186.05,151011,,,A*74
$GPGGA,152617.000,5034.3238,N,00227.3962,W,1,11,0.8,7.68,M,48.8,M,,0000*7C
$GPGSA,M,3,11,03,08,22,14,18,01,19,28,06,32,,1.4,0.8,1.1*30
$GPGSV,3,1,12,19,88,248,39,03,52,137,29,22,51,077,41,11,42,265,35*7E
$GPGSV,3,2,12,06,41,128,31,01,25,255,35,18,20,046,47,16,16,180,*70
$GPGSV,3,3,12,32,12,194,32,08,11,291,36,28,11,326,45,14,10,111,37*7F
$GPRMC,152617.000,A,5034.3238,N,00227.3962,W,1.77,176.29,151011,,,A*74
$GPGGA,152618.000,5034.3234,N,00227.3961,W,1,11,0.7,8.04,M,48.8,M,,0000*76
$GPGSA,M,3,16,11,03,08,22,14,18,01,19,28,32,,1.3,0.7,1.1*39
$GPRMC,152618.000,A,5034.3234,N,00227.3961,W,2.13,173.25,151011,,,A*7C
$GPGGA,152619.000,5034.3229,N,00227.3962,W,1,12,0.7,8.27,M,48.8,M,,0000*7A
$GPGSA,M,3,16,11,03,08,22,14,18,01,19,28,06,32,1.3,0.7,1.1*3F
$GPRMC,152619.000,A,5034.3229,N,00227.3962,W,2.28,196.73,151011,,,A*72
$GPGGA,152620.000,5034.3223,N,00227.3965,W,1,12,0.7,8.27,M,48.8,M,,0000*7D
$GPGSA,M,3,16,11,03,08,22,14,18,01,19,28,06,32,1.3,0.7,1.1*3F
$GPRMC,152620.000,A,5034.3223,N,00227.3965,W,1.54,198.64,151011,,,A*75
$GPGGA,152621.000,5034.3219,N,00227.3966,W,1,12,0.7,8.05,M,48.8,M,,0000*76
$GPGSA,M,3,16,11,03,08,22,14,18,01,19,28,06,32,1.3,0.7,1.1*3F
$GPRMC,152621.000,A,5034.3219,N,00227.3966,W,1.14,184.54,151011,,,A*74
$GPGGA,152622.000,5034.3216,N,00227.3967,W,1,12,0.7,8.06,M,48.8,M,,0000*78
$GPGSA,M,3,16,11,03,08,22,14,18,01,19,28,06,32,1.3,0.7,1.1*3F
$GPGSV,3,1,12,19,88,228,39,03,52,137,30,22,51,077,40,11,43,266,39*7F
$GPGSV,3,2,12,06,41,129,35,01,26,255,35,18,19,046,46,16,16,180,36*78
$GPGSV,3,3,12,32,13,194,33,08,11,291,38,28,11,326,47,14,11,111,32*77
$GPRMC,152622.000,A,5034.3216,N,00227.3967,W,0.90,174.09,151011,,,A*73
$GPGGA,152623.000,5034.3213,N,00227.3968,W,1,11,0.8,7.95,M,48.8,M,,0000*7A
$GPGSA,M,3,16,11,03,08,22,14,18,19,28,06,32,,1.3,0.8,1.1*31
$GPRMC,152623.000,A,5034.3213,N,00227.3968,W,1.60,193.16,151011,,,A*71
$GPGGA,152624.000,5034.3208,N,00227.3968,W,1,10,0.8,7.80,M,48.8,M,,0000*72
$GPGSA,M,3,16,03,08,22,14,18,19,28,06,32,,,1.4,0.8,1.1*36
$GPRMC,152624.000,A,5034.3208,N,00227.3968,W,1.78,180.35,151011,,,A*76
$GPGGA,152625.000,5034.3201,N,00227.3969,W,1,12,0.7,7.64,M,48.8,M,,0000*7C
$GPGSA,M,3,16,11,03,08,22,14,18,01,19,28,06,32,1.3,0.7,1.1*3F
$GPRMC,152625.000,A,5034.3201,N,00227.3969,W,2.29,177.55,151011,,,A*76
$GPGGA,152626.000,5034.3195,N,00227.3970,W,1,12,0.7,7.81,M,48.8,M,,0000*72
$GPGSA,M,3,16,11,03,08,22,14,18,01,19,28,06,32,1.3,0.7,1.1*3F
$GPRMC,152626.000,A,5034.3195,N,00227.3970,W,2.42,182.51,151011,,,A*70
$GPGGA,152627.000,5034.3188,N,00227.3970,W,1,12,0.7,7.73,M,48.8,M,,0000*72
$GPGSA,M,3,16,11,03,08,22,14,18,01,19,28,06,32,1.3,0.7,1.1*3F
$GPGSV,3,1,12,19,88,228,39,03,52,137,29,22,51,077,40,11,43,266,42*7B
$GPGSV,3,2,12,06,41,129,32,01,26,255,36,18,19,046,47,16,16,180,36*7D
$GPGSV,3,3,12,32,13,194,34,08,11,291,32,28,11,326,46,14,11,111,40*7E
$GPRMC,152627.000,A,5034.3188,N,00227.3970,W,2.49,182.11,151011,,,A*72
$GPGGA,152628.000,5034.3181,N,00227.3971,W,1,12,0.7,7.82,M,48.8,M,,0000*7B
$GPGSA,M,3,16,11,03,08,22,14,18,01,19,28,06,32,1.3,0.7,1.1*3F
$GPRMC,152628.000,A,5034.3181,N,00227.3971,W,2.35,189.17,151011,,,A*73
$GPGGA,152629.000,5034.3175,N,00227.3974,W,1,12,0.7,7.69,M,48.8,M,,0000*71
$GPGSA,M,3,16,11,03,08,22,14,18,01,19,28,06,32,1.3,0.7,1.1*3F
$GPRMC,152629.000,A,5034.3175,N,00227.3974,W,2.33,195.94,151011,,,A*7C
$GPGGA,152630.000,5034.3169,N,00227.3976,W,1,12,0.7,7.53,M,48.8,M,,0000*7F
$GPGSA,M,3,16,11,03,08,22,14,18,01,19,28,06,32,1.3,0.7,1.1*3F
$GPRMC,152630.000,A,5034.3169,N,00227.3976,W,1.30,189.74,151011,,,A*78
$GPGGA,152631.000,5034.3165,N,00227.3978,W,1,12,0.7,7.53,M,48.8,M,,0000*7C
$GPGSA,M,3,16,11,03,08,22,14,18,01,19,28,06,32,1.3,0.7,1.1*3F
$GPRMC,152631.000,A,5034.3165,N,00227.3978,W,1.41,199.03,151011,,,A*7C
$GPGGA,152632.000,5034.3160,N,00227.3982,W,1,12,0.7,7.31,M,48.8,M,,0000*7B
$GPGSA,M,3,16,11,03,08,22,14,18,01,19,28,06,32,1.3,0.7,1.1*3F
$GPGSV,3,1,12,19,88,228,39,03,52,137,35,22,51,077,41,11,43,266,43*76
$GPGSV,3,2,12,06,41,129,40,01,26,255,36,18,19,046,42,16,16,180,37*7C
$GPGSV,3,3,12,32,13,194,29,08,11,291,34,28,11,326,39,14,11,111,46*7A
$GPRMC,152632.000,A,5034.3160,N,00227.3982,W,2.07,215.33,151011,,,A*7A
$GPGGA,152633.000,5034.3155,N,00227.3986,W,1,12,0.7,7.17,M,48.8,M,,0000*7C
$GPGSA,M,3,16,11,03,08,22,14,18,01,19,28,06,32,1.3,0.7,1.1*3F
$GPRMC,152633.000,A,5034.3155,N,00227.3986,W,1.63,202.74,151011,,,A*7D
$GPGGA,152634.000,5034.3150,N,00227.3988,W,1,12,0.7,7.07,M,48.8,M,,0000*71
$GPGSA,M,3,16,11,03,08,22,14,18,01,19,28,06,32,1.3,0.7,1.1*3F
$GPRMC,152634.000,A,5034.3150,N,00227.3988,W,1.66,190.18,151011,,,A*76
$GPGGA,152635.000,5034.3146,N,00227.3989,W,1,12,0.7,7.15,M,48.8,M,,0000*75
$GPGSA,M,3,16,11,03,08,22,14,18,01,19,28,06,32,1.3,0.7,1.1*3F
$GPRMC,152635.000,A,5034.3146,N,00227.3989,W,1.61,188.68,151011,,,A*78
$GPGGA,152636.000,5034.3142,N,00227.3990,W,1,12,0.7,7.39,M,48.8,M,,0000*74
$GPGSA,M,3,16,11,03,08,22,14,18,01,19,28,06,32,1.3,0.7,1.1*3F
$GPRMC,152636.000,A,5034.3142,N,00227.3990,W,1.87,187.91,151011,,,A*76
$GPGGA,152637.000,5034.3136,N,00227.3992,W,1,12,0.7,7.47,M,48.8,M,,0000*7D
$GPGSA,M,3,16,11,03,08,22,14,18,01,19,28,06,32,1.3,0.7,1.1*3F
$GPGSV,3,1,12,19,88,224,40,03,52,138,36,22,51,077,41,11,43,266,42*79
$GPGSV,3,2,12,06,40,129,33,01,26,255,35,18,19,046,46,16,16,180,29*71
$GPGSV,3,3,12,32,13,194,35,08,11,290,34,28,11,326,41,14,11,111,43*7C
$GPRMC,152637.000,A,5034.3136,N,00227.3992,W,2.11,190.61,151011,,,A*73
$GPGGA,152638.000,5034.3130,N,00227.3993,W,1,12,0.7,7.65,M,48.8,M,,0000*75
$GPGSA,M,3,16,11,03,08,22,14,18,01,19,28,06,32,1.3,0.7,1.1*3F
$GPRMC,152638.000,A,5034.3130,N,00227.3993,W,2.12,191.38,151011,,,A*75
$GPGGA,152639.000,5034.3125,N,00227.3995,W,1,12,0.7,7.60,M,48.8,M,,0000*73
$GPGSA,M,3,16,11,03,08,22,14,18,01,19,28,06,32,1.3,0.7,1.1*3F
$GPRMC,152639.000,A,5034.3125,N,00227.3995,W,1.25,193.62,151011,,,A*7C
$GPGGA,152640.000,5034.3122,N,00227.3995,W,1,12,0.7,7.47,M,48.8,M,,0000*7F
$GPGSA,M,3,16,11,03,08,22,14,18,01,19,28,06,32,1.3,0.7,1.1*3F
$GPRMC,152640.000,A,5034.3122,N,00227.3995,W,0.96,170.74,151011,,,A*76
$GPGGA,152641.000,5034.3118,N,00227.3994,W,1,12,0.7,7.38,M,48.8,M,,0000*7E
$GPGSA,M,3,16,11,03,08,22,14,18,01,19,28,06,32,1.3,0.7,1.1*3F
$GPRMC,152641.000,A,5034.3118,N,00227.3994,W,1.26,170.15,151011,,,A*72
$GPGGA,152642.000,5034.3114,N,00227.3993,W,1,12,0.7,7.31,M,48.8,M,,0000*7F
$GPGSA,M,3,16,11,03,08,22,14,18,01,19,28,06,32,1.3,0.7,1.1*3F
$GPGSV,3,1,12,19,88,224,40,03,52,138,34,22,51,077,36,11,43,266,37*79
$GPGSV,3,2,12,06,40,129,38,01,26,255,29,18,19,046,42,16,16,180,40*7C
$GPGSV,3,3,12,32,13,194,34,08,11,290,43,28,11,326,47,14,11,111,33*7C
$GPRMC,152642.000,A,5034.3114,N,00227.3993,W,1.66,187.63,151011,,,A*77
$GPGGA,152643.000,5034.3109,N,00227.3994,W,1,12,0.7,7.24,M,48.8,M,,0000*71
$GPGSA,M,3,16,11,03,08,22,14,18,01,19,28,06,32,1.3,0.7,1.1*3F
$GPRMC,152643.000,A,5034.3109,N,00227.3994,W,1.56,191.61,151011,,,A*7B
$GPGGA,152644.000,5034.3105,N,00227.3994,W,1,12,0.7,7.15,M,48.8,M,,0000*78
$GPGSA,M,3,16,11,03,08,22,14,18,01,19,28,06,32,1.3,0.7,1.1*3F
$GPRMC,152644.000,A,5034.3105,N,00227.3994,W,1.30,177.37,151011,,,A*7B
$GPGGA,152645.000,5034.3101,N,00227.3994,W,1,12,0.7,7.11,M,48.8,M,,0000*79
$GPGSA,M,3,16,11,03,08,22,14,18,01,19,28,06,32,1.3,0.7,1.1*3F
$GPRMC,152645.000,A,5034.3101,N,00227.3994,W,1.34,178.41,151011,,,A*74
$GPGGA,152646.000,5034.3098,N,00227.3995,W,1,12,0.7,7.09,M,48.8,M,,0000*73
$GPGSA,M,3,16,11,03,08,22,14,18,01,19,28,06,32,1.3,0.7,1.1*3F
$GPRMC,152646.000,A,5034.3098,N,00227.3995,W,1.30,198.65,151011,,,A*7B
$GPGGA,152647.000,5034.3094,N,00227.3996,W,1,12,0.7,7.03,M,48.8,M,,0000*77
$GPGSA,M,3,16,11,03,08,22,14,18,01,19,28,06,32,1.3,0.7,1.1*3F
$GPGSV,3,1,12,19,88,219,39,03,51,138,33,22,51,076,38,11,43,266,39*7C
$GPGSV,3,2,12,06,40,129,33,01,26,255,37,18,19,046,44,16,15,180,35*7F
$GPGSV,3,3,12,32,13,194,34,28,11,325,46,08,11,290,37,14,11,111,32*7C
$GPRMC,152647.000,A,5034.3094,N,00227.3996,W,1.01,182.82,151011,,,A*75
$GPGGA,152648.000,5034.3091,N,00227.3995,W,1,12,0.7,6.96,M,48.8,M,,0000*73
$GPGSA,M,3,16,11,03,08,22,14,18,01,19,28,06,32,1.3,0.7,1.1*3F
$GPRMC,152648.000,A,5034.3091,N,00227.3995,W,1.15,171.74,151011,,,A*7C
$GPGGA,152649.000,5034.3087,N,00227.3995,W,1,12,0.7,7.01,M,48.8,M,,0000*7A
$GPGSA,M,3,16,11,03,08,22,14,18,01,19,28,06,32,1.3,0.7,1.1*3F
$GPRMC,152649.000,A,5034.3087,N,00227.3995,W,1.25,178.54,151011,,,A*72
$GPGGA,152650.000,5034.3083,N,00227.3996,W,1,11,0.8,7.06,M,48.8,M,,0000*7E
$GPGSA,M,3,11,03,08,22,14,18,01,19,28,06,32,,1.4,0.8,1.1*30
$GPRMC,152650.000,A,5034.3083,N,00227.3996,W,1.50,204.09,151011,,,A*7F
$GPGGA,152651.000,5034.3080,N,00227.3998,W,1,11,0.8,7.30,M,48.8,M,,0000*77
$GPGSA,M,3,11,03,08,22,14,18,01,19,28,06,32,,1.4,0.8,1.1*30
$GPRMC,152651.000,A,5034.3080,N,00227.3998,W,1.10,208.46,151011,,,A*70
$GPGGA,152652.000,5034.3079,N,00227.3999,W,1,11,0.8,7.65,M,48.8,M,,0000*73
$GPGSA,M,3,11,03,08,22,14,18,01,19,28,06,32,,1.4,0.8,1.1*30
$GPGSV,3,1,12,19,88,219,40,03,51,138,38,22,51,076,43,11,43,266,38*74
$GPGSV,3,2,12,06,40,129,25,01,26,255,27,18,19,046,46,16,15,180,*7D
$GPGSV,3,3,12,32,13,194,37,28,11,325,44,08,11,290,44,14,11,111,37*7C
$GPRMC,152652.000,A,5034.3079,N,00227.3999,W,1.04,193.10,151011,,,A*73
$GPGGA,152653.000,5034.3077,N,00227.4000,W,1,12,0.7,7.91,M,48.8,M,,0000*75
$GPGSA,M,3,16,11,03,08,22,14,18,01,19,28,06,32,1.3,0.7,1.1*3F
$GPRMC,152653.000,A,5034.3077,N,00227.4000,W,1.10,189.50,151011,,,A*78
$GPGGA,152654.000,5034.3075,N,00227.4001,W,1,12,0.7,8.16,M,48.8,M,,0000*71
$GPGSA,M,3,16,11,03,08,22,14,18,01,19,28,06,32,1.3,0.7,1.1*3F
$GPRMC,152654.000,A,5034.3075,N,00227.4001,W,1.11,202.09,151011,,,A*71
$GPGGA,152655.000,5034.3072,N,00227.4002,W,1,12,0.7,8.26,M,48.8,M,,0000*77
$GPGSA,M,3,16,11,03,08,22,14,18,01,19,28,06,32,1.3,0.7,1.1*3F
$GPRMC,152655.000,A,5034.3072,N,00227.4002,W,0.88,205.37,151011,,,A*7F
$GPGGA,152656.000,5034.3071,N,00227.4003,W,1,12,0.7,8.36,M,48.8,M,,0000*77
$GPGSA,M,3,16,11,03,08,22,14,18,01,19,28,06,32,1.3,0.7,1.1*3F
$GPRMC,152656.000,A,5034.3071,N,00227.4003,W,0.74,180.15,151011,,,A*73
$GPGGA,152657.000,5034.3068,N,00227.4003,W,1,12,0.7,8.25,M,48.8,M,,0000*7C
$GPGSA,M,3,16,11,03,08,22,14,18,01,19,28,06,32,1.3,0.7,1.1*3F
$GPGSV,3,1,12,19,88,219,40,03,51,138,35,22,51,076,38,11,43,266,37*7A
$GPGSV,3,2,12,06,40,129,34,01,26,255,36,18,19,046,46,16,15,180,38*76
$GPGSV,3,3,12,32,13,194,35,28,11,325,46,08,11,290,34,14,11,111,33*7F
$GPRMC,152657.000,A,5034.3068,N,00227.4003,W,1.23,168.50,151011,,,A*7E
$GPGGA,152658.000,5034.3064,N,00227.4003,W,1,12,0.7,8.24,M,48.8,M,,0000*7E
$GPGSA,M,3,16,11,03,08,22,14,18,01,19,28,06,32,1.3,0.7,1.1*3F
$GPRMC,152658.000,A,5034.3064,N,00227.4003,W,1.48,198.65,151011,,,A*79
$GPGGA,152659.000,5034.3061,N,00227.4005,W,1,12,0.7,8.32,M,48.8,M,,0000*7B
$GPGSA,M,3,16,11,03,08,22,14,18,01,19,28,06,32,1.3,0.7,1.1*3F
$GPRMC,152659.000,A,5034.3061,N,00227.4005,W,0.85,202.69,151011,,,A*77
$GPGGA,152700.000,5034.3060,N,00227.4006,W,1,12,0.7,8.34,M,48.8,M,,0000*72
$GPGSA,M,3,16,11,03,08,22,14,18,01,19,28,06,32,1.3,0.7,1.1*3F
$GPRMC,152700.000,A,5034.3060,N,00227.4006,W,0.39,171.64,151011,,,A*75
$GPGGA,152701.000,5034.3058,N,00227.4006,W,1,12,0.7,8.19,M,48.8,M,,0000*77
$GPGSA,M,3,16,11,03,08,22,14,18,01,19,28,06,32,1.3,0.7,1.1*3F
$GPRMC,152701.000,A,5034.3058,N,00227.4006,W,0.76,169.30,151011,,,A*7C
$GPGGA,152702.000,5034.3055,N,00227.4006,W,1,12,0.7,8.21,M,48.8,M,,0000*72
$GPGSA,M,3,16,11,03,08,22,14,18,01,19,28,06,32,1.3,0.7,1.1*3F
$GPGSV,3,1,12,19,88,219,40,03,51,138,35,22,51,076,39,11,43,266,39*75
$GPGSV,3,2,12,06,40,129,35,01,26,255,37,18,19,046,47,16,15,180,37*78
$GPGSV,3,3,12,32,13,194,29,28,11,325,39,08,11,290,33,14,11,111,40*79
$GPRMC,152702.000,A,5034.3055,N,00227.4006,W,0.86,190.53,151011,,,A*7E
$GPGGA,152703.000,5034.3053,N,00227.4007,W,1,12,0.7,8.18,M,48.8,M,,0000*7E
$GPGSA,M,3,16,11,03,08,22,14,18,01,19,28,06,32,1.3,0.7,1.1*3F
$GPRMC,152703.000,A,5034.3053,N,00227.4007,W,1.04,204.64,151011,,,A*79
$GPGGA,152704.000,5034.3050,N,00227.4008,W,1,12,0.7,8.08,M,48.8,M,,0000*74
$GPGSA,M,3,16,11,03,08,22,14,18,01,19,28,06,32,1.3,0.7,1.1*3F
$GPRMC,152704.000,A,5034.3050,N,00227.4008,W,0.73,191.71,151011,,,A*78
$GPGGA,152705.000,5034.3047,N,00227.4009,W,1,12,0.7,7.95,M,48.8,M,,0000*79
$GPGSA,M,3,16,11,03,08,22,14,18,01,19,28,06,32,1.3,0.7,1.1*3F
$GPRMC,152705.000,A,5034.3047,N,00227.4009,W,0.71,180.96,151011,,,A*75
$GPGGA,152706.000,5034.3045,N,00227.4010,W,1,12,0.7,7.92,M,48.8,M,,0000*77
$GPGSA,M,3,16,11,03,08,22,14,18,01,19,28,06,32,1.3,0.7,1.1*3F
$GPRMC,152706.000,A,5034.3045,N,00227.4010,W,1.03,204.99,151011,,,A*78
$GPGGA,152707.000,5034.3043,N,00227.4011,W,1,12,0.7,7.78,M,48.8,M,,0000*75
$GPGSA,M,3,16,11,03,08,22,14,18,01,19,28,06,32,1.3,0.7,1.1*3F
$GPGSV,3,1,12,19,88,219,40,03,51,138,33,22,51,076,28,11,43,266,38*72
$GPGSV,3,2,12,06,40,129,32,01,26,255,37,18,19,046,47,16,15,180,38*70
$GPGSV,3,3,12,32,13,194,32,28,11,325,46,08,11,290,43,14,11,111,31*7A
$GPRMC,152707.000,A,5034.3043,N,00227.4011,W,0.54,222.99,151011,,,A*79
$GPGGA,152708.000,5034.3042,N,00227.4013,W,1,12,0.7,7.66,M,48.8,M,,0000*76
$GPGSA,M,3,16,11,03,08,22,14,18,01,19,28,06,32,1.3,0.7,1.1*3F
$GPRMC,152708.000,A,5034.3042,N,00227.4013,W,0.27,248.51,151011,,,A*79
$GPGGA,152709.000,5034.3041,N,00227.4014,W,1,11,0.8,7.48,M,48.8,M,,0000*73
$GPGSA,M,3,16,11,03,08,22,18,01,19,28,06,32,,1.5,0.8,1.2*30
$GPRMC,152709.000,A,5034.3041,N,00227.4014,W,0.43,202.03,151011,,,A*77
$GPGGA,152710.000,5034.3039,N,00227.4016,W,1,12,0.7,7.43,M,48.8,M,,0000*71
$GPGSA,M,3,16,11,03,08,22,14,18,01,19,28,06,32,1.3,0.7,1.1*3F
$GPRMC,152710.000,A,5034.3039,N,00227.4016,W,0.62,209.20,151011,,,A*7B
$GPGGA,152711.000,5034.3038,N,00227.4017,W,1,12,0.7,7.48,M,48.8,M,,0000*7B
$GPGSA,M,3,16,11,03,08,22,14,18,01,19,28,06,32,1.3,0.7,1.1*3F
$GPRMC,152711.000,A,5034.3038,N,00227.4017,W,0.61,204.51,151011,,,A*72
$GPGGA,152712.000,5034.3037,N,00227.4019,W,1,12,0.7,7.52,M,48.8,M,,0000*72
$GPGSA,M,3,16,11,03,08,22,14,18,01,19,28,06,32,1.3,0.7,1.1*3F
$GPGSV,3,1,12,19,88,210,39,03,51,138,34,22,51,076,36,11,43,266,40*72
$GPGSV,3,2,12,06,40,129,36,01,26,256,36,18,19,046,41,16,15,180,38*70
$GPGSV,3,3,12,32,13,194,36,28,11,325,48,08,11,290,44,14,11,111,31*77
$GPRMC,152712.000,A,5034.3037,N,00227.4019,W,0.42,206.78,151011,,,A*78
$GPGGA,152713.000,5034.3036,N,00227.4020,W,1,12,0.7,7.50,M,48.8,M,,0000*7A
$GPGSA,M,3,16,11,03,08,22,14,18,01,19,28,06,32,1.3,0.7,1.1*3F
$GPRMC,152713.000,A,5034.3036,N,00227.4020,W,0.41,232.00,151011,,,A*79
$GPGGA,152714.000,5034.3035,N,00227.4021,W,1,12,0.7,7.48,M,48.8,M,,0000*76
$GPGSA,M,3,16,11,03,08,22,14,18,01,19,28,06,32,1.3,0.7,1.1*3F
$GPRMC,152714.000,A,5034.3035,N,00227.4021,W,0.13,188.40,151011,,,A*7D
$GPGGA,152715.000,5034.3034,N,00227.4021,W,1,11,0.8,7.31,M,48.8,M,,0000*74
$GPGSA,M,3,16,11,03,08,22,18,01,19,28,06,32,,1.5,0.8,1.2*30
$GPRMC,152715.000,A,5034.3034,N,00227.4021,W,0.62,169.55,151011,,,A*70
$GPGGA,152716.000,5034.3032,N,00227.4022,W,1,12,0.7,7.27,M,48.8,M,,0000*79
$GPGSA,M,3,16,11,03,08,22,14,18,01,19,28,06,32,1.3,0.7,1.1*3F
$GPRMC,152716.000,A,5034.3032,N,00227.4022,W,0.88,191.60,151011,,,A*73
$GPGGA,152717.000,5034.3030,N,00227.4022,W,1,12,0.7,7.10,M,48.8,M,,0000*7E
$GPGSA,M,3,16,11,03,08,22,14,18,01,19,28,06,32,1.3,0.7,1.1*3F
$GPGSV,3,1,12,19,88,208,39,03,51,138,34,22,51,076,36,11,43,266,41*7A
$GPGSV,3,2,12,06,40,129,35,01,26,256,37,18,19,046,40,16,15,180,38*73
$GPGSV,3,3,12,32,13,194,30,28,11,325,48,14,11,111,33,08,11,290,45*72
$GPRMC,152717.000,A,5034.3030,N,00227.4022,W,0.50,172.22,151011,,,A*7E
$GPGGA,152718.000,5034.3028,N,00227.4022,W,1,12,0.7,6.90,M,48.8,M,,0000*71
$GPGSA,M,3,16,11,03,08,22,14,18,01,19,28,06,32,1.3,0.7,1.1*3F
$GPRMC,152718.000,A,5034.3028,N,00227.4022,W,0.45,158.64,151011,,,A*76
$GPGGA,152719.000,5034.3027,N,00227.4021,W,1,12,0.7,6.75,M,48.8,M,,0000*77
$GPGSA,M,3,16,11,03,08,22,14,18,01,19,28,06,32,1.3,0.7,1.1*3F
$GPRMC,152719.000,A,5034.3027,N,00227.4021,W,0.40,157.58,151011,,,A*7E
$GPGGA,152720.000,5034.3026,N,00227.4021,W,1,12,0.7,6.75,M,48.8,M,,0000*7C
$GPGSA,M,3,16,11,03,08,22,14,18,01,19,28,06,32,1.3,0.7,1.1*3F
$GPRMC,152720.000,A,5034.3026,N,00227.4021,W,0.77,159.34,151011,,,A*75
$GPGGA,152721.000,5034.3024,N,00227.4020,W,1,12,0.7,6.78,M,48.8,M,,0000*73
$GPGSA,M,3,16,11,03,08,22,14,18,01,19,28,06,32,1.3,0.7,1.1*3F
$GPRMC,152721.000,A,5034.3024,N,00227.4020,W,0.73,170.56,151011,,,A*7C
$GPGGA,152722.000,5034.3023,N,00227.4020,W,1,12,0.7,6.87,M,48.8,M,,0000*77
$GPGSA,M,3,16,11,03,08,22,14,18,01,19,28,06,32,1.3,0.7,1.1*3F
$GPGSV,3,1,12,19,88,208,39,03,51,138,39,22,51,076,35,11,43,266,35*77
$GPGSV,3,2,12,06,40,129,38,01,26,256,41,18,19,046,31,16,15,180,28*78
$GPGSV,3,3,12,32,13,194,36,28,11,325,49,14,11,111,27,08,11,290,46*73
$GPRMC,152722.000,A,5034.3023,N,00227.4020,W,0.64,164.95,151011,,,A*74
$GPGGA,152723.000,5034.3022,N,00227.4020,W,1,12,0.7,6.88,M,48.8,M,,0000*78
$GPGSA,M,3,16,11,03,08,22,14,18,01,19,28,06,32,1.3,0.7,1.1*3F
$GPRMC,152723.000,A,5034.3022,N,00227.4020,W,0.29,108.76,151011,,,A*7A
$GPGGA,152724.000,5034.3021,N,00227.4019,W,1,12,0.7,6.85,M,48.8,M,,0000*7B
$GPGSA,M,3,16,11,03,08,22,14,18,01,19,28,06,32,1.3,0.7,1.1*3F
$GPRMC,152724.000,A,5034.3021,N,00227.4019,W,0.63,148.96,151011,,,A*70
$GPGGA,152725.000,5034.3020,N,00227.4019,W,1,12,0.7,6.83,M,48.8,M,,0000*7D
$GPGSA,M,3,16,11,03,08,22,14,18,01,19,28,06,32,1.3,0.7,1.1*3F
$GPRMC,152725.000,A,5034.3020,N,00227.4019,W,0.45,169.38,151011,,,A*73
$GPGGA,152726.000,5034.3020,N,00227.4019,W,1,12,0.7,6.80,M,48.8,M,,0000*7D
$GPGSA,M,3,16,11,03,08,22,14,18,01,19,28,06,32,1.3,0.7,1.1*3F
$GPRMC,152726.000,A,5034.3020,N,00227.4019,W,0.29,353.09,151011,,,A*73
$GPGGA,152727.000,5034.3021,N,00227.4019,W,1,12,0.7,6.65,M,48.8,M,,0000*76
$GPGSA,M,3,16,11,03,08,22,14,18,01,19,28,06,32,1.3,0.7,1.1*3F
$GPGSV,3,1,12,19,88,208,39,03,51,138,32,22,51,076,36,11,43,266,44*79
$GPGSV,3,2,12,06,40,129,36,01,26,256,38,18,19,046,39,16,15,180,33*7A
$GPGSV,3,3,12,32,13,194,26,28,11,325,48,14,11,111,29,08,11,290,46*7D
$GPRMC,152727.000,A,5034.3021,N,00227.4019,W,0.75,22.81,151011,,,A*4F
$GPGGA,152728.000,5034.3023,N,00227.4018,W,1,12,0.7,6.77,M,48.8,M,,0000*79
$GPGSA,M,3,16,11,03,08,22,14,18,01,19,28,06,32,1.3,0.7,1.1*3F
$GPRMC,152728.000,A,5034.3023,N,00227.4018,W,0.10,31.95,151011,,,A*47
$GPGGA,152729.000,5034.3023,N,00227.4018,W,1,12,0.7,6.36,M,48.8,M,,0000*7D
$GPGSA,M,3,16,11,03,08,22,14,18,01,19,28,06,32,1.3,0.7,1.1*3F
$GPRMC,152729.000,A,5034.3023,N,00227.4018,W,0.10,16.69,151011,,,A*40
$GPGGA,152730.000,5034.3023,N,00227.4018,W,1,12,0.7,6.27,M,48.8,M,,0000*75
$GPGSA,M,3,16,11,03,08,22,14,18,01,19,28,06,32,1.3,0.7,1.1*3F
$GPRMC,152730.000,A,5034.3023,N,00227.4018,W,0.09,1.25,151011,,,A*7E
$GPGGA,152731.000,5034.3024,N,00227.4018,W,1,12,0.7,6.48,M,48.8,M,,0000*7A
$GPGSA,M,3,16,11,03,08,22,14,18,01,19,28,06,32,1.3,0.7,1.1*3F
$GPRMC,152731.000,A,5034.3024,N,00227.4018,W,0.38,93.30,151011,,,A*45
$GPGGA,152732.000,5034.3024,N,00227.4017,W,1,12,0.7,6.46,M,48.8,M,,0000*78
$GPGSA,M,3,16,11,03,08,22,14,18,01,19,28,06,32,1.3,0.7,1.1*3F
$GPGSV,3,1,12,19,88,208,43,03,51,138,37,22,51,076,35,11,43,266,46*70
$GPGSV,3,2,12,06,40,129,37,01,26,256,40,18,19,046,41,16,15,180,33*7B
$GPGSV,3,3,12,32,13,194,37,28,11,325,46,14,11,111,33,08,11,290,42*7C
$GPRMC,152732.000,A,5034.3024,N,00227.4017,W,0.26,137.85,151011,,,A*77
$GPGGA,152733.000,5034.3024,N,00227.4017,W,1,12,0.7,6.58,M,48.8,M,,0000*76
$GPGSA,M,3,16,11,03,08,22,14,18,01,19,28,06,32,1.3,0.7,1.1*3F
$GPRMC,152733.000,A,5034.3024,N,00227.4017,W,0.15,350.93,151011,,,A*72
$GPGGA,152734.000,5034.3024,N,00227.4017,W,1,12,0.7,6.62,M,48.8,M,,0000*78
$GPGSA,M,3,16,11,03,08,22,14,18,01,19,28,06,32,1.3,0.7,1.1*3F
$GPRMC,152734.000,A,5034.3024,N,00227.4017,W,0.08,99.32,151011,,,A*44
$GPGGA,152735.000,5034.3025,N,00227.4017,W,1,12,0.7,6.66,M,48.8,M,,0000*7C
$GPGSA,M,3,16,11,03,08,22,14,18,01,19,28,06,32,1.3,0.7,1.1*3F
$GPRMC,152735.000,A,5034.3025,N,00227.4017,W,0.09,347.54,151011,,,A*75
$GPGGA,152736.000,5034.3025,N,00227.4018,W,1,12,0.7,6.71,M,48.8,M,,0000*76
$GPGSA,M,3,16,11,03,08,22,14,18,01,19,28,06,32,1.3,0.7,1.1*3F
$GPRMC,152736.000,A,5034.3025,N,00227.4018,W,0.24,64.39,151011,,,A*4F
$GPGGA,152737.000,5034.3025,N,00227.4018,W,1,12,0.7,6.64,M,48.8,M,,0000*73
$GPGSA,M,3,16,11,03,08,22,14,18,01,19,28,06,32,1.3,0.7,1.1*3F
$GPGSV,3,1,12,19,88,208,41,03,51,138,33,22,51,076,38,11,43,266,45*78
$GPGSV,3,2,12,06,40,129,32,01,26,256,43,18,19,046,42,16,15,180,25*79
$GPGSV,3,3,12,32,13,194,31,28,11,325,44,14,11,111,26,08,11,290,44*7A
$GPRMC,152737.000,A,5034.3025,N,00227.4018,W,0.08,45.15,151011,,,A*4D
$GPGGA,152738.000,5034.3024,N,00227.4018,W,1,12,0.7,6.50,M,48.8,M,,0000*7A
$GPGSA,M,3,16,11,03,08,22,14,18,01,19,28,06,32,1.3,0.7,1.1*3F
$GPRMC,152738.000,A,5034.3024,N,00227.4018,W,0.45,164.08,151011,,,A*74
$GPGGA,152739.000,5034.3023,N,00227.4018,W,1,12,0.7,6.44,M,48.8,M,,0000*79
$GPGSA,M,3,16,11,03,08,22,14,18,01,19,28,06,32,1.3,0.7,1.1*3F
$GPRMC,152739.000,A,5034.3023,N,00227.4018,W,0.02,224.67,151011,,,A*7F
$GPGGA,152740.000,5034.3022,N,00227.4018,W,1,12,0.7,6.15,M,48.8,M,,0000*72
$GPGSA,M,3,16,11,03,08,22,14,18,01,19,28,06,32,1.3,0.7,1.1*3F
$GPRMC,152740.000,A,5034.3022,N,00227.4018,W,0.37,211.32,151011,,,A*70
$GPGGA,152741.000,5034.3021,N,00227.4019,W,1,12,0.7,6.11,M,48.8,M,,0000*75
$GPGSA,M,3,16,11,03,08,22,14,18,01,19,28,06,32,1.3,0.7,1.1*3F
$GPRMC,152741.000,A,5034.3021,N,00227.4019,W,0.48,174.84,151011,,,A*76
$GPGGA,152742.000,5034.3021,N,00227.4019,W,1,12,0.7,6.24,M,48.8,M,,0000*70
$GPGSA,M,3,16,11,03,08,22,14,18,01,19,28,06,32,1.3,0.7,1.1*3F
$GPGSV,3,1,12,19,88,208,42,03,51,138,42,22,51,076,40,11,43,266,46*71
$GPGSV,3,2,12,06,40,129,39,01,26,256,43,18,19,046,37,16,15,180,36*72
$GPGSV,3,3,12,32,13,194,35,28,11,325,45,14,11,111,32,08,11,290,46*78
$GPRMC,152742.000,A,5034.3021,N,00227.4019,W,0.47,36.04,151011,,,A*45
$GPGGA,152743.000,5034.3021,N,00227.4018,W,1,12,0.7,6.22,M,48.8,M,,0000*76
$GPGSA,M,3,16,11,03,08,22,14,18,01,19,28,06,32,1.3,0.7,1.1*3F
$GPRMC,152743.000,A,5034.3021,N,00227.4018,W,0.17,118.93,151011,,,A*73
$GPGGA,152744.000,5034.3021,N,00227.4018,W,1,12,0.7,6.29,M,48.8,M,,0000*7A
$GPGSA,M,3,16,11,03,08,22,14,18,01,19,28,06,32,1.3,0.7,1.1*3F
$GPRMC,152744.000,A,5034.3021,N,00227.4018,W,0.08,102.64,151011,,,A*79
$GPGGA,152745.000,5034.3022,N,00227.4018,W,1,12,0.7,6.39,M,48.8,M,,0000*79
$GPGSA,M,3,16,11,03,08,22,14,18,01,19,28,06,32,1.3,0.7,1.1*3F
$GPRMC,152745.000,A,5034.3022,N,00227.4018,W,0.10,86.84,151011,,,A*41
$GPGGA,152746.000,5034.3022,N,00227.4018,W,1,11,0.8,6.47,M,48.8,M,,0000*7F
$GPGSA,M,3,16,11,03,08,22,14,01,19,28,06,32,,1.4,0.8,1.1*3E
$GPRMC,152746.000,A,5034.3022,N,00227.4018,W,0.10,87.37,151011,,,A*4B
$GPGGA,152747.000,5034.3022,N,00227.4018,W,1,12,0.7,6.56,M,48.8,M,,0000*72
$GPGSA,M,3,16,11,03,08,22,14,18,01,19,28,06,32,1.3,0.7,1.1*3F
$GPGSV,3,1,12,19,88,198,41,03,51,138,26,22,51,076,28,11,43,266,46*74
$GPGSV,3,2,12,06,40,129,29,01,26,256,44,18,19,045,10,16,15,180,35*71
$GPGSV,3,3,12,32,13,194,36,28,11,325,45,14,11,111,26,08,11,290,46*7E
$GPRMC,152747.000,A,5034.3022,N,00227.4018,W,0.07,50.62,151011,,,A*46
$GPGGA,152748.000,5034.3023,N,00227.4018,W,1,12,0.7,6.67,M,48.8,M,,0000*7E
$GPGSA,M,3,16,11,03,08,22,14,18,01,19,28,06,32,1.3,0.7,1.1*3F
$GPRMC,152748.000,A,5034.3023,N,00227.4018,W,0.10,1.67,151011,,,A*7F
$GPGGA,152749.000,5034.3023,N,00227.4018,W,1,12,0.7,6.59,M,48.8,M,,0000*72
$GPGSA,M,3,16,11,03,08,22,14,18,01,19,28,06,32,1.3,0.7,1.1*3F
$GPRMC,152749.000,A,5034.3023,N,00227.4018,W,0.30,243.08,151011,,,A*71
$GPGGA,152750.000,5034.3021,N,00227.4020,W,1,12,0.7,6.73,M,48.8,M,,0000*7B
$GPGSA,M,3,16,11,03,08,22,14,18,01,19,28,06,32,1.3,0.7,1.1*3F
$GPRMC,152750.000,A,5034.3021,N,00227.4020,W,0.72,197.20,151011,,,A*76
$GPGGA,152751.000,5034.3021,N,00227.4019,W,1,12,0.7,7.04,M,48.8,M,,0000*71
$GPGSA,M,3,16,11,03,08,22,14,18,01,19,28,06,32,1.3,0.7,1.1*3F
$GPRMC,152751.000,A,5034.3021,N,00227.4019,W,0.69,62.58,151011,,,A*43
$GPGGA,152752.000,5034.3021,N,00227.4017,W,1,12,0.7,7.03,M,48.8,M,,0000*7B
$GPGSA,M,3,16,11,03,08,22,14,18,01,19,28,06,32,1.3,0.7,1.1*3F
$GPGSV,3,1,12,19,88,198,43,03,51,138,18,22,51,076,38,11,43,266,46*7A
$GPGSV,3,2,12,06,40,129,25,01,26,256,44,18,19,045,25,16,15,180,39*77
$GPGSV,3,3,12,32,13,194,39,28,11,325,45,14,11,111,32,08,11,290,47*75
$GPRMC,152752.000,A,5034.3021,N,00227.4017,W,0.17,96.91,151011,,,A*49
$GPGGA,152753.000,5034.3021,N,00227.4017,W,1,12,0.7,7.10,M,48.8,M,,0000*78
$GPGSA,M,3,16,11,03,08,22,14,18,01,19,28,06,32,1.3,0.7,1.1*3F
$GPRMC,152753.000,A,5034.3021,N,00227.4017,W,0.07,117.93,151011,,,A*73
$GPGGA,152754.000,5034.3021,N,00227.4017,W,1,12,0.7,7.26,M,48.8,M,,0000*7A
$GPGSA,M,3,16,11,03,08,22,14,18,01,19,28,06,32,1.3,0.7,1.1*3F
$GPRMC,152754.000,A,5034.3021,N,00227.4017,W,0.09,125.60,151011,,,A*77
$GPGGA,152755.000,5034.3021,N,00227.4017,W,1,12,0.7,7.42,M,48.8,M,,0000*79
$GPGSA,M,3,16,11,03,08,22,14,18,01,19,28,06,32,1.3,0.7,1.1*3F
$GPRMC,152755.000,A,5034.3021,N,00227.4017,W,0.11,146.10,151011,,,A*7D
$GPGGA,152756.000,5034.3021,N,00227.4017,W,1,12,0.7,7.47,M,48.8,M,,0000*7F
$GPGSA,M,3,16,11,03,08,22,14,18,01,19,28,06,32,1.3,0.7,1.1*3F
$GPRMC,152756.000,A,5034.3021,N,00227.4017,W,0.08,155.87,151011,,,A*7A
$GPGGA,152757.000,5034.3021,N,00227.4018,W,1,12,0.7,7.49,M,48.8,M,,0000*7F
$GPGSA,M,3,16,11,03,08,22,14,18,01,19,28,06,32,1.3,0.7,1.1*3F
$GPGSV,3,1,12,19,88,198,41,03,51,138,32,22,51,076,36,11,43,266,46*7E
$GPGSV,3,2,12,06,40,129,34,01,26,256,44,18,19,045,22,16,15,180,36*7F
$GPGSV,3,3,12,32,13,194,40,28,11,325,45,14,11,111,33,08,11,290,47*7A
$GPRMC,152757.000,A,5034.3021,N,00227.4018,W,0.05,129.25,151011,,,A*7A
$GPGGA,152758.000,5034.3020,N,00227.4018,W,1,12,0.7,7.57,M,48.8,M,,0000*7E
$GPGSA,M,3,16,11,03,08,22,14,18,01,19,28,06,32,1.3,0.7,1.1*3F
$GPRMC,152758.000,A,5034.3020,N,00227.4018,W,0.04,214.20,151011,,,A*7D
$GPGGA,152759.000,5034.3020,N,00227.4018,W,1,12,0.7,7.75,M,48.8,M,,0000*7F
$GPGSA,M,3,16,11,03,08,22,14,18,01,19,28,06,32,1.3,0.7,1.1*3F
$GPRMC,152759.000,A,5034.3020,N,00227.4018,W,0.10,18.09,151011,,,A*4C
$GPGGA,152800.000,5034.3020,N,00227.4018,W,1,12,0.7,7.66,M,48.8,M,,0000*7E
$GPGSA,M,3,16,11,03,08,22,14,18,01,19,28,06,32,1.3,0.7,1.1*3F
$GPRMC,152800.000,A,5034.3020,N,00227.4018,W,0.20,155.09,151011,,,A*74
$GPGGA,152801.000,5034.3020,N,00227.4018,W,1,12,0.7,7.67,M,48.8,M,,0000*7E
$GPGSA,M,3,16,11,03,08,22,14,18,01,19,28,06,32,1.3,0.7,1.1*3F
$GPRMC,152801.000,A,5034.3020,N,00227.4018,W,0.11,67.76,151011,,,A*4F
$GPGGA,152802.000,5034.3020,N,00227.4018,W,1,12,0.7,7.70,M,48.8,M,,0000*7B
$GPGSA,M,3,16,11,03,08,22,14,18,01,19,28,06,32,1.3,0.7,1.1*3F
$GPGSV,3,1,12,19,88,198,41,03,51,138,25,22,51,076,37,11,43,266,46*79
$GPGSV,3,2,12,06,40,129,28,01,26,256,44,18,19,045,23,16,15,180,36*73
$GPGSV,3,3,12,32,13,194,40,28,11,325,45,14,11,111,33,08,11,290,47*7A
$GPRMC,152802.000,A,5034.3020,N,00227.4018,W,0.03,118.94,151011,,,A*7A
$GPGGA,152803.000,5034.3020,N,00227.4018,W,1,12,0.7,7.73,M,48.8,M,,0000*79
$GPGSA,M,3,16,11,03,08,22,14,18,01,19,28,06,32,1.3,0.7,1.1*3F
$GPRMC,152803.000,A,5034.3020,N,00227.4018,W,0.05,186.04,151011,,,A*73
$GPGGA,152804.000,5034.3019,N,00227.4019,W,1,12,0.7,7.75,M,48.8,M,,0000*73
$GPGSA,M,3,16,11,03,08,22,14,18,01,19,28,06,32,1.3,0.7,1.1*3F
$GPRMC,152804.000,A,5034.3019,N,00227.4019,W,0.04,237.19,151011,,,A*7B
$GPGGA,152805.000,5034.3019,N,00227.4019,W,1,12,0.7,7.78,M,48.8,M,,0000*7F
$GPGSA,M,3,16,11,03,08,22,14,18,01,19,28,06,32,1.3,0.7,1.1*3F
$GPRMC,152805.000,A,5034.3019,N,00227.4019,W,0.03,300.98,151011,,,A*71
$GPGGA,152806.000,5034.3019,N,00227.4020,W,1,12,0.7,7.80,M,48.8,M,,0000*71
$GPGSA,M,3,16,11,03,08,22,14,18,01,19,28,06,32,1.3,0.7,1.1*3F
$GPRMC,152806.000,A,5034.3019,N,00227.4020,W,0.03,204.33,151011,,,A*7C
$GPGGA,152807.000,5034.3019,N,00227.4020,W,1,12,0.7,7.90,M,48.8,M,,0000*71
$GPGSA,M,3,16,11,03,08,22,14,18,01,19,28,06,32,1.3,0.7,1.1*3F
$GPGSV,3,1,12,19,88,198,40,03,51,138,27,22,51,076,37,11,43,266,45*79
$GPGSV,3,2,12,06,40,129,29,01,26,256,45,18,19,045,27,16,15,180,35*74
$GPGSV,3,3,12,32,13,194,39,28,11,325,45,14,11,111,32,08,11,290,47*75
$GPRMC,152807.000,A,5034.3019,N,00227.4020,W,0.04,217.69,151011,,,A*77
$GPGGA,152808.000,5034.3019,N,00227.4021,W,1,12,0.7,7.98,M,48.8,M,,0000*77
$GPGSA,M,3,16,11,03,08,22,14,18,01,19,28,06,32,1.3,0.7,1.1*3F
$GPRMC,152808.000,A,5034.3019,N,00227.4021,W,0.02,308.31,151011,,,A*7D
$GPGGA,152809.000,5034.3020,N,00227.4022,W,1,12,0.7,8.06,M,48.8,M,,0000*77
$GPGSA,M,3,16,11,03,08,22,14,18,01,19,28,06,32,1.3,0.7,1.1*3F
$GPRMC,152809.000,A,5034.3020,N,00227.4022,W,0.04,333.79,151011,,,A*77
$GPGGA,152810.000,5034.3020,N,00227.4022,W,1,12,0.7,8.14,M,48.8,M,,0000*7C
$GPGSA,M,3,16,11,03,08,22,14,18,01,19,28,06,32,1.3,0.7,1.1*3F
$GPRMC,152810.000,A,5034.3020,N,00227.4022,W,0.02,218.61,151011,,,A*78
$GPGGA,152811.000,5034.3020,N,00227.4023,W,1,12,0.7,8.23,M,48.8,M,,0000*78
$GPGSA,M,3,16,11,03,08,22,14,18,01,19,28,06,32,1.3,0.7,1.1*3F
$GPRMC,152811.000,A,5034.3020,N,00227.4023,W,0.06,216.07,151011,,,A*72
$GPGGA,152812.000,5034.3020,N,00227.4023,W,1,12,0.7,8.31,M,48.8,M,,0000*78
$GPGSA,M,3,16,11,03,08,22,14,18,01,19,28,06,32,1.3,0.7,1.1*3F
$GPGSV,3,1,12,19,88,198,40,03,51,138,32,22,51,076,36,11,43,266,45*7C
$GPGSV,3,2,12,06,40,129,20,01,26,256,45,18,19,045,30,16,15,180,34*7A
$GPGSV,3,3,12,32,13,194,38,28,11,325,45,14,11,111,24,08,11,290,47*73
$GPRMC,152812.000,A,5034.3020,N,00227.4023,W,0.06,231.80,151011,,,A*7B
$GPGGA,152813.000,5034.3021,N,00227.4024,W,1,12,0.7,8.41,M,48.8,M,,0000*78
$GPGSA,M,3,16,11,03,08,22,14,18,01,19,28,06,32,1.3,0.7,1.1*3F
$GPRMC,152813.000,A,5034.3021,N,00227.4024,W,0.26,326.75,151011,,,A*73
$GPGGA,152814.000,5034.3020,N,00227.4025,W,1,12,0.7,8.44,M,48.8,M,,0000*7A
$GPGSA,M,3,16,11,03,08,22,14,18,01,19,28,06,32,1.3,0.7,1.1*3F
$GPRMC,152814.000,A,5034.3020,N,00227.4025,W,0.18,188.44,151011,,,A*7D
$GPGGA,152815.000,5034.3020,N,00227.4025,W,1,12,0.7,8.51,M,48.8,M,,0000*7F
$GPGSA,M,3,16,11,03,08,22,14,18,01,19,28,06,32,1.3,0.7,1.1*3F
$GPRMC,152815.000,A,5034.3020,N,00227.4025,W,0.22,69.21,151011,,,A*48
$GPGGA,152816.000,5034.3020,N,00227.4025,W,1,12,0.7,8.50,M,48.8,M,,0000*7D
$GPGSA,M,3,16,11,03,08,22,14,18,01,19,28,06,32,1.3,0.7,1.1*3F
$GPRMC,152816.000,A,5034.3020,N,00227.4025,W,0.17,206.86,151011,,,A*7B
$GPGGA,152817.000,5034.3019,N,00227.4024,W,1,12,0.7,8.11,M,48.8,M,,0000*72
$GPGSA,M,3,16,11,03,08,22,14,18,01,19,28,06,32,1.3,0.7,1.1*3F
$GPGSV,3,1,12,19,88,189,45,03,51,138,41,22,51,075,41,11,43,266,46*7D
$GPGSV,3,2,12,06,40,129,37,01,26,256,44,18,19,045,39,16,15,180,39*79
$GPGSV,3,3,12,32,14,194,38,28,12,325,45,14,11,111,31,08,11,290,46*72
$GPRMC,152817.000,A,5034.3019,N,00227.4024,W,0.15,206.51,151011,,,A*79
$GPGGA,152818.000,5034.3017,N,00227.4024,W,1,12,0.7,8.04,M,48.8,M,,0000*77
$GPGSA,M,3,16,11,03,08,22,14,18,01,19,28,06,32,1.3,0.7,1.1*3F
$GPRMC,152818.000,A,5034.3017,N,00227.4024,W,0.96,149.11,151011,,,A*7F
$GPGGA,152819.000,5034.3016,N,00227.4022,W,1,12,0.7,8.06,M,48.8,M,,0000*73
$GPGSA,M,3,16,11,03,08,22,14,18,01,19,28,06,32,1.3,0.7,1.1*3F
$GPRMC,152819.000,A,5034.3016,N,00227.4022,W,0.48,126.27,151011,,,A*76
$GPGGA,152820.000,5034.3015,N,00227.4020,W,1,12,0.7,7.91,M,48.8,M,,0000*79
$GPGSA,M,3,16,11,03,08,22,14,18,01,19,28,06,32,1.3,0.7,1.1*3F
$GPRMC,152820.000,A,5034.3015,N,00227.4020,W,0.48,152.56,151011,,,A*78
$GPGGA,152821.000,5034.3014,N,00227.4020,W,1,12,0.7,7.88,M,48.8,M,,0000*71
$GPGSA,M,3,16,11,03,08,22,14,18,01,19,28,06,32,1.3,0.7,1.1*3F
$GPRMC,152821.000,A,5034.3014,N,00227.4020,W,0.12,91.67,151011,,,A*4B
$GPGGA,152822.000,5034.3015,N,00227.4020,W,1,12,0.7,7.96,M,48.8,M,,0000*7C
$GPGSA,M,3,16,11,03,08,22,14,18,01,19,28,06,32,1.3,0.7,1.1*3F
$GPGSV,3,1,12,19,88,189,39,03,51,138,32,22,51,075,34,11,43,266,43*75
$GPGSV,3,2,12,06,40,129,31,01,26,256,44,18,19,045,28,16,15,180,36*70
$GPGSV,3,3,12,32,14,194,38,28,12,325,45,14,11,111,31,08,11,290,46*72
$GPRMC,152822.000,A,5034.3015,N,00227.4020,W,0.31,40.96,151011,,,A*4A
$GPGGA,152823.000,5034.3015,N,00227.4019,W,1,12,0.7,8.13,M,48.8,M,,0000*75
$GPGSA,M,3,16,11,03,08,22,14,18,01,19,28,06,32,1.3,0.7,1.1*3F
$GPRMC,152823.000,A,5034.3015,N,00227.4019,W,0.11,123.62,151011,,,A*7C
$GPGGA,152824.000,5034.3015,N,00227.4020,W,1,12,0.7,8.27,M,48.8,M,,0000*7F
$GPGSA,M,3,16,11,03,08,22,14,18,01,19,28,06,32,1.3,0.7,1.1*3F
$GPRMC,152824.000,A,5034.3015,N,00227.4020,W,0.13,221.42,151011,,,A*70
$GPGGA,152825.000,5034.3015,N,00227.4019,W,1,12,0.7,8.22,M,48.8,M,,0000*71
$GPGSA,M,3,16,11,03,08,22,14,18,01,19,28,06,32,1.3,0.7,1.1*3F
$GPRMC,152825.000,A,5034.3015,N,00227.4019,W,0.20,43.81,151011,,,A*42
$GPGGA,152826.000,5034.3015,N,00227.4019,W,1,12,0.7,8.11,M,48.8,M,,0000*72
$GPGSA,M,3,16,11,03,08,22,14,18,01,19,28,06,32,1.3,0.7,1.1*3F
$GPRMC,152826.000,A,5034.3015,N,00227.4019,W,0.15,112.76,151011,,,A*7A
$GPGGA,152827.000,5034.3013,N,00227.4019,W,1,11,0.8,7.91,M,48.8,M,,0000*7E
$GPGSA,M,3,16,11,03,08,22,18,01,19,28,06,32,,1.4,0.8,1.2*31
$GPGSV,3,1,12,19,88,189,41,03,51,138,41,22,51,075,41,11,43,266,45*7A
$GPGSV,3,2,12,06,40,129,35,01,26,256,43,18,19,045,39,16,15,180,38*7D
$GPGSV,3,3,12,32,14,194,38,28,12,325,45,14,11,111,,08,11,290,45*73
$GPRMC,152827.000,A,5034.3013,N,00227.4019,W,0.97,222.74,151011,,,A*75
$GPGGA,152828.000,5034.3012,N,00227.4021,W,1,12,0.7,7.83,M,48.8,M,,0000*74
$GPGSA,M,3,16,11,03,08,22,14,18,01,19,28,06,32,1.3,0.7,1.1*3F
$GPRMC,152828.000,A,5034.3012,N,00227.4021,W,0.21,41.47,151011,,,A*4A
$GPGGA,152829.000,5034.3013,N,00227.4020,W,1,12,0.7,7.93,M,48.8,M,,0000*74
$GPGSA,M,3,16,11,03,08,22,14,18,01,19,28,06,32,1.3,0.7,1.1*3F
$GPRMC,152829.000,A,5034.3013,N,00227.4020,W,0.64,45.12,151011,,,A*4E
$GPGGA,152830.000,5034.3013,N,00227.4021,W,1,12,0.7,7.63,M,48.8,M,,0000*72
$GPGSA,M,3,16,11,03,08,22,14,18,01,19,28,06,32,1.3,0.7,1.1*3F
$GPRMC,152830.000,A,5034.3013,N,00227.4021,W,1.09,258.63,151011,,,A*75
$GPGGA,152831.000,5034.3011,N,00227.4022,W,1,12,0.7,7.40,M,48.8,M,,0000*73
$GPGSA,M,3,16,11,03,08,22,14,18,01,19,28,06,32,1.3,0.7,1.1*3F
$GPRMC,152831.000,A,5034.3011,N,00227.4022,W,0.88,152.57,151011,,,A*73
$GPGGA,152832.000,5034.3013,N,00227.4019,W,1,12,0.7,7.45,M,48.8,M,,0000*7F
$GPGSA,M,3,16,11,03,08,22,14,18,01,19,28,06,32,1.3,0.7,1.1*3F
$GPGSV,3,1,12,19,88,189,44,03,51,138,41,22,51,075,40,11,43,266,46*7D
$GPGSV,3,2,12,06,40,129,38,01,26,256,43,18,19,045,39,16,15,180,38*70
$GPGSV,3,3,12,32,14,194,38,28,12,325,46,14,11,111,33,08,11,290,45*70
$GPRMC,152832.000,A,5034.3013,N,00227.4019,W,2.08,27.01,151011,,,A*40
$GPGGA,152833.000,5034.3015,N,00227.4017,W,1,12,0.7,7.42,M,48.8,M,,0000*71
$GPGSA,M,3,16,11,03,08,22,14,18,01,19,28,06,32,1.3,0.7,1.1*3F
$GPRMC,152833.000,A,5034.3015,N,00227.4017,W,0.28,158.15,151011,,,A*75
$GPGGA,152834.000,5034.3014,N,00227.4017,W,1,12,0.7,7.39,M,48.8,M,,0000*7B
$GPGSA,M,3,16,11,03,08,22,14,18,01,19,28,06,32,1.3,0.7,1.1*3F
$GPRMC,152834.000,A,5034.3014,N,00227.4017,W,0.05,22.82,151011,,,A*4E
$GPGGA,152835.000,5034.3014,N,00227.4016,W,1,12,0.7,7.33,M,48.8,M,,0000*71
$GPGSA,M,3,16,11,03,08,22,14,18,01,19,28,06,32,1.3,0.7,1.1*3F
$GPRMC,152835.000,A,5034.3014,N,00227.4016,W,0.22,76.72,151011,,,A*45
$GPGGA,152836.000,5034.3013,N,00227.4016,W,1,12,0.7,7.23,M,48.8,M,,0000*74
$GPGSA,M,3,16,11,03,08,22,14,18,01,19,28,06,32,1.3,0.7,1.1*3F
$GPRMC,152836.000,A,5034.3013,N,00227.4016,W,0.22,152.73,151011,,,A*77
$GPGGA,152837.000,5034.3013,N,00227.4015,W,1,12,0.7,7.13,M,48.8,M,,0000*75
$GPGSA,M,3,16,11,03,08,22,14,18,01,19,28,06,32,1.3,0.7,1.1*3F
$GPGSV,3,1,12,19,88,189,43,03,51,138,27,22,51,075,40,11,43,266,37*7C
$GPGSV,3,2,12,06,40,129,36,01,26,256,42,18,19,045,45,16,15,180,33*7F
$GPGSV,3,3,12,32,14,194,35,28,12,325,45,14,11,111,32,08,11,290,45*7F
$GPRMC,152837.000,A,5034.3013,N,00227.4015,W,0.19,87.63,151011,,,A*45
$GPGGA,152838.000,5034.3012,N,00227.4013,W,1,12,0.7,7.04,M,48.8,M,,0000*7B
$GPGSA,M,3,16,11,03,08,22,14,18,01,19,28,06,32,1.3,0.7,1.1*3F
$GPRMC,152838.000,A,5034.3012,N,00227.4013,W,0.38,102.18,151011,,,A*7E
$GPGGA,152839.000,5034.3012,N,00227.4012,W,1,12,0.7,6.97,M,48.8,M,,0000*70
$GPGSA,M,3,16,11,03,08,22,14,18,01,19,28,06,32,1.3,0.7,1.1*3F
$GPRMC,152839.000,A,5034.3012,N,00227.4012,W,0.19,71.14,151011,,,A*44
$GPGGA,152840.000,5034.3012,N,00227.4010,W,1,12,0.7,6.98,M,48.8,M,,0000*73
$GPGSA,M,3,16,11,03,08,22,14,18,01,19,28,06,32,1.3,0.7,1.1*3F
$GPRMC,152840.000,A,5034.3012,N,00227.4010,W,0.86,96.07,151011,,,A*45
$GPGGA,152841.000,5034.3010,N,00227.4008,W,1,12,0.7,6.93,M,48.8,M,,0000*72
$GPGSA,M,3,16,11,03,08,22,14,18,01,19,28,06,32,1.3,0.7,1.1*3F
$GPRMC,152841.000,A,5034.3010,N,00227.4008,W,0.44,160.04,151011,,,A*7A
$GPGGA,152842.000,5034.3009,N,00227.4007,W,1,12,0.7,7.06,M,48.8,M,,0000*7B
$GPGSA,M,3,16,11,03,08,22,14,18,01,19,28,06,32,1.3,0.7,1.1*3F
$GPGSV,3,1,12,19,88,189,42,03,51,138,46,22,51,075,44,11,43,266,38*71
$GPGSV,3,2,12,06,40,129,46,01,26,256,26,18,19,045,46,16,15,180,38*72
$GPGSV,3,3,12,32,14,194,35,28,12,325,37,14,11,111,43,08,11,290,35*7B
$GPRMC,152842.000,A,5034.3009,N,00227.4007,W,0.40,166.56,151011,,,A*7B
$GPGGA,152843.000,5034.3008,N,00227.4006,W,1,12,0.7,7.14,M,48.8,M,,0000*79
$GPGSA,M,3,16,11,03,08,22,14,18,01,19,28,06,32,1.3,0.7,1.1*3F
$GPRMC,152843.000,A,5034.3008,N,00227.4006,W,0.38,156.79,151011,,,A*7B
$GPGGA,152844.000,5034.3007,N,00227.4006,W,1,12,0.7,7.17,M,48.8,M,,0000*72
$GPGSA,M,3,16,11,03,08,22,14,18,01,19,28,06,32,1.3,0.7,1.1*3F
$GPRMC,152844.000,A,5034.3007,N,00227.4006,W,0.14,211.76,151011,,,A*72
$GPGGA,152845.000,5034.3009,N,00227.4008,W,1,11,0.8,7.01,M,48.8,M,,0000*78
$GPGSA,M,3,16,11,03,08,22,14,18,01,19,06,32,,1.4,0.8,1.1*3D
$GPRMC,152845.000,A,5034.3009,N,00227.4008,W,1.55,335.96,151011,,,A*7E
$GPGGA,152846.000,5034.3010,N,00227.4009,W,1,12,0.7,6.96,M,48.8,M,,0000*71
$GPGSA,M,3,16,11,03,08,22,14,18,01,19,28,06,32,1.3,0.7,1.1*3F
$GPRMC,152846.000,A,5034.3010,N,00227.4009,W,0.29,168.05,151011,,,A*7E
$GPGGA,152847.000,5034.3010,N,00227.4009,W,1,12,0.7,7.02,M,48.8,M,,0000*7C
$GPGSA,M,3,16,11,03,08,22,14,18,01,19,28,06,32,1.3,0.7,1.1*3F
$GPGSV,3,1,12,19,88,189,38,03,51,138,41,22,51,075,45,11,43,266,35*77
$GPGSV,3,2,12,06,40,129,45,01,26,256,34,18,19,045,43,16,15,180,33*7C
$GPGSV,3,3,12,32,14,194,34,28,12,325,37,14,11,111,48,08,11,290,36*72
$GPRMC,152847.000,A,5034.3010,N,00227.4009,W,0.18,315.78,151011,,,A*7F
$GPGGA,152848.000,5034.3010,N,00227.4009,W,1,12,0.7,6.99,M,48.8,M,,0000*70
$GPGSA,M,3,16,11,03,08,22,14,18,01,19,28,06,32,1.3,0.7,1.1*3F
$GPRMC,152848.000,A,5034.3010,N,00227.4009,W,0.20,320.94,151011,,,A*7F
$GPGGA,152849.000,5034.3009,N,00227.4009,W,1,12,0.7,7.01,M,48.8,M,,0000*79
$GPGSA,M,3,16,11,03,08,22,14,18,01,19,28,06,32,1.3,0.7,1.1*3F
$GPRMC,152849.000,A,5034.3009,N,00227.4009,W,0.28,139.22,151011,,,A*79
$GPGGA,152850.000,5034.3009,N,00227.4008,W,1,11,0.8,7.01,M,48.8,M,,0000*7C
$GPGSA,M,3,16,11,03,08,22,14,18,19,28,06,32,,1.3,0.8,1.1*31
$GPRMC,152850.000,A,5034.3009,N,00227.4008,W,0.18,145.20,151011,,,A*7A
$GPGGA,152851.000,5034.3008,N,00227.4007,W,1,11,0.8,7.03,M,48.8,M,,0000*71
$GPGSA,M,3,16,11,03,08,22,14,18,19,28,06,32,,1.3,0.8,1.1*31
$GPRMC,152851.000,A,5034.3008,N,00227.4007,W,0.33,207.46,151011,,,A*79
$GPGGA,152852.000,5034.3007,N,00227.4008,W,1,11,0.8,7.03,M,48.8,M,,0000*72
$GPGSA,M,3,16,11,03,08,22,14,18,19,28,06,32,,1.3,0.8,1.1*31
$GPGSV,3,1,12,19,88,189,42,03,51,138,42,22,51,075,47,11,43,266,33*7D
$GPGSV,3,2,12,06,40,129,43,01,26,256,,18,19,045,44,16,15,180,27*7F
$GPGSV,3,3,12,32,14,194,28,28,12,325,40,14,11,111,40,08,11,290,37*76
$GPRMC,152852.000,A,5034.3007,N,00227.4008,W,0.06,312.57,151011,,,A*79
$GPGGA,152853.000,5034.3007,N,00227.4007,W,1,11,0.8,7.04,M,48.8,M,,0000*7B
$GPGSA,M,3,16,11,03,08,22,14,18,19,28,06,32,,1.3,0.8,1.1*31
$GPRMC,152853.000,A,5034.3007,N,00227.4007,W,0.09,100.02,151011,,,A*79
$GPGGA,152854.000,5034.3006,N,00227.4006,W,1,12,0.7,7.04,M,48.8,M,,0000*70
$GPGSA,M,3,16,11,03,08,22,14,18,01,19,28,06,32,1.3,0.7,1.1*3F
$GPRMC,152854.000,A,5034.3006,N,00227.4006,W,0.21,91.72,151011,,,A*4A
$GPGGA,152855.000,5034.3006,N,00227.4005,W,1,12,0.7,7.05,M,48.8,M,,0000*73
$GPGSA,M,3,16,11,03,08,22,14,18,01,19,28,06,32,1.3,0.7,1.1*3F
$GPRMC,152855.000,A,5034.3006,N,00227.4005,W,0.27,114.76,151011,,,A*76
$GPGGA,152856.000,5034.3006,N,00227.4004,W,1,12,0.7,7.20,M,48.8,M,,0000*76
$GPGSA,M,3,16,11,03,08,22,14,18,01,19,28,06,32,1.3,0.7,1.1*3F
$GPRMC,152856.000,A,5034.3006,N,00227.4004,W,0.23,93.31,151011,,,A*4D
$GPGGA,152857.000,5034.3006,N,00227.4003,W,1,12,0.7,7.27,M,48.8,M,,0000*77
$GPGSA,M,3,16,11,03,08,22,14,18,01,19,28,06,32,1.3,0.7,1.1*3F
$GPGSV,3,1,12,19,88,189,43,03,51,138,44,22,51,075,47,11,43,266,36*7F
$GPGSV,3,2,12,06,40,129,44,01,26,256,34,18,19,045,44,16,15,180,38*71
$GPGSV,3,3,12,32,14,194,39,28,12,325,34,14,11,111,39,08,11,290,36*7A
$GPRMC,152857.000,A,5034.3006,N,00227.4003,W,0.23,306.70,151011,,,A*71
$GPGGA,152858.000,5034.3006,N,00227.4006,W,1,12,0.7,7.21,M,48.8,M,,0000*7B
$GPGSA,M,3,16,11,03,08,22,14,18,01,19,28,06,32,1.3,0.7,1.1*3F
$GPRMC,152858.000,A,5034.3006,N,00227.4006,W,1.08,284.58,151011,,,A*72
$GPGGA,152859.000,5034.3006,N,00227.4010,W,1,12,0.7,7.19,M,48.8,M,,0000*76
$GPGSA,M,3,16,11,03,08,22,14,18,01,19,28,06,32,1.3,0.7,1.1*3F
$GPRMC,152859.000,A,5034.3006,N,00227.4010,W,0.27,277.18,151011,,,A*70
$GPGGA,152900.000,5034.3006,N,00227.4010,W,1,12,0.7,7.16,M,48.8,M,,0000*74
$GPGSA,M,3,16,11,03,08,22,14,18,01,19,28,06,32,1.3,0.7,1.1*3F
$GPRMC,152900.000,A,5034.3006,N,00227.4010,W,0.12,174.51,151011,,,A*76
$GPGGA,152901.000,5034.3005,N,00227.4010,W,1,12,0.7,7.19,M,48.8,M,,0000*79
$GPGSA,M,3,16,11,03,08,22,14,18,01,19,28,06,32,1.3,0.7,1.1*3F
$GPRMC,152901.000,A,5034.3005,N,00227.4010,W,0.33,171.54,151011,,,A*77
$GPGGA,152902.000,5034.3004,N,00227.4010,W,1,12,0.7,7.16,M,48.8,M,,0000*74
$GPGSA,M,3,16,11,03,08,22,14,18,01,19,28,06,32,1.3,0.7,1.1*3F
$GPGSV,3,1,12,19,88,189,42,03,51,138,44,22,51,075,46,11,43,266,38*71
$GPGSV,3,2,12,06,40,129,45,01,26,256,36,18,19,045,42,16,15,180,32*7E
$GPGSV,3,3,12,32,14,194,28,28,12,325,33,14,11,111,42,08,11,290,29*7F
$GPRMC,152902.000,A,5034.3004,N,00227.4010,W,0.18,153.52,151011,,,A*7A
$GPGGA,152903.000,5034.3003,N,00227.4009,W,1,12,0.7,7.20,M,48.8,M,,0000*7F
$GPGSA,M,3,16,11,03,08,22,14,18,01,19,28,06,32,1.3,0.7,1.1*3F
$GPRMC,152903.000,A,5034.3003,N,00227.4009,W,0.37,92.86,151011,,,A*4C
$GPGGA,152904.000,5034.3003,N,00227.4007,W,1,12,0.7,7.29,M,48.8,M,,0000*7F
$GPGSA,M,3,16,11,03,08,22,14,18,01,19,28,06,32,1.3,0.7,1.1*3F
$GPRMC,152904.000,A,5034.3003,N,00227.4007,W,0.38,144.52,151011,,,A*79
$GPGGA,152905.000,5034.3002,N,00227.4006,W,1,12,0.7,7.43,M,48.8,M,,0000*72
$GPGSA,M,3,16,11,03,08,22,14,18,01,19,28,06,32,1.3,0.7,1.1*3F
$GPRMC,152905.000,A,5034.3002,N,00227.4006,W,0.06,100.57,151011,,,A*70
$GPGGA,152906.000,5034.3002,N,00227.4005,W,1,12,0.7,7.48,M,48.8,M,,0000*79
$GPGSA,M,3,16,11,03,08,22,14,18,01,19,28,06,32,1.3,0.7,1.1*3F
$GPRMC,152906.000,A,5034.3002,N,00227.4005,W,0.11,94.97,151011,,,A*46
$GPGGA,152907.000,5034.3002,N,00227.4005,W,1,12,0.7,7.58,M,48.8,M,,0000*79
$GPGSA,M,3,16,11,03,08,22,14,18,01,19,28,06,32,1.3,0.7,1.1*3F
$GPGSV,3,1,12,19,88,189,42,03,51,138,44,22,51,075,45,11,43,266,39*73
$GPGSV,3,2,12,06,40,129,45,01,26,256,35,18,19,045,44,16,15,180,33*7A
$GPGSV,3,3,12,32,14,194,31,28,12,325,30,14,11,111,43,08,11,290,32*7F
$GPRMC,152907.000,A,5034.3002,N,00227.4005,W,0.12,29.94,151011,,,A*41
$GPGGA,152908.000,5034.3002,N,00227.4004,W,1,12,0.7,7.62,M,48.8,M,,0000*7E
$GPGSA,M,3,16,11,03,08,22,14,18,01,19,28,06,32,1.3,0.7,1.1*3F
$GPRMC,152908.000,A,5034.3002,N,00227.4004,W,0.15,93.76,151011,,,A*45
$GPGGA,152909.000,5034.3002,N,00227.4003,W,1,12,0.7,7.76,M,48.8,M,,0000*7D
$GPGSA,M,3,16,11,03,08,22,14,18,01,19,28,06,32,1.3,0.7,1.1*3F
$GPRMC,152909.000,A,5034.3002,N,00227.4003,W,0.17,89.83,151011,,,A*40
$GPGGA,152910.000,5034.3002,N,00227.4003,W,1,12,0.7,7.86,M,48.8,M,,0000*7A
$GPGSA,M,3,16,11,03,08,22,14,18,01,19,28,06,32,1.3,0.7,1.1*3F
$GPRMC,152910.000,A,5034.3002,N,00227.4003,W,0.13,171.33,151011,,,A*71
$GPGGA,152911.000,5034.3002,N,00227.4003,W,1,12,0.7,7.93,M,48.8,M,,0000*7F
$GPGSA,M,3,16,11,03,08,22,14,18,01,19,28,06,32,1.3,0.7,1.1*3F
$GPRMC,152911.000,A,5034.3002,N,00227.4003,W,0.10,53.58,151011,,,A*4F
$GPGGA,152912.000,5034.3001,N,00227.4002,W,1,12,0.7,7.95,M,48.8,M,,0000*78
$GPGSA,M,3,16,11,03,08,22,14,18,01,19,28,06,32,1.3,0.7,1.1*3F
$GPGSV,3,1,12,19,88,189,41,03,51,138,46,22,51,075,47,11,43,266,40*7E
$GPGSV,3,2,12,06,40,129,47,01,26,256,32,18,19,045,44,16,15,180,39*75
$GPGSV,3,3,12,32,14,194,39,28,12,325,34,14,11,111,44,08,11,290,33*75
$GPRMC,152912.000,A,5034.3001,N,00227.4002,W,0.12,145.54,151011,,,A*76
$GPGGA,152913.000,5034.3001,N,00227.4002,W,1,12,0.7,7.97,M,48.8,M,,0000*7B
$GPGSA,M,3,16,11,03,08,22,14,18,01,19,28,06,32,1.3,0.7,1.1*3F
$GPRMC,152913.000,A,5034.3001,N,00227.4002,W,0.18,115.23,151011,,,A*78
$GPGGA,152914.000,5034.3001,N,00227.4002,W,1,12,0.7,7.96,M,48.8,M,,0000*7D
$GPGSA,M,3,16,11,03,08,22,14,18,01,19,28,06,32,1.3,0.7,1.1*3F
$GPRMC,152914.000,A,5034.3001,N,00227.4002,W,0.86,333.23,151011,,,A*7E
$GPGGA,152915.000,5034.3002,N,00227.4003,W,1,12,0.7,7.99,M,48.8,M,,0000*71
$GPGSA,M,3,16,11,03,08,22,14,18,01,19,28,06,32,1.3,0.7,1.1*3F
$GPRMC,152915.000,A,5034.3002,N,00227.4003,W,0.11,134.89,151011,,,A*76
$GPGGA,152916.000,5034.3002,N,00227.4003,W,1,12,0.7,7.99,M,48.8,M,,0000*72
$GPGSA,M,3,16,11,03,08,22,14,18,01,19,28,06,32,1.3,0.7,1.1*3F
$GPRMC,152916.000,A,5034.3002,N,00227.4003,W,0.09,48.72,151011,,,A*42
$GPGGA,152917.000,5034.3002,N,00227.4003,W,1,12,0.7,7.92,M,48.8,M,,0000*78
$GPGSA,M,3,16,11,03,08,22,14,18,01,19,28,06,32,1.3,0.7,1.1*3F
$GPGSV,3,1,12,19,88,175,43,22,50,075,47,03,50,138,45,11,44,266,41*7A
$GPGSV,3,2,12,06,39,129,44,01,27,256,40,18,18,045,44,16,14,180,32*77
$GPGSV,3,3,12,32,14,194,24,28,12,325,43,14,12,110,36,08,10,289,39*7D
$GPRMC,152917.000,A,5034.3002,N,00227.4003,W,0.05,302.05,151011,,,A*72
$GPGGA,152918.000,5034.3001,N,00227.4002,W,1,12,0.7,7.87,M,48.8,M,,0000*71
$GPGSA,M,3,16,11,03,08,22,14,18,01,19,28,06,32,1.3,0.7,1.1*3F
$GPRMC,152918.000,A,5034.3001,N,00227.4002,W,0.33,96.77,151011,,,A*41
